# 
# Header Description:
# 
# Version: v3.0.5.6 Platform: 13 Manufacturer: Google Model: Pixel 6 Pro
# 
# Raw,utcTimeMillis,TimeNanos,LeapSecond,TimeUncertaintyNanos,FullBiasNanos,BiasNanos,BiasUncertaintyNanos,DriftNanosPerSecond,DriftUncertaintyNanosPerSecond,HardwareClockDiscontinuityCount,Svid,TimeOffsetNanos,State,ReceivedSvTimeNanos,ReceivedSvTimeUncertaintyNanos,Cn0DbHz,PseudorangeRateMetersPerSecond,PseudorangeRateUncertaintyMetersPerSecond,AccumulatedDeltaRangeState,AccumulatedDeltaRangeMeters,AccumulatedDeltaRangeUncertaintyMeters,CarrierFrequencyHz,CarrierCycles,CarrierPhase,CarrierPhaseUncertainty,MultipathIndicator,SnrInDb,ConstellationType,AgcDb,BasebandCn0DbHz,FullInterSignalBiasNanos,FullInterSignalBiasUncertaintyNanos,SatelliteInterSignalBiasNanos,SatelliteInterSignalBiasUncertaintyNanos,CodeType,ChipsetElapsedRealtimeNanos
# 
# UncalAccel,utcTimeMillis,elapsedRealtimeNanos,UncalAccelXMps2,UncalAccelYMps2,UncalAccelZMps2,BiasXMps2,BiasYMps2,BiasZMps2
# 
# Accel,utcTimeMillis,elapsedRealtimeNanos,AccelXMps2,AccelYMps2,AccelZMps2
# 
# UncalGyro,utcTimeMillis,elapsedRealtimeNanos,UncalGyroXRadPerSec,UncalGyroYRadPerSec,UncalGyroZRadPerSec,DriftXRadPerSec,DriftYRadPerSec,DriftZRadPerSec
# 
# Gyro,utcTimeMillis,elapsedRealtimeNanos,GyroXRadPerSec,GyroYRadPerSec,GyroZRadPerSec
# 
# UncalMag,utcTimeMillis,elapsedRealtimeNanos,UncalMagXMicroT,UncalMagYMicroT,UncalMagZMicroT,BiasXMicroT,BiasYMicroT,BiasZMicroT
# 
# Mag,utcTimeMillis,elapsedRealtimeNanos,MagXMicroT,MagYMicroT,MagZMicroT
# 
# OrientationDeg,utcTimeMillis,elapsedRealtimeNanos,yawDeg,rollDeg,pitchDeg
# 
# Fix,Provider,LatitudeDegrees,LongitudeDegrees,AltitudeMeters,SpeedMps,AccuracyMeters,BearingDegrees,UnixTimeMillis,SpeedAccuracyMps,BearingAccuracyDegrees,elapsedRealtimeNanos,VerticalAccuracyMeters
# 
# Nav,Svid,Type,Status,MessageId,Sub-messageId,Data(Bytes)
# 
# Status,UnixTimeMillis,SignalCount,SignalIndex,ConstellationType,Svid,CarrierFrequencyHz,Cn0DbHz,AzimuthDegrees,ElevationDegrees,UsedInFix,HasAlmanacData,HasEphemerisData,BasebandCn0DbHz
# 
Fix,FLP,37.3860478000,-122.0838001000,-5.241548437237888,0.0,4.446,,1677973380764,0.017089961,,1408189815000000,0.9259126
Nav,2,257,1,-1,3,34,-64,-53,7,49,35,43,92,63,-19,-91,75,47,-55,97,125,63,-61,-55,-23,26,108,85,17,8,22,50,-109,12,-50,78,-33,63,-23,89,16,4,2,-38,-88
Nav,6,257,1,-1,3,34,-64,-53,7,49,35,43,15,0,12,38,70,23,97,39,58,63,-2,10,0,18,-93,-74,103,8,-31,55,-107,53,24,-42,-31,63,-22,80,-34,21,2,-80,83
Nav,11,257,1,-1,3,34,-64,-53,7,49,35,43,92,63,-6,102,-6,8,7,96,-9,63,-11,9,-16,20,72,-96,-120,8,-21,-28,-89,32,116,16,-1,63,-23,-120,-50,35,-126,-112,-25
Nav,19,257,1,-1,3,34,-64,-53,7,49,35,43,92,63,-4,-100,-90,46,-47,-51,-117,63,-16,-119,-23,45,110,119,85,5,27,-106,-14,40,4,-10,-55,63,-22,-96,-120,10,-3,67,80
Nav,20,257,1,-1,3,34,-64,-53,7,49,35,43,15,63,-7,47,19,60,-53,-102,109,0,5,73,-106,37,47,-118,102,11,9,-30,119,51,-101,-42,71,63,-24,-107,10,2,-3,-71,72
Nav,24,257,1,-1,3,34,-64,-53,7,49,35,43,92,63,-8,-59,70,33,101,-128,-126,63,-41,9,-80,4,45,-36,-97,6,52,-55,44,7,96,-72,79,63,-23,-20,-103,7,6,-90,43
Nav,25,257,1,-1,3,34,-64,-53,7,49,35,43,15,63,-16,80,-40,17,0,27,-112,0,8,73,-120,54,32,22,-44,8,-98,-118,-125,16,86,3,2,63,-24,-60,-30,7,60,-56,91
Nav,29,257,1,-1,3,34,-64,-53,7,49,35,43,15,63,-6,-36,91,30,-60,0,19,0,2,-119,-58,53,-67,-123,-37,5,116,-40,83,16,-49,-70,-37,63,-21,32,-128,12,-67,127,79
Raw,1677973381000,113896881000000,,,-1361894702119491050,0.0,9.693313418630662,255.0,1.0,1185,2,0.0,16431,603798919722971,57,25.07591438293457,-560.2944881944152,1.0089355714746895,16,-49365.60665189488,340282346638528860000000000000000000000,1575420030,,,,0,,1,,20.975914001464844,0.0,1.0,0.0,1.0,C,1408190730949000
Raw,1677973381000,113896881000000,,,-1361894702119491050,0.0,9.693313418630662,255.0,1.0,1185,6,0.0,16431,603798927900152,25,35.278114318847656,562.5363981020291,0.5480274284616249,25,-475524.0178852765,0.002508765086531639,1575420030,,,,0,,1,,31.17811393737793,0.320142130558394,1.0,0.320142130558394,1.0,C,1408190730949000
Raw,1677973381000,113896881000000,,,-1361894702119491050,0.0,9.693313418630662,255.0,1.0,1185,11,0.0,16397,603798932538622,41,29.09676170349121,45.19318397819222,0.826830143879504,25,-2618549.311580408,0.004818938206881285,1575420030,,,,0,,1,,24.996761322021484,-0.20372681261465636,1.0,-0.20372681261465636,1.0,C,1408190730949000
Raw,1677973381000,113896881000000,,,-1361894702119491050,0.0,9.693313418630662,255.0,1.0,1185,12,0.0,16431,603798932207688,26,34.7277946472168,-164.5347118630085,0.5735494303259419,25,-2637411.2247221433,0.002519994741305709,1575420030,,,,0,,1,,30.627796173095703,-0.6984919076624261,1.0,-0.6984919076624261,1.0,C,1408190730949000
Raw,1677973381000,113896881000000,,,-1361894702119491050,0.0,9.693313418630662,255.0,1.0,1185,19,0.0,16397,603798923444548,41,29.046689987182617,589.041165736297,0.8274462242215326,21,47556.32321837691,0.09999363465522206,1575420030,,,,0,,1,,24.94668960571289,0.0,1.0,0.0,1.0,C,1408190730949000
Raw,1677973381000,113896881000000,,,-1361894702119491050,0.0,9.693313418630662,255.0,1.0,1185,20,0.0,16431,603798924046929,38,30.013952255249023,-452.2810827139115,0.7840577925874412,25,-1086569.382565666,0.004336026031523943,1575420030,,,,0,,1,,25.913951873779297,0.0,1.0,0.0,1.0,C,1408190730949000
Raw,1677973381000,113896881000000,,,-1361894702119491050,0.0,9.693313418630662,255.0,1.0,1185,24,0.0,16431,603798925261683,31,32.38402557373047,608.1823504738986,0.677696697143626,25,-472502.4090009277,0.0033005631994456053,1575420030,,,,0,,1,,28.284027099609375,-0.20372681261465636,1.0,-0.20372681261465636,1.0,C,1408190730949000
Raw,1677973381000,113896881000000,,,-1361894702119491050,0.0,9.693313418630662,255.0,1.0,1185,25,0.0,16431,603798927441731,17,39.94036102294922,-447.92319757553537,0.15,25,-1614917.8049988383,0.001466721179895103,1575420030,,,,0,,1,,35.840362548828125,-2.0372682255564105,1.0,-2.0372682255564105,1.0,C,1408190730949000
Raw,1677973381000,113896881000000,,,-1361894702119491050,0.0,9.693313418630662,255.0,1.0,1185,29,0.0,16431,603798919711649,21,37.31462478637695,-411.5140680757388,0.15,25,-562002.4491470591,0.001984423492103815,1575420030,,,,0,,1,,33.21462631225586,-0.6984919076624261,1.0,-0.6984919076624261,1.0,C,1408190730949000
Raw,1677973381000,113896881000000,,,-1361894702119491050,0.0,9.693313418630662,255.0,1.0,1185,6,0.0,16384,603798927900451,1000000000,13.148473739624023,562.4882736734189,299792458,16,-474992.69794616505,340282346638528860000000000000000000000,1176450050,,,,1,,1,,9.148473739624023,1.9208527336454408,1.1323724001940136,1.9208527336454408,1.0,Q,1408190730949000
Raw,1677973381000,113896881000000,,,-1361894702119491050,0.0,9.693313418630662,255.0,1.0,1185,11,0.0,16384,603798932538951,1000000000,11.0,44.86929413354889,299792458,16,-2618022.199679693,340282346638528860000000000000000000000,1176450050,,,,0,,1,,7.0,0.0,1.1323724001940136,0.0,1.0,Q,1408190730949000
Raw,1677973381000,113896881000000,,,-1361894702119491050,0.0,9.693313418630662,255.0,1.0,1185,24,0.0,16384,603798925263104,1000000000,11.0,597.2405867967286,299792458,16,-472359.9105351568,340282346638528860000000000000000000000,1176450050,,,,1,,1,,7.0,3.5215636101095664,1.1323724001940136,3.5215636101095664,1.0,Q,1408190730949000
Raw,1677973381000,113896881000000,,,-1361894702119491050,0.0,9.693313418630662,255.0,1.0,1185,25,0.0,16384,603798927442039,1000000000,11.0,-447.4125401294541,299792458,16,-1614365.3021178036,340282346638528860000000000000000000000,1176450050,,,,1,,1,,7.0,1.0186341127782053,1.1323724001940136,1.0186341127782053,1.0,Q,1408190730949000
Raw,1677973381000,113896881000000,,,-1361894702119491050,0.0,9.693313418630662,255.0,1.0,1185,14,0.0,32995,9780931396752,33,40.1806640625,675.4036566282289,0.15,17,-991577.3027535013,0.09520521227077636,1598062460,,,,0,,3,,36.080665588378906,55.87935447692871,2.0000000474974513,55.87935447692871,2.0000000474974513,C,1408190730949000
Raw,1677973381000,113896881000000,,,-1361894702119491050,0.0,9.693313418630662,255.0,1.0,1185,18,0.0,32867,9780930237965,58,33.28989791870117,-392.6790460450816,0.6378557699490144,17,-559469.937157992,0.09659427553304024,1600312450,,,,0,,3,,29.189899444580078,55.87935447692871,2.0000000474974513,55.87935447692871,2.0000000474974513,C,1408190730949000
Raw,1677973381000,113896881000000,,,-1361894702119491050,0.0,9.693313418630662,255.0,1.0,1185,16,0.0,32867,9780926174009,109,25.56357192993164,-648.438639501077,0.9845689449163064,16,-577908.9265915548,340282346638528860000000000000000000000,1601437440,,,,0,,3,,21.463571548461914,55.87935447692871,2.0000000474974513,55.87935447692871,2.0000000474974513,C,1408190730949000
Raw,1677973381000,113896881000000,,,-1361894702119491050,0.0,9.693313418630662,255.0,1.0,1185,15,0.0,32867,9780936400052,63,32.38822555541992,-53.034769067283804,0.6795114548188699,17,-3151548.0836148676,0.09681241574839144,1602000000,,,,0,,3,,28.288225173950195,55.87935447692871,2.0000000474974513,55.87935447692871,2.0000000474974513,C,1408190730949000
Raw,1677973381000,113896881000000,,,-1361894702119491050,0.0,9.693313418630662,255.0,1.0,1185,24,0.0,32867,9780927585804,40,37.969913482666016,719.9207980400629,0.15,17,588380.5235893376,0.09531093967313856,1603124990,,,,0,,3,,33.86991500854492,55.87935447692871,2.0000000474974513,55.87935447692871,2.0000000474974513,C,1408190730949000
Raw,1677973381000,113896881000000,,,-1361894702119491050,0.0,9.693313418630662,255.0,1.0,1185,17,0.0,32995,9780936370257,81,29.186538696289062,199.64616887192733,0.8380982566635709,16,-4176325.4831403582,340282346638528860000000000000000000000,1604249980,,,,0,,3,,25.086538314819336,55.87935447692871,2.0000000474974513,55.87935447692871,2.0000000474974513,C,1408190730949000
Raw,1677973381000,113896881000000,,,-1361894702119491050,0.0,9.693313418630662,255.0,1.0,1185,15,0.0,85026,603798922826345,25,35.22160339355469,108.13225100639875,0.5496559641210044,25,-2613560.8735720343,0.002380724996328354,1575420030,,,,0,,6,,31.121604919433594,-1.6007106751203535,1.5000000237487257,-1.6007106751203535,1.5000000237487257,C,1408190730949000
Raw,1677973381000,113896881000000,,,-1361894702119491050,0.0,9.693313418630662,255.0,1.0,1185,21,0.0,85026,603798911874872,43,28.30595588684082,-395.76756417272213,0.8615529112407772,29,-1080384.8142075662,0.005278270225971937,1575420030,,,,0,,6,,24.205955505371094,-1.6007106751203535,1.5000000237487257,-1.6007106751203535,1.5000000237487257,C,1408190730949000
Raw,1677973381000,113896881000000,,,-1361894702119491050,0.0,9.693313418630662,255.0,1.0,1185,27,0.0,85026,603798922093776,27,34.05934143066406,-41.74779696891545,0.6017898076507935,25,-2625189.031846652,0.0027215874288231134,1575420030,,,,0,,6,,29.95934295654297,-1.6007106751203535,1.5000000237487257,-1.6007106751203535,1.5000000237487257,C,1408190730949000
Raw,1677973381000,113896881000000,,,-1361894702119491050,0.0,9.693313418630662,255.0,1.0,1185,30,0.0,85026,603798916190487,22,36.42259979248047,430.1067979229754,0.15,25,-1014954.5317316876,0.0020732865668833256,1575420030,,,,0,,6,,32.322601318359375,-1.6007106751203535,1.5000000237487257,-1.6007106751203535,1.5000000237487257,C,1408190730949000
Raw,1677973381000,113896881000000,,,-1361894702119491050,0.0,9.693313418630662,255.0,1.0,1185,34,0.0,85026,603798914005117,28,33.683677673339844,542.3212069944807,0.6186670140901827,25,-481414.9027417104,0.002841878915205598,1575420030,,,,0,,6,,29.58367919921875,-1.6007106751203535,1.5000000237487257,-1.6007106751203535,1.5000000237487257,C,1408190730949000
Raw,1677973381000,113896881000000,,,-1361894702119491050,0.0,9.693313418630662,255.0,1.0,1185,15,0.0,16384,603798922826655,1000000000,11.0,107.89159478089118,299792458,16,-2613021.7679240364,340282346638528860000000000000000000000,1176450050,,,,1,,6,,7.0,-7.141847163438795,1.6323724239427393,-7.141847163438795,1.5000000237487257,Q,1408190730949000
Raw,1677973381000,113896881000000,,,-1361894702119491050,0.0,9.693313418630662,255.0,1.0,1185,21,0.0,16384,603798911875140,1000000000,11.0,-395.2913300077289,299792458,16,-1079804.4083937265,340282346638528860000000000000000000000,1176450050,,,,0,,6,,7.0,-3.81716527044773,1.6323724239427393,-3.81716527044773,1.5000000237487257,Q,1408190730949000
Raw,1677973381000,113896881000000,,,-1361894702119491050,0.0,9.693313418630662,255.0,1.0,1185,27,0.0,16384,603798922094069,1000000000,11.0,-41.61094738536224,299792458,16,-2624637.769994924,340282346638528860000000000000000000000,1176450050,,,,0,,6,,7.0,-3.263051621615886,1.6323724239427393,-3.263051621615886,1.5000000237487257,Q,1408190730949000
Raw,1677973381000,113896881000000,,,-1361894702119491050,0.0,9.693313418630662,255.0,1.0,1185,30,0.0,16384,603798916190830,1000000000,11.0,429.93703320703526,299792458,16,-1014461.9896191062,340282346638528860000000000000000000000,1176450050,,,,1,,6,,7.0,-3.078347072005271,1.6323724239427393,-3.078347072005271,1.5000000237487257,Q,1408190730949000
Raw,1677973381000,113896881000000,,,-1361894702119491050,0.0,9.693313418630662,255.0,1.0,1185,34,0.0,16384,603798914005411,1000000000,11.0,542.2884537537623,299792458,16,-480891.61186018016,340282346638528860000000000000000000000,1176450050,,,,1,,6,,7.0,-5.110097117722034,1.6323724239427393,-5.110097117722034,1.5000000237487257,Q,1408190730949000
Status,0,20,0,6,15,1575420030,35.42,82.0,82.0,1,1,1,31.317068
Status,0,20,1,3,15,1602000000,34.58,309.0,79.0,1,1,1,30.479141
Status,0,20,2,6,27,1575420030,34.51,333.0,78.0,1,1,1,30.405577
Status,0,20,3,1,11,1575420030,34.21,114.0,77.0,1,1,1,30.114323
Status,0,20,4,3,17,1604249980,32.45,327.0,72.0,1,1,1,28.352453
Status,0,20,5,1,12,1575420030,34.73,329.0,67.0,1,1,1,30.627796
Status,0,20,6,3,14,1598062460,43.85,154.0,43.0,1,1,1,39.75451
Status,0,20,7,6,30,1575420030,36.43,125.0,43.0,1,1,1,32.333546
Status,0,20,8,1,6,1575420030,37.44,46.0,42.0,1,1,1,33.344837
Status,0,20,9,3,18,1600312450,35.46,242.0,38.0,1,1,1,31.358435
Status,0,20,10,1,24,1575420030,36.84,217.0,36.0,1,1,1,32.73784
Status,0,20,11,1,25,1575420030,40.07,313.0,36.0,1,1,1,35.969685
Status,0,20,12,6,34,1575420030,34.03,42.0,30.0,1,1,1,29.932817
Status,0,20,13,1,20,1575420030,32.09,141.0,28.0,1,1,1,27.988247
Status,0,20,14,3,24,1603124990,38.22,35.0,28.0,1,1,1,34.124054
Status,0,20,15,6,21,1575420030,29.99,313.0,24.0,1,1,1,25.894613
Status,0,20,16,3,16,1601437440,30.97,328.0,24.0,1,1,1,26.866648
Status,0,20,17,1,19,1575420030,30.46,62.0,23.0,1,1,1,26.362814
Status,0,20,18,1,29,1575420030,38.01,267.0,17.0,0,1,1,33.906876
Status,0,20,19,1,2,1575420030,29.53,218.0,13.0,1,1,1,25.432814
Fix,GPS,37.3860477893,-122.0838001170,1.9595384682179025,0.0,3.9390209,204.43593,1677973381000,0.01722627,66.35125,1408190730949000,3.0
Fix,FLP,37.3860478000,-122.0838001000,-5.538774962138547,0.0,4.277,,1677973381679,0.01722627,,1408190730949000,0.98297447
Nav,14,769,1,2,1,8,10,-76,21,-83,-68,39,79,-51,109,-88
Nav,18,769,1,2,1,8,10,-80,89,-61,76,-10,-124,125,-120,-104
Nav,15,769,1,2,1,8,10,-76,91,61,28,44,40,-56,45,-120
Nav,24,769,1,2,1,8,10,-79,127,64,73,7,-114,-91,116,104
Raw,1677973382000,113897881000000,,,-1361894702119490797,0.0,9.841943864386806,254.0,1.0,1185,2,0.0,16431,603799919724803,73,21.88496208190918,-560.401064035962,1.1524294367328087,16,-49925.02782859109,340282346638528860000000000000000000000,1575420030,,,,0,,1,,17.784961700439453,0.0,1.0,0.0,1.0,C,1408191730955000
Raw,1677973382000,113897881000000,,,-1361894702119490797,0.0,9.841943864386806,254.0,1.0,1185,6,0.0,16431,603799927898272,25,35.1171760559082,562.5957015763788,0.5552643588196988,25,-474961.5313811433,0.0025556827895343304,1575420030,,,,1,,1,,31.017175674438477,0.320142130558394,1.0,0.320142130558394,1.0,C,1408191730955000
Raw,1677973382000,113897881000000,,,-1361894702119490797,0.0,9.841943864386806,254.0,1.0,1185,11,0.0,16397,603799932538461,46,27.483842849731445,44.824100796199644,0.8993614056960246,16,-2618504.173530476,340282346638528860000000000000000000000,1575420030,,,,0,,1,,23.38384246826172,-0.20372681261465636,1.0,-0.20372681261465636,1.0,C,1408191730955000
Raw,1677973382000,113897881000000,,,-1361894702119490797,0.0,9.841943864386806,254.0,1.0,1185,12,0.0,16431,603799932208237,22,36.38192367553711,-164.52395884797556,0.15,25,-2637575.7916089664,0.0020830186549574137,1575420030,,,,0,,1,,32.281925201416016,-0.6984919076624261,1.0,-0.6984919076624261,1.0,C,1408191730955000
Raw,1677973382000,113897881000000,,,-1361894702119490797,0.0,9.841943864386806,254.0,1.0,1185,19,0.0,16397,603799923442609,44,28.067981719970703,588.5910046505437,0.8714571266582505,17,48144.963591432155,0.10057171915014064,1575420030,,,,0,,1,,23.967981338500977,0.0,1.0,0.0,1.0,C,1408191730955000
Raw,1677973382000,113897881000000,,,-1361894702119490797,0.0,9.841943864386806,254.0,1.0,1185,20,0.0,16431,603799924048454,36,30.742725372314453,-452.4048361135458,0.7512859795929074,25,-1087021.7290339938,0.003987063653767109,1575420030,,,,0,,1,,26.642724990844727,0.0,1.0,0.0,1.0,C,1408191730955000
Raw,1677973382000,113897881000000,,,-1361894702119490797,0.0,9.841943864386806,254.0,1.0,1185,24,0.0,16431,603799925259641,43,28.52681541442871,608.0717869849386,0.9979168197885415,16,-471894.45607060264,340282346638528860000000000000000000000,1575420030,,,,0,,1,,24.426815032958984,-0.20372681261465636,1.0,-0.20372681261465636,1.0,C,1408191730955000
Raw,1677973382000,113897881000000,,,-1361894702119490797,0.0,9.841943864386806,254.0,1.0,1185,25,0.0,16431,603799927443223,18,38.90482711791992,-447.93304740547046,0.15,25,-1615365.7722894964,0.0016524347010999918,1575420030,,,,0,,1,,34.80482864379883,-2.0372682255564105,1.0,-2.0372682255564105,1.0,C,1408191730955000
Raw,1677973382000,113897881000000,,,-1361894702119490797,0.0,9.841943864386806,254.0,1.0,1185,29,0.0,16431,603799919713053,20,37.977294921875,-411.5693839026753,0.15,25,-562414.0305337238,0.0018386576557531953,1575420030,,,,0,,1,,33.877296447753906,-0.6984919076624261,1.0,-0.6984919076624261,1.0,C,1408191730955000
Raw,1677973382000,113897881000000,,,-1361894702119490797,0.0,9.841943864386806,254.0,1.0,1185,6,0.0,16384,603799927898562,1000000000,11.530994415283203,562.4154053813731,299792458,16,-474430.22643116646,340282346638528860000000000000000000000,1176450050,,,,1,,1,,7.530994415283203,1.9208527336454408,1.1323724001940136,1.9208527336454408,1.0,Q,1408191730955000
Raw,1677973382000,113897881000000,,,-1361894702119490797,0.0,9.841943864386806,254.0,1.0,1185,11,0.0,16384,603799932538800,1000000000,11.0,45.37428963154031,299792458,16,-2617976.819277057,340282346638528860000000000000000000000,1176450050,,,,0,,1,,7.0,0.0,1.1323724001940136,0.0,1.0,Q,1408191730955000
Raw,1677973382000,113897881000000,,,-1361894702119490797,0.0,9.841943864386806,254.0,1.0,1185,24,0.0,16384,603799925261130,1000000000,11.0,597.2891202148171,299792458,16,-471761.8446860189,340282346638528860000000000000000000000,1176450050,,,,0,,1,,7.0,3.5215636101095664,1.1323724001940136,3.5215636101095664,1.0,Q,1408191730955000
Raw,1677973382000,113897881000000,,,-1361894702119490797,0.0,9.841943864386806,254.0,1.0,1185,25,0.0,16384,603799927443532,1000000000,11.0,-447.4999616304351,299792458,16,-1614812.802566922,340282346638528860000000000000000000000,1176450050,,,,1,,1,,7.0,1.0186341127782053,1.1323724001940136,1.0186341127782053,1.0,Q,1408191730955000
Raw,1677973382000,113897881000000,,,-1361894702119490797,0.0,9.841943864386806,254.0,1.0,1185,14,0.0,32995,9781931394452,33,41.15414810180664,675.4509630778825,0.15,17,-990901.9585722813,0.0950560908791894,1598062460,,,,0,,3,,37.05414962768555,55.87935447692871,2.0000000474974513,55.87935447692871,2.0000000474974513,C,1408191730955000
Raw,1677973382000,113897881000000,,,-1361894702119490797,0.0,9.841943864386806,254.0,1.0,1185,18,0.0,32995,9781930238665,54,34.17546463012695,-392.59608934590506,0.5980330156267284,17,-559862.6751395656,0.0963105218008209,1600312450,,,,0,,3,,30.07546615600586,55.87935447692871,2.0000000474974513,55.87935447692871,2.0000000474974513,C,1408191730955000
Raw,1677973382000,113897881000000,,,-1361894702119490797,0.0,9.841943864386806,254.0,1.0,1185,16,0.0,32867,9781926176184,98,26.88102912902832,-649.6881705221163,0.9253248485963397,16,-578559.3563329224,340282346638528860000000000000000000000,1601437440,,,,0,,3,,22.781028747558594,55.87935447692871,2.0000000474974513,55.87935447692871,2.0000000474974513,C,1408191730955000
Raw,1677973382000,113897881000000,,,-1361894702119490797,0.0,9.841943864386806,254.0,1.0,1185,15,0.0,32995,9781936399613,66,31.760997772216797,-52.97653493000752,0.7077172171488155,17,-3151601.1063215923,0.09705535566576212,1602000000,,,,0,,3,,27.66099739074707,55.87935447692871,2.0000000474974513,55.87935447692871,2.0000000474974513,C,1408191730955000
Raw,1677973382000,113897881000000,,,-1361894702119490797,0.0,9.841943864386806,254.0,1.0,1185,24,0.0,32995,9781927582818,39,38.10715103149414,719.96728651076,0.15,17,589100.453035466,0.09528259079604387,1603124990,,,,0,,3,,34.00715255737305,55.87935447692871,2.0000000474974513,55.87935447692871,2.0000000474974513,C,1408191730955000
Raw,1677973382000,113897881000000,,,-1361894702119490797,0.0,9.841943864386806,254.0,1.0,1185,17,0.0,32995,9781936369590,85,28.7368106842041,199.29994223734036,1.014303025838649,16,-4176126.2728233016,340282346638528860000000000000000000000,1604249980,,,,0,,3,,24.636810302734375,55.87935447692871,2.0000000474974513,55.87935447692871,2.0000000474974513,C,1408191730955000
Raw,1677973382000,113897881000000,,,-1361894702119490797,0.0,9.841943864386806,254.0,1.0,1185,15,0.0,85026,603799922825982,25,34.94297790527344,108.20638886994999,0.5621853940656067,25,-2613452.722516973,0.002458331873640418,1575420030,,,,0,,6,,30.842979431152344,-1.6007106751203535,1.5000000237487257,-1.6007106751203535,1.5000000237487257,C,1408191730955000
Raw,1677973382000,113897881000000,,,-1361894702119490797,0.0,9.841943864386806,254.0,1.0,1185,21,0.0,85026,603799911876193,50,26.68854331970215,-395.86040478429027,0.9342866042101998,16,-1080780.6408656347,340282346638528860000000000000000000000,1575420030,,,,0,,6,,22.588542938232422,-1.6007106751203535,1.5000000237487257,-1.6007106751203535,1.5000000237487257,C,1408191730955000
Raw,1677973382000,113897881000000,,,-1361894702119490797,0.0,9.841943864386806,254.0,1.0,1185,27,0.0,85026,603799922093915,27,33.90169143676758,-41.76871081629926,0.6088792248767296,25,-2625230.824685116,0.002771435771137476,1575420030,,,,0,,6,,29.801692962646484,-1.6007106751203535,1.5000000237487257,-1.6007106751203535,1.5000000237487257,C,1408191730955000
Raw,1677973382000,113897881000000,,,-1361894702119490797,0.0,9.841943864386806,254.0,1.0,1185,30,0.0,85026,603799916189049,23,36.19493865966797,430.0510731065606,0.15,25,-1014524.4870420323,0.00212834682315588,1575420030,,,,0,,6,,32.094940185546875,-1.6007106751203535,1.5000000237487257,-1.6007106751203535,1.5000000237487257,C,1408191730955000
Raw,1677973382000,113897881000000,,,-1361894702119490797,0.0,9.841943864386806,254.0,1.0,1185,34,0.0,85026,603799914003305,28,33.81763458251953,542.2481342076958,0.612642873332478,25,-480872.66617749986,0.0027983870822936296,1575420030,,,,0,,6,,29.717634201049805,-1.6007106751203535,1.5000000237487257,-1.6007106751203535,1.5000000237487257,C,1408191730955000
Raw,1677973382000,113897881000000,,,-1361894702119490797,0.0,9.841943864386806,254.0,1.0,1185,15,0.0,16384,603799922826294,1000000000,11.0,108.1489428894808,299792458,16,-2612913.6184040233,340282346638528860000000000000000000000,1176450050,,,,0,,6,,7.0,-7.141847163438795,1.6323724239427393,-7.141847163438795,1.5000000237487257,Q,1408191730955000
Raw,1677973382000,113897881000000,,,-1361894702119490797,0.0,9.841943864386806,254.0,1.0,1185,21,0.0,16384,603799911876484,1000000000,11.0,-395.09225437917917,299792458,16,-1080200.0611314424,340282346638528860000000000000000000000,1176450050,,,,0,,6,,7.0,-3.81716527044773,1.6323724239427393,-3.81716527044773,1.5000000237487257,Q,1408191730955000
Raw,1677973382000,113897881000000,,,-1361894702119490797,0.0,9.841943864386806,254.0,1.0,1185,27,0.0,16384,603799922094210,1000000000,11.0,-41.581815405649365,299792458,16,-2624679.5689194845,340282346638528860000000000000000000000,1176450050,,,,0,,6,,7.0,-3.263051621615886,1.6323724239427393,-3.263051621615886,1.5000000237487257,Q,1408191730955000
Raw,1677973382000,113897881000000,,,-1361894702119490797,0.0,9.841943864386806,254.0,1.0,1185,30,0.0,16384,603799916189360,1000000000,11.0,429.2863650295583,299792458,16,-1014031.4407154154,340282346638528860000000000000000000000,1176450050,,,,1,,6,,7.0,-3.078347072005271,1.6323724239427393,-3.078347072005271,1.5000000237487257,Q,1408191730955000
Raw,1677973382000,113897881000000,,,-1361894702119490797,0.0,9.841943864386806,254.0,1.0,1185,34,0.0,16384,603799914003601,1000000000,11.078052520751953,542.2884537537623,299792458,16,-480349.3044358822,340282346638528860000000000000000000000,1176450050,,,,1,,6,,7.078052520751953,-5.110097117722034,1.6323724239427393,-5.110097117722034,1.5000000237487257,Q,1408191730955000
Status,1677973381000,20,0,6,15,1575420030,35.37,82.0,82.0,1,1,1,31.269659
Status,1677973381000,20,1,3,15,1602000000,34.30,309.0,79.0,1,1,1,30.197327
Status,1677973381000,20,2,6,27,1575420030,34.45,333.0,78.0,1,1,1,30.345188
Status,1677973381000,20,3,1,11,1575420030,33.54,114.0,77.0,1,1,1,29.441275
Status,1677973381000,20,4,3,17,1604249980,32.08,327.0,72.0,1,1,1,27.980888
Status,1677973381000,20,5,1,12,1575420030,36.38,329.0,67.0,1,1,1,32.281925
Status,1677973381000,20,6,3,14,1598062460,43.58,154.0,43.0,1,1,1,39.484474
Status,1677973381000,20,7,6,30,1575420030,36.41,125.0,43.0,1,1,1,32.309685
Status,1677973381000,20,8,1,6,1575420030,37.21,46.0,42.0,1,1,1,33.112072
Status,1677973381000,20,9,3,18,1600312450,35.33,242.0,38.0,1,1,1,31.230137
Status,1677973381000,20,10,1,24,1575420030,36.01,217.0,36.0,1,1,1,31.906736
Status,1677973381000,20,11,1,25,1575420030,39.95,313.0,36.0,1,1,1,35.8532
Status,1677973381000,20,12,6,34,1575420030,34.01,42.0,30.0,1,1,1,29.911299
Status,1677973381000,20,13,1,20,1575420030,31.95,141.0,28.0,1,1,1,27.853695
Status,1677973381000,20,14,3,24,1603124990,38.21,35.0,28.0,1,1,1,34.112366
Status,1677973381000,20,15,6,21,1575420030,29.66,313.0,24.0,1,1,1,25.564007
Status,1677973381000,20,16,3,16,1601437440,30.56,328.0,24.0,1,1,1,26.458086
Status,1677973381000,20,17,1,19,1575420030,30.22,62.0,23.0,1,1,1,26.123331
Status,1677973381000,20,18,1,29,1575420030,38.00,267.0,17.0,0,1,1,33.90392
Status,1677973381000,20,19,1,2,1575420030,28.77,218.0,13.0,1,1,1,24.668028
Fix,GPS,37.3860477893,-122.0838001170,2.1118856975325286,0.0,3.9390433,204.43593,1677973382000,0.018084105,180.0,1408191730955000,3.0
Fix,FLP,37.3860478000,-122.0838001000,-5.869241754750803,0.0,4.192,,1677973382679,0.018084105,,1408191730955000,0.9439051
Raw,1677973383000,113898881000000,,,-1361894702119490541,0.0,9.780673996913546,253.0,1.0,1185,2,0.0,16431,603800919726686,42,28.66084861755371,-560.7024892814497,0.84772575182369,21,-50485.02134724245,0.10021379186128056,1575420030,,,,1,,1,,24.560848236083984,0.0,1.0,0.0,1.0,C,1408192730966000
Raw,1677973383000,113898881000000,,,-1361894702119490541,0.0,9.780673996913546,253.0,1.0,1185,6,0.0,16431,603800927896373,21,37.1439208984375,562.8373461931255,0.15,25,-474398.9862818974,0.0020238091237843037,1575420030,,,,0,,1,,33.043922424316406,0.320142130558394,1.0,0.320142130558394,1.0,C,1408192730966000
Raw,1677973383000,113898881000000,,,-1361894702119490541,0.0,9.780673996913546,253.0,1.0,1185,11,0.0,16397,603800932538300,32,32.19366455078125,45.7437647617829,0.687565898162406,17,-2618458.768082215,0.0985205342649368,1575420030,,,,0,,1,,28.093664169311523,-0.20372681261465636,1.0,-0.20372681261465636,1.0,C,1408192730966000
Raw,1677973383000,113898881000000,,,-1361894702119490541,0.0,9.780673996913546,253.0,1.0,1185,12,0.0,16431,603800932208759,19,38.189048767089844,-164.31145473155584,0.15,25,-2637740.3157941927,0.0017943750135600567,1575420030,,,,0,,1,,34.08905029296875,-0.6984919076624261,1.0,-0.6984919076624261,1.0,C,1408192730966000
Raw,1677973383000,113898881000000,,,-1361894702119490541,0.0,9.780673996913546,253.0,1.0,1185,19,0.0,16397,603800923440631,41,29.104087829589844,588.8481227025518,0.824864278438036,17,48733.67941858344,0.09996171310831582,1575420030,,,,0,,1,,25.004087448120117,0.0,1.0,0.0,1.0,C,1408192730966000
Raw,1677973383000,113898881000000,,,-1361894702119490541,0.0,9.780673996913546,253.0,1.0,1185,20,0.0,16431,603800924049939,26,34.66649627685547,-451.9583900155535,0.5748386391842959,25,-1087473.9018354402,0.0025378421414643526,1575420030,,,,0,,1,,30.566497802734375,0.0,1.0,0.0,1.0,C,1408192730966000
Raw,1677973383000,113898881000000,,,-1361894702119490541,0.0,9.780673996913546,253.0,1.0,1185,24,0.0,16431,603800925257613,22,36.82822036743164,608.647644170348,0.15,17,-471286.31061977835,0.09724555715274787,1575420030,,,,0,,1,,32.72822189331055,-0.20372681261465636,1.0,-0.20372681261465636,1.0,C,1408192730966000
Raw,1677973383000,113898881000000,,,-1361894702119490541,0.0,9.780673996913546,253.0,1.0,1185,25,0.0,16431,603800927444709,20,37.611000061035156,-447.57876026991585,0.15,25,-1615813.7394440959,0.0018081703456118703,1575420030,,,,0,,1,,33.51100158691406,-2.0372682255564105,1.0,-2.0372682255564105,1.0,C,1408192730966000
Raw,1677973383000,113898881000000,,,-1361894702119490541,0.0,9.780673996913546,253.0,1.0,1185,29,0.0,16431,603800919714412,21,37.01358413696289,-412.0597622871255,0.15,25,-562825.6569237945,0.0019369134679436684,1575420030,,,,0,,1,,32.9135856628418,-0.6984919076624261,1.0,-0.6984919076624261,1.0,C,1408192730966000
Raw,1677973383000,113898881000000,,,-1361894702119490541,0.0,9.780673996913546,253.0,1.0,1185,6,0.0,16384,603800927896686,1000000000,11.729825973510742,562.4882736734189,299792458,16,-473867.7374516276,340282346638528860000000000000000000000,1176450050,,,,1,,1,,7.729825973510742,1.9208527336454408,1.1327287347906587,1.9208527336454408,1.0,Q,1408192730966000
Raw,1677973383000,113898881000000,,,-1361894702119490541,0.0,9.780673996913546,253.0,1.0,1185,11,0.0,16384,603800932538653,1000000000,11.0,45.49082181069886,299792458,16,-2617932.0300187073,340282346638528860000000000000000000000,1176450050,,,,0,,1,,7.0,0.0,1.1327287347906587,0.0,1.0,Q,1408192730966000
Raw,1677973383000,113898881000000,,,-1361894702119490541,0.0,9.780673996913546,253.0,1.0,1185,24,0.0,16384,603800925259164,1000000000,11.0,597.3377217978186,299792458,16,-471163.50431673,340282346638528860000000000000000000000,1176450050,,,,0,,1,,7.0,3.5215636101095664,1.1327287347906587,3.5215636101095664,1.0,Q,1408192730966000
Raw,1677973383000,113898881000000,,,-1361894702119490541,0.0,9.780673996913546,253.0,1.0,1185,25,0.0,16384,603800927445024,1000000000,11.0,-447.45626792117287,299792458,16,-1615260.3022295192,340282346638528860000000000000000000000,1176450050,,,,0,,1,,7.0,1.0186341127782053,1.1327287347906587,1.0186341127782053,1.0,Q,1408192730966000
Raw,1677973383000,113898881000000,,,-1361894702119490541,0.0,9.780673996913546,253.0,1.0,1185,14,0.0,32995,9782931392222,33,41.98110580444336,675.7981951449369,0.15,17,-990226.4425991926,0.09494190316454562,1598062460,,,,0,,3,,37.881107330322266,55.87935447692871,2.0000000474974513,55.87935447692871,2.0000000474974513,C,1408192730966000
Raw,1677973383000,113898881000000,,,-1361894702119490541,0.0,9.780673996913546,253.0,1.0,1185,18,0.0,32995,9782930239924,55,33.98289489746094,-392.8401878995214,0.6066929551119276,17,-560255.4178685588,0.09636978790984042,1600312450,,,,0,,3,,29.882896423339844,55.87935447692871,2.0000000474974513,55.87935447692871,2.0000000474974513,C,1408192730966000
Raw,1677973383000,113898881000000,,,-1361894702119490541,0.0,9.780673996913546,253.0,1.0,1185,16,0.0,32867,9782926178347,78,29.74922752380371,-649.605690977331,0.7963455166733828,16,-579208.1251806114,340282346638528860000000000000000000000,1601437440,,,,0,,3,,25.649227142333984,55.87935447692871,2.0000000474974513,55.87935447692871,2.0000000474974513,C,1408192730966000
Raw,1677973383000,113898881000000,,,-1361894702119490541,0.0,9.780673996913546,253.0,1.0,1185,15,0.0,32995,9782936399807,56,33.72269058227539,-52.352544795373774,0.6195021008422894,17,-3151653.9661190114,0.09635038568780213,1602000000,,,,0,,3,,29.622690200805664,55.87935447692871,2.0000000474974513,55.87935447692871,2.0000000474974513,C,1408192730966000
Raw,1677973383000,113898881000000,,,-1361894702119490541,0.0,9.780673996913546,253.0,1.0,1185,24,0.0,32995,9782927580377,35,39.699764251708984,720.1732808779839,0.15,17,589820.3877779094,0.09498437839726895,1603124990,,,,0,,3,,35.59976577758789,55.87935447692871,2.0000000474974513,55.87935447692871,2.0000000474974513,C,1408192730966000
Raw,1677973383000,113898881000000,,,-1361894702119490541,0.0,9.780673996913546,253.0,1.0,1185,17,0.0,32995,9782936368952,85,28.62698745727539,198.41079911157328,0.8486445802365501,16,-4175927.019268396,340282346638528860000000000000000000000,1604249980,,,,0,,3,,24.526987075805664,55.87935447692871,2.0000000474974513,55.87935447692871,2.0000000474974513,C,1408192730966000
Raw,1677973383000,113898881000000,,,-1361894702119490541,0.0,9.780673996913546,253.0,1.0,1185,15,0.0,85026,603800922825621,28,33.842586517333984,108.14337040783931,0.6116686609277684,25,-2613344.5173716685,0.002790358616039157,1575420030,,,,0,,6,,29.74258804321289,-1.6007106751203535,1.5000000237487257,-1.6007106751203535,1.5000000237487257,C,1408192730966000
Raw,1677973383000,113898881000000,,,-1361894702119490541,0.0,9.780673996913546,253.0,1.0,1185,21,0.0,85026,603800911877471,41,28.92206382751465,-395.5495046158892,0.8338477349910103,25,-1081176.3273023798,0.004916842095553875,1575420030,,,,0,,6,,24.822063446044922,-1.6007106751203535,1.5000000237487257,-1.6007106751203535,1.5000000237487257,C,1408192730966000
Raw,1677973383000,113898881000000,,,-1361894702119490541,0.0,9.780673996913546,253.0,1.0,1185,27,0.0,85026,603800922094050,31,32.336360931396484,-41.38707250938509,0.679270414633188,25,-2625272.5622541537,0.0033187263179570436,1575420030,,,,0,,6,,28.236360549926758,-1.6007106751203535,1.5000000237487257,-1.6007106751203535,1.5000000237487257,C,1408192730966000
Raw,1677973383000,113898881000000,,,-1361894702119490541,0.0,9.780673996913546,253.0,1.0,1185,30,0.0,85026,603800916187633,20,37.89400863647461,430.4558363602255,0.15,25,-1014094.3506752746,0.0018563730409368873,1575420030,,,,0,,6,,33.794010162353516,-1.6007106751203535,1.5000000237487257,-1.6007106751203535,1.5000000237487257,C,1408192730966000
Raw,1677973383000,113898881000000,,,-1361894702119490541,0.0,9.780673996913546,253.0,1.0,1185,34,0.0,85026,603800914001501,35,30.888261795043945,542.5114893492475,1.0892224560344905,16,-480330.4072771845,340282346638528860000000000000000000000,1575420030,,,,0,,6,,26.78826141357422,-1.6007106751203535,1.5000000237487257,-1.6007106751203535,1.5000000237487257,C,1408192730966000
Raw,1677973383000,113898881000000,,,-1361894702119490541,0.0,9.780673996913546,253.0,1.0,1185,15,0.0,16384,603800922825936,1000000000,11.0,108.20235861946617,299792458,16,-2612805.776529947,340282346638528860000000000000000000000,1176450050,,,,1,,6,,7.0,-7.141847163438795,1.6327287585393844,-7.141847163438795,1.5000000237487257,Q,1408192730966000
Raw,1677973383000,113898881000000,,,-1361894702119490541,0.0,9.780673996913546,253.0,1.0,1185,21,0.0,16384,603800911877788,1000000000,11.0,-395.2427625071839,299792458,16,-1080595.8583442804,340282346638528860000000000000000000000,1176450050,,,,1,,6,,7.0,-3.81716527044773,1.6327287585393844,-3.81716527044773,1.5000000237487257,Q,1408192730966000
Raw,1677973383000,113898881000000,,,-1361894702119490541,0.0,9.780673996913546,253.0,1.0,1185,27,0.0,16384,603800922094360,1000000000,11.0,-41.64007936507511,299792458,16,-2624723.7088059234,340282346638528860000000000000000000000,1176450050,,,,1,,6,,7.0,-3.263051621615886,1.6327287585393844,-3.263051621615886,1.5000000237487257,Q,1408192730966000
Raw,1677973383000,113898881000000,,,-1361894702119490541,0.0,9.780673996913546,253.0,1.0,1185,30,0.0,16384,603800916187948,1000000000,11.0,430.0195809167335,299792458,16,-1013600.767641699,340282346638528860000000000000000000000,1176450050,,,,1,,6,,7.0,-3.078347072005271,1.6327287585393844,-3.078347072005271,1.5000000237487257,Q,1408192730966000
Raw,1677973383000,113898881000000,,,-1361894702119490541,0.0,9.780673996913546,253.0,1.0,1185,34,0.0,16384,603800914001792,1000000000,11.0,542.3370553367638,299792458,16,-479806.9944052849,340282346638528860000000000000000000000,1176450050,,,,0,,6,,7.0,-5.110097117722034,1.6327287585393844,-5.110097117722034,1.5000000237487257,Q,1408192730966000
Status,1677973382000,20,0,6,15,1575420030,35.22,82.0,82.0,1,1,1,31.116951
Status,1677973382000,20,1,3,15,1602000000,34.24,309.0,79.0,1,1,1,30.139862
Status,1677973382000,20,2,6,27,1575420030,34.23,333.0,78.0,1,1,1,30.134306
Status,1677973382000,20,3,1,11,1575420030,33.41,114.0,77.0,1,1,1,29.306513
Status,1677973382000,20,4,3,17,1604249980,31.74,327.0,72.0,1,1,1,27.635498
Status,1677973382000,20,5,1,12,1575420030,38.19,329.0,67.0,1,1,1,34.08905
Status,1677973382000,20,6,3,14,1598062460,43.42,154.0,43.0,1,1,1,39.32414
Status,1677973382000,20,7,6,30,1575420030,37.89,125.0,43.0,1,1,1,33.79401
Status,1677973382000,20,8,1,6,1575420030,37.21,46.0,42.0,1,1,1,33.105255
Status,1677973382000,20,9,3,18,1600312450,35.20,242.0,38.0,1,1,1,31.095413
Status,1677973382000,20,10,1,24,1575420030,36.83,217.0,36.0,1,1,1,32.72822
Status,1677973382000,20,11,1,25,1575420030,39.72,313.0,36.0,1,1,1,35.61898
Status,1677973382000,20,12,6,34,1575420030,33.70,42.0,30.0,1,1,1,29.598995
Status,1677973382000,20,13,3,24,1603124990,39.70,35.0,28.0,1,1,1,35.599766
Status,1677973382000,20,14,1,20,1575420030,34.67,141.0,28.0,1,1,1,30.566498
Status,1677973382000,20,15,3,16,1601437440,30.48,328.0,24.0,1,1,1,26.377201
Status,1677973382000,20,16,6,21,1575420030,29.59,313.0,24.0,1,1,1,25.489813
Status,1677973382000,20,17,1,19,1575420030,30.11,62.0,23.0,1,1,1,26.011406
Status,1677973382000,20,18,1,29,1575420030,37.90,267.0,17.0,0,1,1,33.804886
Status,1677973382000,20,19,1,2,1575420030,28.76,218.0,13.0,1,1,1,24.65731
Fix,GPS,37.3860477893,-122.0838001170,2.2431171674170023,0.0,3.9390657,204.43593,1677973383000,0.016256215,180.0,1408192730966000,3.0
Fix,FLP,37.3860478000,-122.0838001000,-5.699405945543951,0.0,4.108,,1677973383679,0.016256215,,1408192730966000,1.0029261
Nav,14,769,1,2,2,16,-117,4,14,-121,-40,-73,-57,-109,46,0
Nav,15,769,1,2,2,16,-117,5,26,17,-16,110,35,-11,-85,-56
Nav,24,769,1,2,2,16,-117,0,101,-70,-4,40,-90,-58,98,-8
Raw,1677973384000,113899881000000,,,-1361894702119490288,0.0,9.803908861637966,253.0,1.0,1185,2,0.0,16431,603801919728600,38,30.07009506225586,-560.5201140565962,0.870816682685192,16,-51045.38042540172,340282346638528860000000000000000000000,1575420030,,,,0,,1,,25.970094680786133,0.0,1.0,0.0,1.0,C,1408193731018000
Raw,1677973384000,113899881000000,,,-1361894702119490288,0.0,9.803908861637966,253.0,1.0,1185,6,0.0,16431,603801927894486,23,36.30522155761719,562.6738867316421,0.15,25,-473836.1971923372,0.002101494697853923,1575420030,,,,0,,1,,32.205223083496094,0.320142130558394,1.0,0.320142130558394,1.0,C,1408193731018000
Raw,1677973384000,113899881000000,,,-1361894702119490288,0.0,9.803908861637966,253.0,1.0,1185,11,0.0,16397,603801932538176,26,34.577880859375,45.65796643779379,0.5803504114500941,17,-2618413.2229671865,0.09771070248734927,1575420030,,,,0,,1,,30.477880477905273,-0.20372681261465636,1.0,-0.20372681261465636,1.0,C,1408193731018000
Raw,1677973384000,113899881000000,,,-1361894702119490288,0.0,9.803908861637966,253.0,1.0,1185,12,0.0,16431,603801932209309,19,38.45940017700195,-164.2443634158907,0.15,25,-2637904.5884827003,0.0017393843736499548,1575420030,,,,0,,1,,34.35940170288086,-0.6984919076624261,1.0,-0.6984919076624261,1.0,C,1408193731018000
Raw,1677973384000,113899881000000,,,-1361894702119490288,0.0,9.803908861637966,253.0,1.0,1185,19,0.0,16397,603801923438649,53,26.715299606323242,588.1035573573545,299.7930707273142,16,49322.455111603595,340282346638528860000000000000000000000,1575420030,,,,0,,1,,22.615299224853516,0.0,1.0,0.0,1.0,C,1408193731018000
Raw,1677973384000,113899881000000,,,-1361894702119490288,0.0,9.803908861637966,253.0,1.0,1185,20,0.0,16431,603801924051445,31,32.26194763183594,-452.46632086511295,0.6829686940024025,25,-1087926.0045156195,0.003347279503941536,1575420030,,,,0,,1,,28.161949157714844,0.0,1.0,0.0,1.0,C,1408193731018000
Raw,1677973384000,113899881000000,,,-1361894702119490288,0.0,9.803908861637966,253.0,1.0,1185,24,0.0,16431,603801925255588,23,35.88195037841797,608.4359239504283,0.5203979392295659,17,-470678.0046898174,0.09735327578437304,1575420030,,,,0,,1,,31.781949996948242,-0.20372681261465636,1.0,-0.20372681261465636,1.0,C,1408193731018000
Raw,1677973384000,113899881000000,,,-1361894702119490288,0.0,9.803908861637966,253.0,1.0,1185,25,0.0,16431,603801927446254,24,35.61640930175781,-447.5466886783279,0.5327330592316095,25,-1616261.4268647954,0.0024129331577569246,1575420030,,,,0,,1,,31.516408920288086,-2.0372682255564105,1.0,-2.0372682255564105,1.0,C,1408193731018000
Raw,1677973384000,113899881000000,,,-1361894702119490288,0.0,9.803908861637966,253.0,1.0,1185,29,0.0,16431,603801919715813,27,34.35139846801758,-410.62345940434125,0.5918261476362989,16,-563237.1205676572,340282346638528860000000000000000000000,1575420030,,,,0,,1,,30.25139808654785,-0.6984919076624261,1.0,-0.6984919076624261,1.0,C,1408193731018000
Raw,1677973384000,113899881000000,,,-1361894702119490288,0.0,9.803908861637966,253.0,1.0,1185,6,0.0,16384,603801927894808,1000000000,11.226673126220703,562.5320014651377,299792458,16,-473305.550897556,340282346638528860000000000000000000000,1176450050,,,,0,,1,,7.226673126220703,1.9208527336454408,1.1327291572825087,1.9208527336454408,1.0,Q,1408193731018000
Raw,1677973384000,113899881000000,,,-1361894702119490288,0.0,9.803908861637966,253.0,1.0,1185,11,0.0,16384,603801932538503,1000000000,11.0,44.77218043399421,299792458,16,-2617887.0880802586,340282346638528860000000000000000000000,1176450050,,,,0,,1,,7.0,0.0,1.1327291572825087,0.0,1.0,Q,1408193731018000
Raw,1677973384000,113899881000000,,,-1361894702119490288,0.0,9.803908861637966,253.0,1.0,1185,24,0.0,16384,603801925257172,1000000000,11.0,597.3862552159071,299792458,16,-470564.8904269761,340282346638528860000000000000000000000,1176450050,,,,1,,1,,7.0,3.5215636101095664,1.1327291572825087,3.5215636101095664,1.0,Q,1408193731018000
Raw,1677973384000,113899881000000,,,-1361894702119490288,0.0,9.803908861637966,253.0,1.0,1185,25,0.0,16384,603801927446520,1000000000,11.389509201049805,-447.4125401294541,299792458,16,-1615708.170134041,340282346638528860000000000000000000000,1176450050,,,,1,,1,,7.389509201049805,1.0186341127782053,1.1327291572825087,1.0186341127782053,1.0,Q,1408193731018000
Raw,1677973384000,113899881000000,,,-1361894702119490288,0.0,9.803908861637966,253.0,1.0,1185,14,0.0,32995,9783931390010,38,38.47381591796875,675.8427749980688,0.15,17,-989550.7148546985,0.09541271874022725,1598062460,,,,0,,3,,34.373817443847656,55.87935447692871,2.0000000474974513,55.87935447692871,2.0000000474974513,C,1408193731018000
Raw,1677973384000,113899881000000,,,-1361894702119490288,0.0,9.803908861637966,253.0,1.0,1185,18,0.0,32995,9783930241318,52,34.79291915893555,-392.3518203800061,0.5702673962704718,17,-560647.7692954128,0.09612911576293894,1600312450,,,,0,,3,,30.69291877746582,55.87935447692871,2.0000000474974513,55.87935447692871,2.0000000474974513,C,1408193731018000
Raw,1677973384000,113899881000000,,,-1361894702119490288,0.0,9.803908861637966,253.0,1.0,1185,16,0.0,32867,9783926180403,82,29.10890007019043,-648.6193446855609,0.8251406658589007,16,-579857.783020163,340282346638528860000000000000000000000,1601437440,,,,0,,3,,25.008899688720703,55.87935447692871,2.0000000474974513,55.87935447692871,2.0000000474974513,C,1408193731018000
Raw,1677973384000,113899881000000,,,-1361894702119490288,0.0,9.803908861637966,253.0,1.0,1185,15,0.0,32995,9783936399990,56,33.87099838256836,-52.33640675221022,0.6128329229679714,16,-3151706.6051312997,340282346638528860000000000000000000000,1602000000,,,,0,,3,,29.770998001098633,55.87935447692871,2.0000000474974513,55.87935447692871,2.0000000474974513,C,1408193731018000
Raw,1677973384000,113899881000000,,,-1361894702119490288,0.0,9.803908861637966,253.0,1.0,1185,24,0.0,32995,9783927578013,42,37.414920806884766,719.779015020928,0.15,17,590540.4306480574,0.09532001238482982,1603124990,,,,0,,3,,33.31492233276367,55.87935447692871,2.0000000474974513,55.87935447692871,2.0000000474974513,C,1408193731018000
Raw,1677973384000,113899881000000,,,-1361894702119490288,0.0,9.803908861637966,253.0,1.0,1185,17,0.0,32995,9783936368273,75,30.13670539855957,199.58209385366445,0.780754124160155,16,-4175727.904736276,340282346638528860000000000000000000000,1604249980,,,,0,,3,,26.036705017089844,55.87935447692871,2.0000000474974513,55.87935447692871,2.0000000474974513,C,1408193731018000
Raw,1677973384000,113899881000000,,,-1361894702119490288,0.0,9.803908861637966,253.0,1.0,1185,15,0.0,85026,603801922825265,36,30.663652420043945,107.86425213014576,0.7546217334577796,16,-2613235.7729925513,340282346638528860000000000000000000000,1575420030,,,,0,,6,,26.56365203857422,-1.6007106751203535,1.5000000237487257,-1.6007106751203535,1.5000000237487257,C,1408193731018000
Raw,1677973384000,113899881000000,,,-1361894702119490288,0.0,9.803908861637966,253.0,1.0,1185,21,0.0,85026,603801911878834,37,30.25353240966797,-395.5897219145861,0.773973446061861,25,-1081571.9388913251,0.004218060988932848,1575420030,,,,0,,6,,26.153532028198242,-1.6007106751203535,1.5000000237487257,-1.6007106751203535,1.5000000237487257,C,1408193731018000
Raw,1677973384000,113899881000000,,,-1361894702119490288,0.0,9.803908861637966,253.0,1.0,1185,27,0.0,85026,603801922094182,40,29.177743911743164,-41.764637962744786,0.8213098509995751,25,-2625314.1000298634,0.004774218425154686,1575420030,,,,0,,6,,25.077743530273438,-1.6007106751203535,1.5000000237487257,-1.6007106751203535,1.5000000237487257,C,1408193731018000
Raw,1677973384000,113899881000000,,,-1361894702119490288,0.0,9.803908861637966,253.0,1.0,1185,30,0.0,85026,603801916186192,27,34.24760437011719,430.485726674596,0.5937002833412661,16,-1013664.0981927747,340282346638528860000000000000000000000,1575420030,,,,1,,6,,30.14760398864746,-1.6007106751203535,1.5000000237487257,-1.6007106751203535,1.5000000237487257,C,1408193731018000
Raw,1677973384000,113899881000000,,,-1361894702119490288,0.0,9.803908861637966,253.0,1.0,1185,34,0.0,85026,603801913999689,40,29.207395553588867,542.4545375643979,0.8402194901783284,16,-479787.9734180176,340282346638528860000000000000000000000,1575420030,,,,0,,6,,25.10739517211914,-1.6007106751203535,1.5000000237487257,-1.6007106751203535,1.5000000237487257,C,1408193731018000
Raw,1677973384000,113899881000000,,,-1361894702119490288,0.0,9.803908861637966,253.0,1.0,1185,15,0.0,16384,603801922825576,1000000000,11.0,107.83817905090581,299792458,16,-2612697.9389540446,340282346638528860000000000000000000000,1176450050,,,,1,,6,,7.0,-7.141847163438795,1.6327291810312343,-7.141847163438795,1.5000000237487257,Q,1408193731018000
Raw,1677973384000,113899881000000,,,-1361894702119490288,0.0,9.803908861637966,253.0,1.0,1185,21,0.0,16384,603801911879112,1000000000,11.0,-395.7380487653734,299792458,16,-1080990.726501837,340282346638528860000000000000000000000,1176450050,,,,1,,6,,7.0,-3.81716527044773,1.6327291810312343,-3.81716527044773,1.5000000237487257,Q,1408193731018000
Raw,1677973384000,113899881000000,,,-1361894702119490288,0.0,9.803908861637966,253.0,1.0,1185,27,0.0,16384,603801922094519,1000000000,11.0,-41.14480162749976,299792458,16,-2624766.670665201,340282346638528860000000000000000000000,1176450050,,,,0,,6,,7.0,-3.263051621615886,1.6327291810312343,-3.263051621615886,1.5000000237487257,Q,1408193731018000
Raw,1677973384000,113899881000000,,,-1361894702119490288,0.0,9.803908861637966,253.0,1.0,1185,30,0.0,16384,603801916186485,1000000000,11.0,429.77193778763876,299792458,16,-1013171.9746558192,340282346638528860000000000000000000000,1176450050,,,,1,,6,,7.0,-3.078347072005271,1.6327291810312343,-3.078347072005271,1.5000000237487257,Q,1408193731018000
Raw,1677973384000,113899881000000,,,-1361894702119490288,0.0,9.803908861637966,253.0,1.0,1185,34,0.0,16384,603801913999982,1000000000,13.720888137817383,542.380749046026,299792458,16,-479265.10037149716,340282346638528860000000000000000000000,1176450050,,,,0,,6,,9.720888137817383,-5.110097117722034,1.6327291810312343,-5.110097117722034,1.5000000237487257,Q,1408193731018000
Status,1677973383000,20,0,6,15,1575420030,34.76,82.0,82.0,1,1,1,30.661621
Status,1677973383000,20,1,3,15,1602000000,34.20,309.0,79.0,1,1,1,30.102976
Status,1677973383000,20,2,6,27,1575420030,33.73,333.0,78.0,1,1,1,29.62865
Status,1677973383000,20,3,1,11,1575420030,34.58,114.0,77.0,1,1,1,30.47788
Status,1677973383000,20,4,3,17,1604249980,31.58,328.0,72.0,1,1,1,27.475618
Status,1677973383000,20,5,1,12,1575420030,38.46,329.0,67.0,1,1,1,34.3594
Status,1677973383000,20,6,3,14,1598062460,42.93,154.0,43.0,1,1,1,38.829105
Status,1677973383000,20,7,6,30,1575420030,37.53,125.0,43.0,1,1,1,33.42937
Status,1677973383000,20,8,1,6,1575420030,37.12,46.0,42.0,1,1,1,33.01525
Status,1677973383000,20,9,3,18,1600312450,35.16,242.0,38.0,1,1,1,31.055164
Status,1677973383000,20,10,1,24,1575420030,36.73,217.0,36.0,1,1,1,32.633595
Status,1677973383000,20,11,1,25,1575420030,39.31,313.0,36.0,1,1,1,35.208725
Status,1677973383000,20,12,6,34,1575420030,33.25,42.0,30.0,1,1,1,29.149836
Status,1677973383000,20,13,3,24,1603124990,39.47,35.0,28.0,1,1,1,35.37128
Status,1677973383000,20,14,1,20,1575420030,34.43,141.0,28.0,1,1,1,30.326042
Status,1677973383000,20,15,3,16,1601437440,30.34,328.0,24.0,1,1,1,26.240372
Status,1677973383000,20,16,6,21,1575420030,30.25,313.0,24.0,1,1,1,26.153532
Status,1677973383000,20,17,1,19,1575420030,29.77,62.0,23.0,0,1,1,25.671795
Status,1677973383000,20,18,1,29,1575420030,37.55,267.0,17.0,1,1,1,33.449535
Status,1677973383000,20,19,1,2,1575420030,30.07,218.0,13.0,1,1,1,25.970095
Fix,GPS,37.3860477893,-122.0838001170,2.5174404893736737,0.0,4.448516,204.43593,1677973384000,0.019689387,178.992,1408193731018000,3.0
Fix,FLP,37.3860478000,-122.0838001000,-5.824225366589275,0.0,4.129,,1677973384680,0.019689387,,1408193731018000,0.9595287
Raw,1677973385000,113900881000000,,,-1361894702119490032,0.0,9.978709546081353,254.0,1.0,1185,2,0.0,16431,603802919730487,39,29.491106033325195,-560.7853437332567,0.8103906839910797,17,-51605.98610310708,0.0997518842696098,1575420030,,,,0,,1,,25.39110565185547,0.0,1.0,0.0,1.0,C,1408194731071000
Raw,1677973385000,113900881000000,,,-1361894702119490032,0.0,9.978709546081353,254.0,1.0,1185,6,0.0,16431,603802927892588,35,30.937646865844727,563.244495218747,0.7432120320310878,16,-473273.48062659905,340282346638528860000000000000000000000,1575420030,,,,0,,1,,26.837646484375,0.320142130558394,1.0,0.320142130558394,1.0,C,1408194731071000
Raw,1677973385000,113900881000000,,,-1361894702119490032,0.0,9.978709546081353,254.0,1.0,1185,11,0.0,16397,603802932538033,26,34.78409194946289,45.39720582324483,0.5710773205839739,17,-2618367.6719972417,0.09765055115622258,1575420030,,,,0,,1,,30.684091567993164,-0.20372681261465636,1.0,-0.20372681261465636,1.0,C,1408194731071000
Raw,1677973385000,113900881000000,,,-1361894702119490032,0.0,9.978709546081353,254.0,1.0,1185,12,0.0,16431,603802932209847,22,36.82615280151367,-164.4772318000828,0.15,25,-2638068.948011352,0.0020992199424654245,1575420030,,,,0,,1,,32.72615432739258,-0.6984919076624261,1.0,-0.6984919076624261,1.0,C,1408194731071000
Raw,1677973385000,113900881000000,,,-1361894702119490032,0.0,9.978709546081353,254.0,1.0,1185,19,0.0,16397,603802923436655,54,25.744905471801758,588.4269317048429,0.9759221857560907,21,49911.08884382301,0.10223517163012898,1575420030,,,,0,,1,,21.64490509033203,0.0,1.0,0.0,1.0,C,1408194731071000
Raw,1677973385000,113900881000000,,,-1361894702119490032,0.0,9.978709546081353,254.0,1.0,1185,20,0.0,16431,603802924052935,38,30.063077926635742,-452.27583401560696,0.781849821883525,25,-1088378.220993179,0.00431157136335969,1575420030,,,,0,,1,,25.963077545166016,0.0,1.0,0.0,1.0,C,1408194731071000
Raw,1677973385000,113900881000000,,,-1361894702119490032,0.0,9.978709546081353,254.0,1.0,1185,24,0.0,16431,603802925253537,21,37.41616439819336,608.081330072765,0.15,17,-470069.80042903376,0.09710819685187912,1575420030,,,,0,,1,,33.316165924072266,-0.20372681261465636,1.0,-0.20372681261465636,1.0,C,1408194731071000
Raw,1677973385000,113900881000000,,,-1361894702119490032,0.0,9.978709546081353,254.0,1.0,1185,25,0.0,16431,603802927447725,24,35.6124267578125,-447.9982130623421,0.5329123582484927,25,-1616709.2975590792,0.0022759782150387764,1575420030,,,,0,,1,,31.512428283691406,-2.0372682255564105,1.0,-2.0372682255564105,1.0,C,1408194731071000
Raw,1677973385000,113900881000000,,,-1361894702119490032,0.0,9.978709546081353,254.0,1.0,1185,29,0.0,16431,603802919717161,35,30.943822860717773,-411.78277416296464,0.7450612715666418,17,-563648.6944145509,0.09904265209388709,1575420030,,,,0,,1,,26.843822479248047,-0.6984919076624261,1.0,-0.6984919076624261,1.0,C,1408194731071000
Raw,1677973385000,113900881000000,,,-1361894702119490032,0.0,9.978709546081353,254.0,1.0,1185,6,0.0,16384,603802927892935,1000000000,11.0,562.0026668328819,299792458,16,-472743.03608551977,340282346638528860000000000000000000000,1176450050,,,,0,,1,,7.0,1.9208527336454408,1.1327295797743584,1.9208527336454408,1.0,Q,1408194731071000
Raw,1677973385000,113900881000000,,,-1361894702119490032,0.0,9.978709546081353,254.0,1.0,1185,11,0.0,16384,603802932538347,1000000000,11.0,44.728478204117835,299792458,16,-2617841.846687002,340282346638528860000000000000000000000,1176450050,,,,0,,1,,7.0,0.0,1.1327295797743584,0.0,1.0,Q,1408194731071000
Raw,1677973385000,113900881000000,,,-1361894702119490032,0.0,9.978709546081353,254.0,1.0,1185,24,0.0,16384,603802925255179,1000000000,11.514595031738281,597.4348567989086,299792458,16,-469966.00201966916,340282346638528860000000000000000000000,1176450050,,,,1,,1,,7.514595031738281,3.5215636101095664,1.1327295797743584,3.5215636101095664,1.0,Q,1408194731071000
Raw,1677973385000,113900881000000,,,-1361894702119490032,0.0,9.978709546081353,254.0,1.0,1185,25,0.0,16384,603802927448020,1000000000,11.0,-448.29626414463405,299792458,16,-1616157.1510493977,340282346638528860000000000000000000000,1176450050,,,,1,,1,,7.0,1.0186341127782053,1.1327295797743584,1.0186341127782053,1.0,Q,1408194731071000
Raw,1677973385000,113900881000000,,,-1361894702119490032,0.0,9.978709546081353,254.0,1.0,1185,14,0.0,32995,9784931387725,45,36.40690612792969,675.5573003422337,0.15,17,-988875.0811571914,0.0958463349639723,1598062460,,,,0,,3,,32.306907653808594,55.87935447692871,2.0000000474974513,55.87935447692871,2.0000000474974513,C,1408194731071000
Raw,1677973385000,113900881000000,,,-1361894702119490032,0.0,9.978709546081353,254.0,1.0,1185,18,0.0,32995,9784930242547,58,33.315345764160156,-392.60491670214446,0.6367123434730528,17,-561040.262564024,0.09658571132347472,1600312450,,,,0,,3,,29.215347290039062,55.87935447692871,2.0000000474974513,55.87935447692871,2.0000000474974513,C,1408194731071000
Raw,1677973385000,113900881000000,,,-1361894702119490032,0.0,9.978709546081353,254.0,1.0,1185,16,0.0,32867,9784926182549,106,25.964040756225586,-648.224942498679,0.9665618917297265,21,-580506.8046325663,0.10040049857722015,1601437440,,,,0,,3,,21.86404037475586,55.87935447692871,2.0000000474974513,55.87935447692871,2.0000000474974513,C,1408194731071000
Raw,1677973385000,113900881000000,,,-1361894702119490032,0.0,9.978709546081353,254.0,1.0,1185,15,0.0,32995,9784936400172,62,32.61537551879883,-52.66429702518792,0.6692969026586049,17,-3151759.1862151916,0.09672867401644974,1602000000,,,,0,,3,,28.5153751373291,55.87935447692871,2.0000000474974513,55.87935447692871,2.0000000474974513,C,1408194731071000
Raw,1677973385000,113900881000000,,,-1361894702119490032,0.0,9.978709546081353,254.0,1.0,1185,24,0.0,32995,9784927575608,65,31.9497127532959,720.9281391250511,0.6976436545254945,16,591260.308007129,340282346638528860000000000000000000000,1603124990,,,,1,,3,,27.849712371826172,55.87935447692871,2.0000000474974513,55.87935447692871,2.0000000474974513,C,1408194731071000
Raw,1677973385000,113900881000000,,,-1361894702119490032,0.0,9.978709546081353,254.0,1.0,1185,17,0.0,32995,9784936367544,98,26.904508590698242,200.24509988040268,0.9261022215011705,16,-4175527.9072861546,340282346638528860000000000000000000000,1604249980,,,,0,,3,,22.804508209228516,55.87935447692871,2.0000000474974513,55.87935447692871,2.0000000474974513,C,1408194731071000
Raw,1677973385000,113900881000000,,,-1361894702119490032,0.0,9.978709546081353,254.0,1.0,1185,15,0.0,85026,603802922824905,42,28.752506256103516,108.1794722499111,0.840563842810345,25,-2613127.459366611,0.005013767629861832,1575420030,,,,0,,6,,24.65250587463379,-1.6007106751203535,1.5000000237487257,-1.6007106751203535,1.5000000237487257,C,1408194731071000
Raw,1677973385000,113900881000000,,,-1361894702119490032,0.0,9.978709546081353,254.0,1.0,1185,21,0.0,85026,603802911880152,37,30.410017013549805,-395.90120148474807,0.7669366835685607,25,-1081967.7820134282,0.004142748657613993,1575420030,,,,0,,6,,26.310016632080078,-1.6007106751203535,1.5000000237487257,-1.6007106751203535,1.5000000237487257,C,1408194731071000
Raw,1677973385000,113900881000000,,,-1361894702119490032,0.0,9.978709546081353,254.0,1.0,1185,27,0.0,85026,603802922094322,49,26.894861221313477,-42.03575538376961,0.9239686064690042,16,-2625355.817323672,340282346638528860000000000000000000000,1575420030,,,,0,,6,,22.79486083984375,-1.6007106751203535,1.5000000237487257,-1.6007106751203535,1.5000000237487257,C,1408194731071000
Raw,1677973385000,113900881000000,,,-1361894702119490032,0.0,9.978709546081353,254.0,1.0,1185,30,0.0,85026,603802916184753,39,29.700410842895508,430.54441666472826,0.7981821084223366,16,-1013233.973025711,340282346638528860000000000000000000000,1575420030,,,,1,,6,,25.60041046142578,-1.6007106751203535,1.5000000237487257,-1.6007106751203535,1.5000000237487257,C,1408194731071000
Raw,1677973385000,113900881000000,,,-1361894702119490032,0.0,9.978709546081353,254.0,1.0,1185,34,0.0,85026,603802913997873,41,29.064617156982422,542.1675291980193,0.8263798826765347,25,-479245.6605739293,0.004836805630475283,1575420030,,,,0,,6,,24.964616775512695,-1.6007106751203535,1.5000000237487257,-1.6007106751203535,1.5000000237487257,C,1408194731071000
Raw,1677973385000,113900881000000,,,-1361894702119490032,0.0,9.978709546081353,254.0,1.0,1185,15,0.0,16384,603802922825210,1000000000,12.415098190307617,107.89159478089118,299792458,16,-2612589.8268376053,340282346638528860000000000000000000000,1176450050,,,,1,,6,,8.415098190307617,-7.141847163438795,1.632729603523084,-7.141847163438795,1.5000000237487257,Q,1408194731071000
Raw,1677973385000,113900881000000,,,-1361894702119490032,0.0,9.978709546081353,254.0,1.0,1185,21,0.0,16384,603802911880441,1000000000,12.772241592407227,-395.9128576848789,299792458,16,-1081386.6412971013,340282346638528860000000000000000000000,1176450050,,,,1,,6,,8.772241592407227,-3.81716527044773,1.632729603523084,-3.81716527044773,1.5000000237487257,Q,1408194731071000
Raw,1677973385000,113900881000000,,,-1361894702119490032,0.0,9.978709546081353,254.0,1.0,1185,27,0.0,16384,603802922094624,1000000000,11.0,-40.69321759918665,299792458,16,-2624802.7413956625,340282346638528860000000000000000000000,1176450050,,,,1,,6,,7.0,-3.263051621615886,1.632729603523084,-3.263051621615886,1.5000000237487257,Q,1408194731071000
Raw,1677973385000,113900881000000,,,-1361894702119490032,0.0,9.978709546081353,254.0,1.0,1185,30,0.0,16384,603802916185051,1000000000,11.0,429.79136478785676,299792458,16,-1012742.1827098556,340282346638528860000000000000000000000,1176450050,,,,1,,6,,7.0,-3.078347072005271,1.632729603523084,-3.078347072005271,1.5000000237487257,Q,1408194731071000
