Fix,Provider,LatitudeDegrees,LongitudeDegrees,AltitudeMeters,SpeedMps,AccuracyMeters,BearingDegrees,UnixTimeMillis,SpeedAccuracyMps,BearingAccuracyDegrees,elapsedRealtimeNanos,VerticalAccuracyMeters,TransitType
Fix,GPS,37.4274113471,-122.1732768472,-13.863161546084942,0.0,21.223291,,1675794360712,0.93583995,,4148871683833700,34.746906,Bike
Fix,FLP,37.4273558,-122.1730495,0.1999999582767486,0.12915325,13.465,225.99893,1675794360861,,,4148871476451966,1.9067734,Bike
Fix,GPS,37.4273836579,-122.1732453554,-6.506267600082153,0.0,17.519295,,1675794361712,0.41933686,,4148872677676271,20.762579,Bike
Fix,FLP,37.4273497,-122.1730527,0.1999999582767486,0.111164644,12.93,226.68312,1675794361874,,,4148872489348939,1.9171734,Bike
Fix,GPS,37.4273723265,-122.173225489,-1.166233233322613,0.0,13.874282,,1675794362712,0.4609116,,4148873679560345,14.485091,Bike
Fix,FLP,37.4273475,-122.1730509,0.1999999582767486,0.07687777,12.32,,1675794362887,,,4148873502240540,1.9267634,Bike
Fix,FLP,37.4273467,-122.1730445,0.1999999582767486,0.040849805,11.786,,1675794363393,,,4148874008688599,1.9267634,Bike
Fix,GPS,37.4273784099,-122.1732009893,1.3146104675379089,0.0,12.922408,,1675794363999,0.5124172,,4148874969004845,11.789608,Bike
Fix,FLP,37.4273372,-122.1730453,0.1999999582767486,0.044469256,12.75,,1675794364354,,,4148874969004845,1.9395634,Bike
Fix,NLP,37.4272188,-122.1729574,0.1999999582767486,,20.828,,1675794365072,,,4148875688000000,1.8257008,Bike
Fix,FLP,37.4273296,-122.173045,0.1999999582767486,0.045682646,13.71,,1675794365073,,,4148875688000000,1.8151381,Bike
Fix,GPS,37.4273841744,-122.1731861125,2.2678614333312703,0.0,12.339554,,1675794364999,0.5895529,,4148875983356041,10.524451,Bike
Fix,FLP,37.4273237,-122.1730445,0.1999999582767486,0.046998233,14.353,,1675794365368,,,4148875983356041,1.8184978,Bike
Fix,GPS,37.4273792388,-122.1731811821,3.325695051324521,0.0,11.39123,,1675794365999,0.48998898,,4148876953043000,9.490115,Bike
Fix,FLP,37.4273179,-122.1730452,0.1999999582767486,0.051084723,14.952,,1675794366338,,,4148876953043000,1.827862,Bike
Fix,GPS,37.4273723539,-122.1731770987,4.096409687519527,0.0,10.529013,,1675794366999,0.45091778,,4148877953020000,8.728799,Bike
Fix,FLP,37.4273126,-122.1730471,0.1999999582767486,0.057972703,15.623,,1675794367338,,,4148877953020000,1.8373783,Bike
Fix,GPS,37.4273759831,-122.173172116,4.221497405603901,0.0,9.924938,,1675794367999,0.44986334,,4148878953046000,8.109058,Bike
Fix,FLP,37.4273358,-122.1730978,0.1999999582767486,0.20964015,15.455,266.1553,1675794368338,0.44986334,,4148878953046000,1.8486679,Bike
Fix,GPS,37.4273787657,-122.1731685795,4.384395904554815,0.0,9.61947,,1675794368999,0.45035055,,4148879953052000,7.6178207,Bike
Fix,FLP,37.4273505,-122.1731255,0.1999999582767486,0.29541117,15.374,271.0463,1675794369338,0.45035055,,4148879953052000,1.8582479,Bike
Fix,NLP,37.4272516,-122.1730061,0.1999999582767486,,20.083,,1675794370156,,,4148880771000000,2.3083358,Bike
Fix,FLP,37.4273593,-122.1731416,0.1999999582767486,0.34218943,13.687,273.08423,1675794370156,0.45035055,,4148880771000000,2.0288222,Bike
Fix,GPS,37.4273831849,-122.1731673333,4.334927632301361,0.0,9.264452,,1675794369999,20.0,,4148880953063000,7.214524,Bike
Fix,FLP,37.4273656,-122.1731492,0.1999999582767486,0.3670765,13.055,274.39346,1675794370338,20.0,,4148880953063000,2.0168574,Bike
Fix,GPS,37.4273857669,-122.173161223,4.482187604328005,0.0,9.224963,,1675794370999,20.0,,4148881953081000,7.131185,Bike
Fix,FLP,37.4273742,-122.1731584,0.1999999582767486,0.38649887,10.572,276.37967,1675794371338,20.0,,4148881953081000,2.044586,Bike
Fix,GPS,37.4273872349,-122.1731549906,4.484740431314048,0.0,9.358488,,1675794371999,0.6564543,,4148882953311000,7.165837,Bike
Fix,FLP,37.4273806,-122.1731611,0.1999999582767486,0.3817224,9.413,278.30273,1675794372338,0.6564543,,4148882953311000,2.0557694,Bike
Fix,GPS,37.4273859183,-122.1731489684,4.642190476318223,0.0,9.370991,,1675794372999,0.4920428,,4148883953118000,7.1699057,Bike
Fix,FLP,37.4273647,-122.1730878,0.1999999582767486,0.020558389,8.997,,1675794373120,,,4148883735238487,2.0557694,Bike
Fix,GPS,37.4273836127,-122.1731438973,4.6265271840871,0.0,9.330252,,1675794373999,0.4673795,,4148884953117000,7.1778445,Bike
Fix,FLP,37.4273529,-122.1730375,8.739126663181679,0.007302998,8.377,,1675794374205,,,4148884820489343,2.0532663,Bike
Fix,NLP,37.4272519,-122.1730134,0.1999999582767486,,15.919,,1675794375121,,,4148885737000000,1.9898038,Bike
Fix,FLP,37.4273494,-122.1730228,8.429908502844413,0.045558464,8.179,,1675794374747,,,4148885363127220,2.0019948,Bike
Fix,GPS,37.4273880888,-122.1731453295,4.322514039737936,0.0,9.266644,,1675794374999,0.45828837,,4148885953138000,7.1493773,Bike
Fix,FLP,37.427346,-122.1730135,8.739126663181679,0.087487206,7.669,,1675794375290,,,4148885905745445,2.005159,Bike
Fix,GPS,37.4273881489,-122.1731435858,3.852991787475733,0.0,9.2872925,,1675794375999,0.48320642,,4148886953169000,7.228388,Bike
Fix,FLP,37.4273428,-122.1730035,7.289827225239264,0.095227316,7.172,,1675794376376,,,4148886991016197,2.014535,Bike
Fix,FLP,37.4273419,-122.1730011,7.289827225239264,0.04172405,6.573,,1675794376904,,,4148887519000000,2.014535,Bike
Fix,GPS,37.4273857344,-122.1731415183,3.858653226030465,0.0,9.301874,,1675794376999,20.0,,4148887953196000,7.3365073,Bike
Fix,FLP,37.4273419,-122.1730009,5.31217108609647,0.004765007,6.511,,1675794377460,,,4148888076275963,2.024456,Bike
Fix,GPS,37.4273809435,-122.1731399564,3.922831334181936,0.0,15.795996,,1675794377999,1.0616452,,4148888953230000,7.533721,Bike
Fix,FLP,37.4273428,-122.1730016,0.1999999582767486,0.0029442222,6.052,,1675794378003,,,4148888618908470,2.0343144,Bike
Fix,GPS,37.4273843099,-122.1731401852,3.982977148594264,0.0,14.820338,,1675794378999,1.1541862,,4148889953213000,7.712249,Bike
Fix,FLP,37.4273438,-122.173002,2.729026042096009,0.00776662,6.063,,1675794379088,,,4148889704163658,2.0443044,Bike
Fix,NLP,37.4273044,-122.1730297,0.1999999582767486,,28.205,,1675794380149,,,4148890765000000,1.914693,Bike
Fix,FLP,37.4273448,-122.1730021,3.262554763963124,0.010713278,6.119,,1675794380174,,,4148890789419396,2.0583475,Bike
Fix,GPS,37.4273892124,-122.1731367258,3.993788549619071,0.0,14.818638,,1675794379999,1.2725238,,4148890953349000,7.9312854,Bike
Fix,GPS,37.427396483,-122.1731319999,4.001407737502871,0.0,14.498321,,1675794380999,1.3070686,,4148891953285000,8.142212,Bike
Fix,FLP,37.4273457,-122.1730022,3.318925027444095,0.0072713005,6.414,,1675794381259,,,4148891874675866,2.0685499,Bike
Fix,GPS,37.427397908,-122.1731245679,4.156530424750509,0.0,14.496579,,1675794381999,1.3548273,,4148892953284000,8.361034,Bike
Fix,FLP,37.4273463,-122.1730026,2.9454790357776943,0.006551932,6.771,,1675794382344,,,4148892959922325,2.0775151,Bike
Fix,GPS,37.4273998516,-122.1731184876,4.52269826037072,0.0,11.451898,,1675794382999,0.9337092,,4148893953299000,8.591757,Bike
Fix,FLP,37.4273469,-122.1730032,3.456832435318205,0.005029462,7.07,,1675794383429,,,4148894045168907,2.0906022,Bike
Fix,GPS,37.4274012553,-122.1731105433,4.679578104623348,0.0,11.704867,,1675794383999,20.0,,4148894953307000,8.828514,Bike
Fix,FLP,37.4273474,-122.1730048,1.919845678545542,0.0055440073,7.312,,1675794383972,,,4148894587790733,2.101244,Bike
Fix,NLP,37.4274154,-122.1729814,0.1999999582767486,,17.653,,1675794385128,,,4148895743000000,1.6700926,Bike
Fix,FLP,37.4273482,-122.1730065,2.1996430243810607,0.009773602,7.422,,1675794385058,,,4148895673034264,1.9982947,Bike
Fix,GPS,37.4274044591,-122.1731018204,5.15602184363973,0.0,11.968289,,1675794384999,20.0,,4148895953273000,9.063921,Bike
Fix,GPS,37.4274080058,-122.1730946741,5.45386657821626,0.0,12.197054,,1675794385999,20.0,,4148896953316000,9.286094,Bike
Fix,FLP,37.4273494,-122.1730085,2.8146258529520622,0.009506512,7.839,,1675794386143,,,4148896758272423,2.0385346,Bike
Fix,GPS,37.4274108424,-122.1730910911,5.221768663857921,0.0,12.454854,,1675794386999,20.0,,4148897953343000,9.556488,Bike
Fix,FLP,37.4273499,-122.1730097,0.1999999582767486,0.010135693,7.885,,1675794387227,,,4148897843501183,2.0283573,Bike
Fix,GPS,37.4274137919,-122.1730863971,5.176435418639875,0.0,12.671375,,1675794387999,20.0,,4148898953604000,9.843963,Bike
Fix,FLP,37.4273504,-122.173011,0.1999999582767486,0.01110666,7.903,,1675794388313,,,4148898928730858,2.02389,Bike
Fix,GPS,37.4274252455,-122.1730772213,5.138219302336244,0.0,18.60051,,1675794388999,20.0,,4148899953707000,10.256833,Bike
Fix,FLP,37.4273508,-122.1730123,0.1999999582767486,0.011408774,7.891,,1675794389398,,,4148900013957237,2.0211082,Bike
Fix,NLP,37.4273403,-122.1729812,0.1999999582767486,,29.571,,1675794390166,,,4148900781000000,1.6777316,Bike
Fix,FLP,37.4273511,-122.1730131,-1.5225140436616016,0.009750815,7.811,,1675794389940,,,4148900556568505,1.9102658,Bike
Fix,GPS,37.4274413652,-122.1730655078,5.246243065285128,0.0,13.166294,,1675794389999,20.0,,4148900953599000,10.5956545,Bike
Fix,FLP,37.4273509,-122.1730127,-1.558731364804416,0.007202618,7.69,,1675794390482,,,4148901097272179,1.9122359,Bike
Fix,GPS,37.4274572447,-122.1730562569,5.326746335771957,0.0,13.418245,,1675794390999,20.0,,4148901953388000,10.975962,Bike
Fix,FLP,37.4273506,-122.1730125,-3.3573297720706563,0.002577318,7.615,,1675794391026,,,4148901641790184,1.9373488,Bike
Fix,FLP,37.4273505,-122.1730128,-3.3573297720706563,0.003231507,7.555,,1675794392112,,,4148902727008446,1.9373488,Bike
Fix,GPS,37.4274652938,-122.1730478176,4.457670299432788,0.0,13.544487,,1675794391999,20.0,,4148902953673000,11.178579,Bike
Fix,FLP,37.4273506,-122.1730137,-3.426731102615591,0.0038736032,7.453,,1675794393197,,,4148903812223290,1.9409584,Bike
Fix,GPS,37.4274707328,-122.1730413345,2.992836170804479,0.0,13.71734,,1675794392999,20.0,,4148903953431000,11.430966,Bike
Fix,FLP,37.4273512,-122.1730148,-1.7337795629053403,0.00423918,7.387,,1675794393739,,,4148904354826989,1.9509584,Bike
Fix,GPS,37.4274750367,-122.1730419275,1.710453516922126,0.0,13.77977,,1675794393999,20.0,,4148904953472000,11.567122,Bike
Fix,FLP,37.4273518,-122.1730157,0.1999999582767486,0.004012205,7.4,,1675794394282,,,4148904897435326,1.9609684,Bike
Fix,NLP,37.427323,-122.1729321,0.1999999582767486,,26.934,,1675794395280,,,4148905895000000,1.9944156,Bike
Fix,FLP,37.4273529,-122.1730168,0.1999999582767486,0.00470796,7.358,,1675794394825,,,4148905440028710,1.9100807,Bike
Fix,FLP,37.4273532,-122.1730153,0.1999999582767486,0.0057373075,7.34,,1675794395340,,,4148905955000000,1.9100807,Bike
Fix,GPS,37.4274912979,-122.1730300656,-0.0050519116386952,1.0720222,13.949497,54.40135,1675794394999,0.8597083,23.358625,4148905953416000,11.629826,Bike
Fix,FLP,37.4273552,-122.1730127,2.688807395005611,0.4314438,7.298,31.411383,1675794395910,,,4148906525248375,1.9116536,Bike
Fix,GPS,37.4275085964,-122.1730248718,-1.0071019014444953,1.4229583,14.066102,44.931355,1675794395999,0.86332744,24.562847,4148906953496000,11.819434,Bike
Fix,FLP,37.4273565,-122.1730098,0.1999999582767486,0.62883365,7.263,50.835403,1675794396452,,,4148907067851342,1.9068978,Bike
Fix,FLP,37.4273572,-122.1730032,0.1999999582767486,0.73440546,7.241,104.82255,1675794396994,,,4148907610454979,1.9068978,Bike
Fix,GPS,37.4275161218,-122.173009293,-0.4051686534453093,1.4590405,14.150238,42.331062,1675794396999,1.2373029,29.001331,4148907953820000,11.948835,Bike
Fix,GPS,37.4275259016,-122.173004185,-1.0885445693647735,1.370317,14.240126,36.61407,1675794397999,1.1362119,34.2276,4148908953672000,12.1308365,Bike
Fix,FLP,37.4273506,-122.1729986,0.1999999582767486,0.8675168,7.166,157.72688,1675794398080,,,4148908695650719,1.9419832,Bike
Fix,FLP,37.4273457,-122.1729969,0.1999999582767486,1.0645875,7.127,157.13554,1675794398622,,,4148909238251732,1.9419832,Bike
Fix,GPS,37.4275332056,-122.1730056162,-1.4564756267390466,1.2412667,14.457811,36.61407,1675794398999,1.3571388,180.0,4148909953587000,12.298474,Bike
Fix,FLP,37.4273444,-122.1729955,4.157477082495731,1.0868083,7.086,144.16757,1675794399165,,,4148909780866967,1.9516736,Bike
Fix,NLP,37.4272624,-122.1730179,0.1999999582767486,,20.936,,1675794400313,,,4148910928000000,2.0921576,Bike
Fix,FLP,37.4273409,-122.172989,3.639636720713256,0.99945194,7.008,121.9502,1675794400251,,,4148910866066795,1.6970934,Bike
Fix,GPS,37.4275363549,-122.1730010768,-0.9996801592728376,1.1038332,14.797975,36.61407,1675794399999,1.4198145,180.0,4148910953522000,12.52375,Bike
Fix,FLP,37.4273411,-122.172983,3.639636720713256,1.029708,6.969,107.02231,1675794400793,,,4148911408667015,1.6981034,Bike
Fix,GPS,37.4275393566,-122.1729945349,-0.6495443128167285,1.0330093,15.208178,36.61407,1675794400999,1.5532862,72.71062,4148911953885000,12.775526,Bike
Fix,FLP,37.4273417,-122.1729826,2.7607201975538658,1.040292,6.964,103.858696,1675794401336,,,4148911951267113,1.7166969,Bike
Fix,GPS,37.427546618,-122.1729851208,-0.6235117049095358,1.0569532,15.599422,36.61407,1675794401999,1.4276472,74.42129,4148912953571000,12.970459,Bike
Fix,FLP,37.4273396,-122.1729739,-7.1104920272639305,1.0122378,6.997,114.46732,1675794402420,,,4148913036464623,1.8141435,Bike
Fix,FLP,37.4273379,-122.1729698,-7.1104920272639305,1.0205466,7.061,119.4028,1675794402964,,,4148913579062035,1.8141435,Bike
Fix,GPS,37.4275526761,-122.1729749672,-0.6271881111712941,1.0682957,16.076015,36.61407,1675794402999,1.4059329,151.89394,4148913953636000,13.231157,Bike
Fix,FLP,37.4273376,-122.1729689,-27.68133238586661,1.0227679,7.096,118.93805,1675794403482,,,4148914097272179,1.9399644,Bike
Fix,GPS,37.4275633526,-122.1729570363,-0.1165733157934922,1.1867505,16.470419,36.61407,1675794403999,1.1742203,68.675385,4148914953912000,13.516339,Bike
Fix,FLP,37.4273362,-122.1729632,-27.92085694724264,0.9703218,7.153,104.47001,1675794404049,,,4148914664257103,1.7528156,Bike
Fix,FLP,37.4273356,-122.1729595,-27.92085694724264,1.0142902,7.137,91.970184,1675794404591,,,4148915206857384,1.7528156,Bike
Fix,NLP,37.4273195,-122.1730023,0.1999999582767486,,17.223,,1675794405330,,,4148915946000000,1.4943374,Bike
Fix,FLP,37.4273361,-122.1729558,-10.70266223116674,1.0442755,7.146,79.1859,1675794405134,,,4148915749438683,1.8958768,Bike
Fix,GPS,37.4275808349,-122.1729330668,-0.470144198750921,1.3920646,16.881676,63.782547,1675794404999,1.2302907,30.695696,4148915953705000,13.847826,Bike
Fix,FLP,37.4273359,-122.1729531,0.1999999582767486,1.1633488,7.055,70.39905,1675794405677,,,4148916292049828,1.8125252,Bike
Fix,GPS,37.4275907022,-122.1729113849,-0.5020333841561968,1.4883543,17.294617,65.25059,1675794405999,1.2517167,31.836723,4148916953662000,14.082611,Bike
Fix,FLP,37.4273361,-122.17295,19.400909722686634,1.2281094,7.011,67.77938,1675794406218,,,4148916834642357,1.8473148,Bike
Fix,FLP,37.4273366,-122.1729423,19.400909722686634,1.3267899,6.848,62.450558,1675794407304,,,4148917919831078,1.8473148,Bike
Fix,GPS,37.4275969253,-122.1728829404,-0.0106246705736956,1.6104231,17.652472,77.07025,1675794406999,1.234964,30.734615,4148917953874000,14.367776,Bike
Fix,FLP,37.4273358,-122.1729363,20.41040923620031,1.4259887,6.628,58.319824,1675794408390,,,4148919005019066,1.7180749,Bike
Fix,GPS,37.427601801,-122.1728605409,0.5930464012809477,1.6432719,18.322033,77.07025,1675794407999,1.610779,19.786413,4148918953672000,14.706565,Bike
Fix,FLP,37.4273333,-122.1729336,20.41040923620031,1.4871318,6.487,56.596306,1675794408931,,,4148919547612572,1.7294201,Bike
Fix,GPS,37.4275950371,-122.1728412564,1.2528000899233322,1.6727967,18.891731,71.93076,1675794408999,1.429733,37.921352,4148919953905000,14.947815,Bike
Fix,FLP,37.4273305,-122.1729371,14.870726901504014,1.5164608,6.482,54.807747,1675794409475,,,4148920090204796,1.7447008,Bike
Fix,NLP,37.4273461,-122.1727132,0.1999999582767486,,17.823,,1675794410308,,,4148920923000000,1.7386771,Bike
Fix,FLP,37.4273314,-122.1729322,14.870726901504014,1.5212102,6.282,51.590927,1675794410017,,,4148920632787620,1.7447008,Bike
Fix,GPS,37.4274445864,-122.1728711802,7.396149011394826,1.4845583,14.870902,94.12802,1675794409999,0.8991897,20.97969,4148920953641000,14.808348,Bike
Fix,FLP,37.4273278,-122.1729258,14.50395900951095,1.5166022,6.322,49.206474,1675794411102,,,4148921717981407,1.8720906,Bike
Fix,GPS,37.4274269138,-122.1728618227,7.393261165804099,1.7446742,13.753489,90.19724,1675794410999,0.77128893,16.58527,4148921953962000,15.015645,Bike
Fix,FLP,37.4273264,-122.172915,14.85181062056776,1.5621451,6.355,49.32091,1675794412245,,,4148922860000000,1.8822713,Bike
Fix,GPS,37.4273997912,-122.1728359799,7.998265743901099,1.6425321,13.016487,107.18523,1675794411999,0.8107671,15.705385,4148922953757000,15.172052,Bike
Fix,FLP,37.427324,-122.1729063,-10.50079862871631,1.5523894,6.458,56.95699,1675794412839,,,4148923454271935,1.8902155,Bike
Fix,GPS,37.4273821943,-122.1728039868,7.534855644609577,2.3414476,12.6750555,112.81725,1675794412999,0.8251807,13.93988,4148923953703000,15.351712,Bike
Fix,FLP,37.4273201,-122.1729075,-10.210034342385882,1.5458347,6.582,62.442284,1675794413380,,,4148923996861962,1.7242808,Bike
Fix,GPS,37.4273569663,-122.1727571737,6.3280956704091,1.8720345,12.197235,109.42633,1675794413999,0.5565881,10.0,4148924953980000,15.380182,Bike
Fix,FLP,37.4273215,-122.1728952,-9.491299115202636,1.8040471,6.843,67.64805,1675794414467,,,4148925082041405,1.7362292,Bike
Fix,GPS,37.4273382312,-122.1727135877,4.686391676032005,1.9928315,11.536027,102.54802,1675794414999,0.48097596,10.0,4148925953708000,15.168182,Bike
Fix,FLP,37.4273164,-122.1728858,-4.290459512190523,1.9603467,7.69,74.08041,1675794415008,,,4148925624631310,1.7462192,Bike
Fix,NLP,37.4272071,-122.1727549,0.1999999582767486,,31.017,,1675794415278,,,4148925893000000,1.0,Bike
Fix,FLP,37.4273134,-122.1728855,-2.033566332894054,1.9531691,8.058,78.09285,1675794415552,,,4148926167209435,1.7549756,Bike
Fix,GPS,37.4273196294,-122.1726706236,3.0667841458863423,2.0931935,10.9463415,102.40318,1675794415999,0.4318246,10.0,4148926953938000,14.83287,Bike
Fix,FLP,37.4273129,-122.1728616,0.1999999582767486,1.9518611,8.813,79.125595,1675794416094,,,4148926709809532,1.5976502,Bike
Fix,GPS,37.4272982841,-122.1726315968,2.3050152623357625,2.8953083,10.29184,100.013145,1675794416999,0.42095292,10.0,4148927953757000,14.409778,Bike
Fix,FLP,37.4273069,-122.1728192,0.1999999582767486,2.0760098,10.143,93.5027,1675794417179,,,4148927794980309,1.4248915,Bike
Fix,FLP,37.4272981,-122.1727731,0.1999999582767486,2.5292146,11.056,96.88731,1675794417721,,,4148928337574364,1.4248915,Bike
Fix,GPS,37.4272816953,-122.1725846028,2.6981448431480555,2.2196863,9.562211,98.99513,1675794417999,0.43879005,10.0,4148928953880000,14.023488,Bike
Fix,FLP,37.4272922,-122.1727465,4.762534488981586,2.7283409,12.417,97.0884,1675794418265,,,4148928880151329,1.323725,Bike
Fix,FLP,37.4272847,-122.1727055,4.762534488981586,2.6132083,12.759,96.28446,1675794418807,,,4148929422747826,1.323725,Bike
Fix,GPS,37.4272743074,-122.1725441458,2.519284921481672,2.7769306,8.896262,90.765594,1675794418999,0.6764389,12.698823,4148929953835000,13.680008,Bike
Fix,FLP,37.4272814,-122.1726829,6.114757742726027,2.5018742,13.039,90.98064,1675794419350,,,4148929965338097,1.333735,Bike
Fix,NLP,37.4274346,-122.172627,0.1999999582767486,,48.37,,1675794420324,,,4148930939000000,2.1226034,Bike
Fix,FLP,37.4272783,-122.172626,10.189586349816013,2.477523,14.963,78.50258,1675794420434,,,4148931050512108,1.5795178,Bike
Fix,GPS,37.4272792392,-122.172515048,1.4804830707417471,2.694892,8.175983,52.392353,1675794419999,0.6290155,13.053387,4148930953998000,13.321292,Bike
Fix,GPS,37.4272951021,-122.1724894362,1.6185192471355765,2.7076864,7.7112675,52.392353,1675794420999,0.8680287,10.0,4148931953955000,13.085252,Bike
Fix,FLP,37.4272864,-122.1725598,10.189586349816013,2.584774,15.216,57.105564,1675794421481,,,4148932097272179,1.5808879,Bike
Fix,FLP,37.4272992,-122.1725206,19.590271017796,2.6597989,14.765,48.772903,1675794422063,,,4148932678272118,1.5919734,Bike
Fix,GPS,37.4273223563,-122.1724686248,1.7159798321683646,2.8863769,7.3930135,35.85901,1675794421999,0.7958811,11.719856,4148932953872000,12.643808,Bike
Fix,FLP,37.4273142,-122.1724893,8.31966901411279,2.7791836,13.994,44.198433,1675794422605,,,4148933220857445,1.6017755,Bike
Fix,GPS,37.4273638061,-122.1724540564,0.3591288453397887,3.256177,7.1421337,22.87978,1675794422999,0.42809013,10.0,4148933954182000,12.304871,Bike
Fix,FLP,37.4273221,-122.1724764,-6.847812042690407,2.8287244,13.373,43.81978,1675794423148,,,4148933763442772,1.615786,Bike
Fix,GPS,37.427413146,-122.1724408,-1.092441000649824,3.666232,6.669341,24.348679,1675794423999,0.40715742,10.0,4148934954207000,11.659945,Bike
Fix,FLP,37.4273497,-122.1724515,-6.847812042690407,3.04451,12.631,36.835594,1675794424233,,,4148934848613671,1.3425722,Bike
Fix,GPS,37.427462679,-122.1724163488,-3.049933160810654,4.0167093,6.3114033,24.083603,1675794424999,0.043931197,10.0,4148935953913000,11.071706,Bike
Fix,FLP,37.4273855,-122.1724283,-6.517027232760469,3.3251123,11.899,33.808895,1675794425318,,,4148935933783532,1.3526121,Bike
Fix,FLP,37.4274233,-122.172412,-6.517027232760469,3.6941555,11.127,29.461374,1675794425861,,,4148936476368309,1.3526121,Bike
Fix,GPS,37.4275118028,-122.172402627,-3.0139920954325867,4.2394457,6.0535936,15.106212,1675794425999,0.04538371,10.0,4148936954098000,10.660631,Bike
Fix,FLP,37.427442,-122.1724061,-4.237376910417126,3.8637466,10.732,26.664232,1675794426403,,,4148937018952538,1.3626021,Bike
Fix,FLP,37.4274815,-122.1723932,-4.237376910417126,4.120429,10.352,22.005014,1675794426946,,,4148937561536766,1.3626021,Bike
Fix,GPS,37.4275584174,-122.1723891233,-3.4096448816775102,4.3797097,6.026383,14.3045,1675794426999,0.49001753,10.0,4148937953980000,10.353996,Bike
Fix,FLP,37.4274955,-122.1723926,-2.3494375341195166,4.209992,9.819,18.683727,1675794427482,,,4148938097272179,1.3725822,Bike
Fix,FLP,37.4275322,-122.1723849,-2.3494375341195166,4.3223066,9.689,15.915792,1675794428027,,,4148938642000000,1.3725822,Bike
Fix,GPS,37.4276058957,-122.1723737183,-3.067413020578825,4.5097704,6.1129007,15.737727,1675794427999,0.48024562,10.0,4148938954227000,10.215801,Bike
Fix,FLP,37.4275835,-122.1723702,-1.991315149858977,4.436337,9.545,15.468956,1675794428574,,,4148939189287743,1.3826122,Bike
Fix,GPS,37.4276507916,-122.1723579018,-3.1669649564550206,4.5846024,6.243476,20.408766,1675794428999,0.48180088,10.0,4148939953946000,10.105762,Bike
Fix,FLP,37.4275992,-122.1723645,-2.839316336136904,4.455365,9.541,16.10201,1675794429116,,,4148939731871483,1.3926022,Bike
Fix,GPS,37.4276950133,-122.1723386729,-3.951101431021392,4.650076,5.9978566,20.847075,1675794429999,0.06848995,10.0,4148940953975000,9.658324,Bike
Fix,FLP,37.4276412,-122.1723474,-2.839316336136904,4.491169,9.475,17.812239,1675794430201,,,4148940817037743,1.4025822,Bike
Fix,FLP,37.4276744,-122.1723401,-2.839316336136904,4.643023,9.31,17.796776,1675794430744,,,4148941359608605,1.4025822,Bike
Fix,GPS,37.4277400771,-122.1723240333,-4.109481911971532,4.7019234,5.7532134,16.111454,1675794430999,0.041851226,10.0,4148941954308000,9.487748,Bike
Fix,FLP,37.4277047,-122.1723317,-2.839316336136904,4.6963124,9.156,17.577868,1675794431287,,,4148941902203026,1.4125822,Bike
Fix,GPS,37.4277852165,-122.172314695,-4.134918150512364,4.739962,5.5716558,9.941001,1675794431999,0.03723727,10.0,4148942954037000,9.307122,Bike
Fix,FLP,37.4277522,-122.1723154,-2.595889350568058,4.7826777,8.986,16.359825,1675794432371,,,4148942987367516,1.4225922,Bike
Fix,GPS,37.4278303916,-122.172315345,-4.792202804879203,4.7675924,5.4121723,1.4848033,1675794432999,0.030516094,10.0,4148943954229000,9.134068,Bike
Fix,FLP,37.4278025,-122.1723009,-1.8373983400571203,4.861237,8.772,14.415359,1675794433456,,,4148944072531945,1.4326621,Bike
Fix,GPS,37.4278756117,-122.1723275774,-4.918069134206957,4.8008966,5.279941,348.5902,1675794433999,0.04515775,10.0,4148944954046000,8.968351,Bike
Fix,FLP,37.4278465,-122.1722978,-1.8373983400571203,4.8274126,8.381,10.692835,1675794434000,,,4148944615110252,1.4425821,Bike
Fix,GPS,37.4279196705,-122.1723406424,-5.1922298814135095,4.8167887,5.377453,343.68176,1675794434999,0.4536378,10.0,4148945954352000,8.863371,Bike
Fix,FLP,37.4278971,-122.1723098,0.1999999582767486,4.640004,8.254,1.5933396,1675794435085,,,4148945700275719,1.4525921,Bike
Fix,FLP,37.4279202,-122.1723268,0.1999999582767486,4.6097074,8.528,353.87183,1675794435627,,,4148946242857201,1.4525921,Bike
Fix,GPS,37.4279584685,-122.1723588562,-5.376915369265443,4.793582,5.4191628,339.04034,1675794435999,0.6585834,10.0,4148946954036000,8.78459,Bike
Fix,FLP,37.4279391,-122.172337,0.1999999582767486,4.595794,8.559,349.38904,1675794436170,,,4148946785437829,1.4625821,Bike
Fix,FLP,37.4279817,-122.1723632,0.1999999582767486,4.58107,8.769,340.85797,1675794437255,,,4148947870599266,1.4625821,Bike
Fix,GPS,37.4279928002,-122.1723824029,-5.457103164257823,4.751451,5.540061,331.80682,1675794436999,0.77775145,10.217188,4148947954098000,8.728357,Bike
Fix,FLP,37.4280093,-122.1723862,3.0612354629079874,4.5358186,8.769,335.16095,1675794437798,,,4148948413182763,1.4728621,Bike
Fix,GPS,37.4280164508,-122.1724380031,-5.294172364428837,4.8680425,5.630195,308.2069,1675794437999,0.4055105,10.0,4148948954034000,7.9377465,Bike
Fix,FLP,37.4280134,-122.1723937,25.736248452028875,4.5648174,8.791,328.87567,1675794438340,,,4148948955759606,1.4825622,Bike
Fix,FLP,37.4280263,-122.1724256,25.736248452028875,4.818639,8.849,309.9364,1675794438883,,,4148949498342248,1.4825622,Bike
Fix,GPS,37.4280327607,-122.1724988158,-5.567692179267287,4.911253,5.625648,293.01193,1675794438999,0.45887062,10.0,4148949954234000,7.4888725,Bike
Fix,FLP,37.4280315,-122.1724526,25.549027566365808,4.898077,8.955,303.08755,1675794439425,,,4148950040908104,1.4925922,Bike
Fix,GPS,37.4280376281,-122.172565452,-4.901231017537377,5.0948434,5.5206356,286.10437,1675794439999,0.37566578,10.0,4148950954362000,7.056288,Bike
Fix,FLP,37.4280401,-122.1725421,15.26644215743586,5.1014767,8.713,286.42493,1675794440339,0.37566578,10.0,4148950954362000,1.779899,Bike
Fix,GPS,37.4280456497,-122.1726317931,-4.70818959845543,5.0274863,5.614491,287.54913,1675794440999,0.41482383,10.0,4148951954394000,6.8567557,Bike
Fix,FLP,37.4280483,-122.1726194,17.67238629385743,5.028089,8.372,286.98093,1675794441339,0.41482383,10.0,4148951954394000,1.7899089,Bike
Fix,GPS,37.4280544948,-122.1726957516,-4.58834489706496,5.415387,5.755653,285.56662,1675794441999,0.41036952,10.0,4148952954182000,6.6873593,Bike
Fix,FLP,37.428057,-122.1726877,17.67238629385743,5.41185,7.995,285.0321,1675794442338,0.41036952,10.0,4148952954182000,1.799899,Bike
Fix,GPS,37.4280629673,-122.1727620322,-3.695162240329106,4.737283,5.7721257,278.7343,1675794442999,0.39093664,10.0,4148953954111000,6.571743,Bike
Fix,FLP,37.4280653,-122.1727564,13.813728695319568,4.7445416,7.312,278.25674,1675794443339,0.39093664,10.0,4148953954111000,1.809889,Bike
Fix,GPS,37.4280616915,-122.1728251287,-2.7672432698160745,4.714663,5.814087,271.58957,1675794443999,0.40677395,10.0,4148954954159000,6.5650043,Bike
Fix,FLP,37.4280678,-122.172816,-1.9101993301914035,4.902056,7.361,274.28098,1675794444339,,,4148954954159000,1.819909,Bike
Fix,FLP,37.4280634,-122.1728555,-1.9101993301914035,4.6646667,7.164,262.4292,1675794444878,,,4148955493847008,1.819909,Bike
Fix,GPS,37.4280588244,-122.1728760266,-2.2924277614846003,4.5196867,6.0253572,275.9826,1675794444999,0.41800287,10.0,4148955954378000,6.5153685,Bike
Fix,FLP,37.4280628,-122.172857,-5.632204283766484,4.697378,8.021,265.13397,1675794445420,,,4148956036426049,1.829909,Bike
Fix,GPS,37.4280710581,-122.1729347654,-2.3050891864673355,4.9006796,5.6211467,286.1875,1675794445999,0.06571216,10.0,4148956954221000,6.090732,Bike
Fix,FLP,37.4280648,-122.1729236,-5.995263521643324,4.467906,8.275,278.89188,1675794446506,,,4148957121583580,1.839899,Bike
Fix,GPS,37.4280812728,-122.1729932303,-1.4877507077770546,4.84964,5.2752967,292.98132,1675794446999,0.07658728,10.0,4148957954252000,5.82915,Bike
Fix,FLP,37.4280769,-122.1729762,-5.319417755429626,4.769139,9.062,288.61694,1675794447049,,,4148957664162438,1.849909,Bike
Fix,FLP,37.4280802,-122.172998,-5.319417755429626,4.8277507,8.941,289.32895,1675794447566,,,4148958181000000,1.849909,Bike
Fix,GPS,37.4280944847,-122.1730459809,-1.3505281955551285,4.997151,5.5479064,295.7754,1675794447999,0.3418291,10.0,4148958954316000,5.678437,Bike
Fix,FLP,37.4280896,-122.173037,-5.152459436813388,4.8382077,9.118,290.6093,1675794448134,,,4148958749319420,1.8598889,Bike
Fix,FLP,37.4280963,-122.1730642,-5.152459436813388,4.9352584,8.979,292.05527,1675794448675,,,4148959291897789,1.8598889,Bike
Fix,GPS,37.4281087364,-122.1730999904,-1.4706646365150602,5.455796,5.533378,294.7995,1675794448999,0.33916765,10.0,4148959954510000,5.480453,Bike
Fix,FLP,37.4281076,-122.1730968,-2.7261628264867284,5.4446526,8.563,293.90012,1675794449339,0.33916765,10.0,4148959954510000,1.8698989,Bike
Fix,GPS,37.4281212357,-122.1731591545,-1.6882387441663305,5.158658,5.505134,285.033,1675794449999,0.31605822,10.0,4148960954417000,5.331398,Bike
Fix,FLP,37.4281233,-122.1731571,15.968189155897178,5.166311,7.727,285.31396,1675794450339,0.31605822,10.0,4148960954417000,1.8798889,Bike
Fix,GPS,37.4281260791,-122.1732241311,-1.5298266913350755,5.6590576,5.3452077,282.21106,1675794450999,0.28595468,10.0,4148961954275000,5.1971,Bike
Fix,FLP,37.4281292,-122.1732205,18.479226659780224,5.657442,7.139,282.07565,1675794451339,0.28595468,10.0,4148961954275000,1.8898989,Bike
Fix,GPS,37.4281325677,-122.1732927996,-1.558458805100304,5.839846,5.2097516,281.57684,1675794451999,0.32218084,10.0,4148962954560000,5.0746865,Bike
Fix,FLP,37.4281349,-122.1732896,15.968189155897178,5.8389945,6.715,281.02347,1675794452339,0.32218084,10.0,4148962954560000,1.8998989,Bike
Fix,GPS,37.4281439978,-122.1733611009,-1.3012838587510125,5.8854938,5.1230545,284.44046,1675794452999,0.32092622,10.0,4148963954440000,4.975854,Bike
Fix,FLP,37.4281444,-122.173359,13.957879942482236,5.882374,5.741,283.8706,1675794453339,0.32092622,10.0,4148963954440000,1.909899,Bike
Fix,GPS,37.4281576975,-122.1734294248,-0.6698464620436456,6.0923066,5.104379,286.0998,1675794453999,0.32592705,10.0,4148964954395000,4.908478,Bike
Fix,FLP,37.4281575,-122.1734275,18.54982885593786,6.087715,5.303,285.8915,1675794454339,0.32592705,10.0,4148964954395000,1.919899,Bike
Fix,GPS,37.4281738081,-122.173497092,-0.6998428297942174,6.1125436,5.0529523,285.4456,1675794454999,0.30017328,10.0,4148965954352000,4.8379107,Bike
Fix,FLP,37.4281734,-122.1734961,15.793755222952656,6.1132717,5.223,285.0385,1675794455338,0.30017328,10.0,4148965954352000,1.929909,Bike
Fix,GPS,37.4281890018,-122.1735678139,-0.904383286225691,5.8221765,5.076664,285.35013,1675794455999,0.3240565,10.0,4148966954391000,4.8191,Bike
Fix,FLP,37.4281886,-122.1735662,15.793755222952656,5.8252563,5.113,285.0282,1675794456339,0.3240565,10.0,4148966954391000,1.939899,Bike
Fix,GPS,37.42820476,-122.173635733,-0.5186974756171917,5.9564843,5.086267,292.06445,1675794456999,0.32532915,10.0,4148967954673000,4.8031597,Bike
Fix,FLP,37.428204,-122.1736338,14.551647708034096,5.9465365,5.088,291.7301,1675794457338,0.32532915,10.0,4148967954673000,1.949899,Bike
Fix,GPS,37.4282254364,-122.1736957112,-0.5132312368989622,5.8089457,5.1816883,291.61966,1675794457999,0.34753308,10.0,4148968954354000,4.8375754,Bike
Fix,FLP,37.4282249,-122.1736959,14.551647708034096,5.8117905,5.104,291.0422,1675794458339,0.34753308,10.0,4148968954354000,1.9598889,Bike
Fix,GPS,37.4282398679,-122.1737533748,-0.8968996414819457,5.520566,5.192436,282.3189,1675794458999,0.37160882,10.0,4148969954693000,4.87144,Bike
Fix,FLP,37.428241,-122.1737547,15.44993933960771,5.528516,5.118,282.37302,1675794459338,0.37160882,10.0,4148969954693000,1.969909,Bike
Fix,GPS,37.4282489407,-122.1738151468,-0.736858706912529,5.57842,5.1420507,282.26123,1675794459999,0.338938,10.0,4148970954719000,4.879478,Bike
Fix,FLP,37.4282498,-122.1738154,16.60243304030078,5.5781693,5.135,282.00793,1675794460339,0.338938,10.0,4148970954719000,1.979909,Bike
Fix,GPS,37.4282593959,-122.1738786757,-0.3840039601109675,5.5665293,5.0996056,283.7565,1675794460999,0.38162565,10.0,4148971954392000,4.8760576,Bike
Fix,FLP,37.4282597,-122.1738782,14.009291121815622,5.565965,5.14,282.96155,1675794461339,0.38162565,10.0,4148971954392000,1.9898889,Bike
Fix,GPS,37.4282710431,-122.1739429205,-0.0428563906256019,5.607865,5.1702547,283.52734,1675794461999,0.37061474,10.0,4148972954666000,4.8826723,Bike
Fix,FLP,37.428271,-122.1739418,16.911001326348824,5.6074305,5.145,282.99557,1675794462339,0.37061474,10.0,4148972954666000,1.9998889,Bike
Fix,GPS,37.4282823465,-122.1740041235,0.2440321074296634,5.7668295,5.2498174,283.8979,1675794462999,0.36739826,10.0,4148973954455000,4.8802667,Bike
Fix,FLP,37.4282823,-122.174004,16.911001326348824,5.7651978,5.17,282.98788,1675794463339,0.36739826,10.0,4148973954455000,2.009909,Bike
Fix,GPS,37.4282947122,-122.1740645287,0.6132741688706823,5.664957,5.3453646,284.70117,1675794463999,0.35204753,10.0,4148974954774000,4.8508244,Bike
Fix,FLP,37.4282945,-122.1740656,12.124922889043788,5.665191,5.201,283.96832,1675794464338,0.35204753,10.0,4148974954774000,2.019899,Bike
Fix,GPS,37.4283081287,-122.1741219515,0.7085467537531734,5.0214105,5.308103,286.4697,1675794464999,0.34913132,10.0,4148975954450000,4.7780333,Bike
Fix,FLP,37.4283077,-122.174124,12.252415701240423,5.0264945,5.219,285.97842,1675794465339,0.34913132,10.0,4148975954450000,2.029899,Bike
Fix,GPS,37.4283200376,-122.1741754579,0.785703167063386,5.425584,5.320183,285.6273,1675794465999,0.35220408,10.0,4148976954487000,4.7349205,Bike
Fix,FLP,37.42832,-122.1741766,17.769203071726707,5.4220886,5.278,285.00128,1675794466339,0.35220408,10.0,4148976954487000,2.039949,Bike
Fix,GPS,37.4283296672,-122.1742402222,1.1509579465950512,5.7159133,5.25944,284.08844,1675794466999,0.32914928,10.0,4148977954439000,4.6988273,Bike
Fix,FLP,37.4283307,-122.1742388,12.252415701240423,5.7137885,5.275,284.01108,1675794467339,0.32914928,10.0,4148977954439000,2.0498989,Bike
Fix,GPS,37.4283392826,-122.1743068467,1.6606732538217404,5.490156,5.285077,284.60617,1675794467999,0.32586214,10.0,4148978954539000,4.7243266,Bike
Fix,FLP,37.4283406,-122.174305,-4.941242381485139,5.4921193,5.303,284.01343,1675794468338,0.32586214,10.0,4148978954539000,2.0599089,Bike
Fix,GPS,37.4283473077,-122.1743625755,2.0022376922605973,5.1890755,5.3439794,283.21097,1675794468999,0.28262186,10.0,4148979954836000,4.7472315,Bike
Fix,FLP,37.428349,-122.1743636,-3.167816747909697,5.1917253,5.303,283.05237,1675794469339,0.28262186,10.0,4148979954836000,2.0699089,Bike
Fix,GPS,37.4283592165,-122.1744146422,2.116097816726872,5.0676584,4.840849,281.99014,1675794469999,0.02739065,10.0,4148980954526000,4.420693,Bike
Fix,FLP,37.4283593,-122.1744166,-3.167816747909697,5.069095,5.209,281.07657,1675794470339,0.02739065,10.0,4148980954526000,2.079889,Bike
Fix,GPS,37.428368535,-122.1744657656,2.3039146693192354,4.8765755,4.6895404,285.1971,1675794470999,0.028254699,1.0,4148981954540000,4.285851,Bike
Fix,FLP,37.4283684,-122.1744681,-2.532994860610515,4.876567,5.083,284.99893,1675794471339,0.028254699,1.0,4148981954540000,2.0899189,Bike
Fix,GPS,37.4283785328,-122.174518035,2.276727484966658,4.6773767,4.245676,281.51932,1675794471999,0.025936203,1.0,4148982954609000,4.177417,Bike
Fix,FLP,37.4283782,-122.174515,0.1999999582767486,4.6774173,4.849,281.00204,1675794472338,0.025936203,1.0,4148982954609000,2.0999088,Bike
Fix,GPS,37.4283792349,-122.1745681155,2.0759913602532,4.479449,4.895862,271.52618,1675794472999,0.03486074,1.0,4148983954522000,4.1047173,Bike
Fix,FLP,37.4283815,-122.1745678,0.1999999582767486,4.47946,4.856,271.00305,1675794473339,0.03486074,1.0,4148983954522000,2.109889,Bike
Fix,GPS,37.4283754857,-122.1746191528,1.86497724605217,4.3565955,4.689168,264.01526,1675794473999,0.036872003,1.0,4148984954623000,4.042951,Bike
Fix,FLP,37.4283777,-122.174619,0.1999999582767486,4.35659,4.77,264.00192,1675794474339,0.036872003,1.0,4148984954623000,2.119899,Bike
Fix,GPS,37.42835842,-122.1746604586,1.6623882447478502,4.1889033,5.0022593,242.38246,1675794474999,0.05813038,1.0,4148985954596000,4.0119934,Bike
Fix,FLP,37.4283663,-122.1746525,0.1999999582767486,4.188639,4.7,242.02065,1675794475339,0.05813038,1.0,4148985954596000,2.129899,Bike
Fix,GPS,37.4283426225,-122.1746959098,1.7066667772956268,3.7924352,4.4234266,235.03705,1675794475999,0.4614721,10.0,4148986954654000,4.1288543,Bike
Fix,FLP,37.4283453,-122.1746926,0.1999999582767486,3.800779,4.704,235.20818,1675794476338,0.4614721,10.0,4148986954654000,2.139899,Bike
Fix,GPS,37.4283167451,-122.1747224219,1.5351802965659964,3.8123534,4.157099,223.79608,1675794476999,0.04735224,10.0,4148987954657000,4.088642,Bike
Fix,FLP,37.4283197,-122.1747242,0.1999999582767486,3.8119793,4.694,223.124,1675794477338,0.04735224,10.0,4148987954657000,2.149919,Bike
Fix,GPS,37.4282897398,-122.1747467487,1.531764336103583,3.5850468,4.1032624,219.67049,1675794477999,0.033836156,10.0,4148988954675000,4.047802,Bike
Fix,FLP,37.4282985,-122.1747412,0.1999999582767486,3.5986073,4.527,219.26071,1675794478339,0.033836156,10.0,4148988954675000,2.159899,Bike
Fix,GPS,37.4282673864,-122.1747655678,1.5152502070725151,3.3427846,4.1031675,218.25992,1675794478999,0.032758176,10.0,4148989954734000,4.00263,Bike
Fix,FLP,37.4282695,-122.1747661,0.1999999582767486,3.3448799,4.454,218.01933,1675794479339,0.032758176,10.0,4148989954734000,2.169889,Bike
Fix,FLP,37.4282659,-122.1747674,0.1999999582767486,3.4895177,4.79,217.86014,1675794479454,,,4148990069603783,2.169889,Bike
Fix,GPS,37.4282449536,-122.1747815392,1.2401994043920694,3.1111379,3.7538066,212.30437,1675794479999,0.029293438,10.0,4148990954663000,3.928952,Bike
Fix,FLP,37.4282497,-122.1747811,0.1999999582767486,3.3721833,5.027,217.8017,1675794479997,,,4148990612180444,2.179909,Bike
Fix,GPS,37.428225193,-122.1747938208,1.5688223426191572,2.9296556,4.102978,208.22937,1675794480999,0.029753067,10.0,4148991954691000,3.8301218,Bike
Fix,FLP,37.4282252,-122.1747978,0.1999999582767486,3.1462047,5.302,211.4279,1675794481082,,,4148991697324730,2.189899,Bike
Fix,GPS,37.4282015131,-122.1748031175,1.6215253390268665,2.8380065,4.0250196,199.53477,1675794481999,0.030964287,10.0,4148992954733000,3.750888,Bike
Fix,FLP,37.428206,-122.1748104,0.1999999582767486,2.948547,5.662,208.11911,1675794482167,,,4148992782471947,2.199899,Bike
Fix,GPS,37.4281772108,-122.1748107399,1.987007443531152,2.8791451,4.1833677,194.85393,1675794482999,0.0405185,1.0,4148993954988000,3.3736806,Bike
Fix,FLP,37.4281823,-122.1748167,0.1999999582767486,2.850046,6.345,200.04956,1675794483252,,,4148993867618676,2.209919,Bike
Fix,GPS,37.4281485753,-122.1748154578,2.12546156172185,2.9282231,5.0435333,192.02623,1675794483999,0.057576902,1.3173926,4148994954762000,3.1097019,Bike
Fix,FLP,37.4281551,-122.1748226,0.1999999582767486,2.8803034,6.959,194.74326,1675794484337,,,4148994952768151,2.219899,Bike
Fix,GPS,37.4281226668,-122.174815028,2.262046514022665,2.8803606,4.2246685,182.51823,1675794484999,0.055674028,1.3614501,4148995954762000,3.0,Bike
Fix,FLP,37.428125,-122.1748264,0.1999999582767486,2.9279726,7.315,191.32289,1675794485422,,,4148996037910668,2.229909,Bike
Fix,GPS,37.4280976553,-122.1748094139,2.45076083119884,2.8779263,4.102504,175.16325,1675794485999,0.03701952,1.0,4148996954779000,3.0,Bike
Fix,FLP,37.4280934,-122.1748205,0.1999999582767486,2.8682864,7.635,174.54138,1675794486508,,,4148997123055687,2.239909,Bike
Fix,GPS,37.428071972,-122.1748048456,2.332849654727103,2.2400813,4.3071585,170.65462,1675794486999,0.53113014,12.583798,4148997954923000,3.0,Bike
Fix,FLP,37.4280777,-122.1748116,0.1999999582767486,2.8713772,7.642,173.93831,1675794487050,,,4148997665625023,2.249889,Bike
Fix,GPS,37.4280506529,-122.1748026834,2.176623988263307,1.9293594,4.928189,176.30556,1675794487999,0.5464369,15.315241,4148998954831000,3.0,Bike
Fix,FLP,37.4280542,-122.1748042,0.1999999582767486,2.2958763,7.651,176.03784,1675794488135,,,4148998750772057,2.259899,Bike
Fix,GPS,37.4280313088,-122.1748035007,2.35884688278996,1.6294494,5.5360775,189.52751,1675794488999,0.4684869,15.123207,4148999954835000,3.0952513,Bike
Fix,FLP,37.428035,-122.1748015,0.1999999582767486,1.9599683,8.107,182.58081,1675794489219,,,4148999835915551,2.269909,Bike
Fix,GPS,37.4280173081,-122.1748032544,2.7053710695661333,2.1998415,6.007738,176.91794,1675794489999,0.4723244,11.9351635,4149000954827000,3.269657,Bike
Fix,FLP,37.4280162,-122.1748053,0.1999999582767486,1.6568474,8.083,195.49812,1675794490305,,,4149000921058617,2.279909,Bike
Fix,GPS,37.4279766585,-122.1748034132,4.872726776133603,2.1423147,6.6591234,183.58372,1675794491999,0.4202512,11.265805,4149002954851000,3.5074973,Bike
Fix,FLP,37.4279805,-122.1748035,2.06510191723892,2.166305,8.732,170.9744,1675794492476,,,4149003091343773,2.2998989,Bike
Fix,GPS,37.427958215,-122.1748072051,4.137775108660468,2.0015557,6.923333,197.21085,1675794492999,0.3890202,10.881718,4149003954900000,3.5854263,Bike
Fix,FLP,37.4279619,-122.1748024,3.25201622256914,2.134662,10.394,186.72491,1675794493018,,,4149003633913719,2.3099189,Bike
Fix,GPS,37.4279420439,-122.1748186892,5.302568500557798,1.9722538,7.0965023,202.00008,1675794493999,0.3871606,11.216111,4149004954981000,3.62309,Bike
Fix,FLP,37.4279423,-122.1748145,4.724061724253176,1.9729815,9.89,201.90315,1675794494339,0.3871606,11.216111,4149004954981000,2.3199089,Bike
Fix,GPS,37.4279311476,-122.1748299482,6.291299153300924,1.7305005,7.0782824,198.6961,1675794494999,0.39982077,12.84694,4149005954910000,3.6712518,Bike
Fix,FLP,37.4279289,-122.1748269,5.983860978319612,1.7322631,9.417,198.03177,1675794495339,0.39982077,12.84694,4149005954910000,2.3299088,Bike
Fix,GPS,37.4279181592,-122.1748365556,6.6535249287709135,1.4694884,6.8135023,203.42673,1675794495999,0.34699374,13.06371,4149006955000000,3.6488454,Bike
Fix,FLP,37.4279165,-122.1748351,6.69893848382128,1.4709361,8.896,202.96764,1675794496340,0.34699374,13.06371,4149006955000000,2.3399088,Bike
Fix,GPS,37.4279150725,-122.1748412658,8.67018764898825,0.6879314,6.8256645,203.42673,1675794496999,0.39795217,29.084703,4149007954939000,3.6504555,Bike
Fix,FLP,37.4279105,-122.1748414,8.578571473976723,0.6934498,8.027,202.97249,1675794497339,0.39795217,29.084703,4149007954939000,2.349899,Bike
Fix,GPS,37.427913179,-122.1748356686,5.827610540044896,0.29775825,7.0720873,203.42673,1675794497999,0.3999272,140.88618,4149008954937000,3.6731706,Bike
Fix,FLP,37.4279095,-122.1748396,7.744470526672245,0.30251205,6.977,203.31918,1675794498339,0.3999272,140.88618,4149008954937000,2.3599188,Bike
Fix,GPS,37.4279176259,-122.1748331621,6.176081400539054,0.33679876,7.1726646,203.42673,1675794498999,0.43223098,45.574978,4149009954967000,4.066085,Bike
Fix,FLP,37.4279131,-122.1748362,17.00932201903052,0.33624506,7.018,203.01517,1675794499338,0.43223098,45.574978,4149009954967000,2.369899,Bike
Fix,GPS,37.4279259319,-122.1748379348,6.0876096857495625,0.64526576,7.387455,203.42673,1675794499999,0.48735768,26.601835,4149010955105000,4.0518236,Bike
Fix,FLP,37.4279184,-122.1748378,14.42714455953852,0.6423015,7.057,203.04971,1675794500340,0.48735768,26.601835,4149010955105000,2.379899,Bike
Fix,GPS,37.4279309385,-122.1748353909,4.765153279378173,0.0,7.599702,203.42673,1675794500999,0.49185014,42.271477,4149011954980000,3.8681867,Bike
Fix,FLP,37.4279236,-122.174838,12.135001302227778,0.026390428,7.166,,1675794501339,0.49185014,,4149011954980000,2.389909,Bike
Fix,GPS,37.4279309385,-122.1748353909,4.267699474393278,0.0,7.583529,203.42673,1675794501999,0.60478574,180.0,4149012955070000,3.6250274,Bike
Fix,FLP,37.4279272,-122.1748367,9.638441644570904,0.00033543175,7.325,,1675794502340,0.60478574,,4149012955070000,2.399899,Bike
Fix,GPS,37.4279309385,-122.1748353909,4.387226279579811,0.0,6.81594,203.42673,1675794502999,0.46539345,103.874115,4149013955154000,3.6745012,Bike
Fix,FLP,37.4279293,-122.1748359,9.638441644570904,1.9589417e-05,7.288,,1675794503340,0.46539345,,4149013955154000,2.4099588,Bike
Fix,GPS,37.4279158396,-122.1748504853,6.567831206281317,0.42512354,6.156251,203.42673,1675794503999,0.41202617,121.96657,4149014955057000,3.50781,Bike
Fix,FLP,37.4279246,-122.1748415,17.138401177364656,0.37473336,7.07,199.73929,1675794504340,0.41202617,121.96657,4149014955057000,2.419889,Bike
Fix,FLP,37.4279201,-122.1748391,17.138401177364656,0.062312752,6.95,,1675794504412,,,4149015027885460,2.419889,Bike
Fix,GPS,37.4279187523,-122.1748484706,6.1125672483677045,0.0,6.3938212,203.42673,1675794504999,0.42330146,152.94545,4149015955059000,3.445739,Bike
Fix,FLP,37.4279172,-122.1748384,19.769322695344925,0.3844627,6.843,154.5761,1675794505498,,,4149016113025292,2.429899,Bike
Fix,FLP,37.4279143,-122.1748372,19.769322695344925,0.05399296,6.591,,1675794506039,,,4149016655590844,2.429899,Bike
Fix,GPS,37.4279187523,-122.1748484706,6.221078650946751,0.0,6.217128,203.42673,1675794505999,0.46980488,24.817257,4149016955042000,3.2801185,Bike
Fix,FLP,37.4279137,-122.1748378,10.285309842240167,0.002915344,6.231,,1675794506583,,,4149017198160668,2.439899,Bike
Fix,FLP,37.4279125,-122.1748375,10.285309842240167,0.0016982831,6.199,,1675794507125,,,4149017740729821,2.439899,Bike
Fix,GPS,37.4279187523,-122.1748484706,5.870820972380505,0.0,6.1311636,203.42673,1675794506999,0.51317585,43.589455,4149017955238000,3.1491597,Bike
Fix,FLP,37.4279113,-122.1748381,3.261077278078432,0.0009194154,6.021,,1675794507668,,,4149018283294945,2.449909,Bike
Fix,FLP,37.4279097,-122.1748376,3.261077278078432,0.0020186196,6.027,,1675794508210,,,4149018825862389,2.449909,Bike
Fix,GPS,37.4279187523,-122.1748484706,5.808503130426005,0.0,6.0815525,203.42673,1675794507999,0.48148632,160.18988,4149018955229000,3.0410786,Bike
Fix,FLP,37.4279081,-122.1748375,4.705936486351916,0.0011761741,5.978,,1675794508713,,,4149019328857262,2.459889,Bike
Fix,FLP,37.4279065,-122.1748375,4.705936486351916,0.0017033492,5.897,,1675794509295,,,4149019910997521,2.459889,Bike
Fix,GPS,37.4279187523,-122.1748484706,5.213535493342572,0.0,6.015131,203.42673,1675794508999,0.51346016,180.0,4149019955214000,3.0,Bike
Fix,FLP,37.427905,-122.1748384,5.188282450018676,0.00046947732,5.938,,1675794509837,,,4149020453565209,2.469909,Bike
Fix,FLP,37.4279038,-122.1748401,5.188282450018676,0.0006591856,5.982,,1675794510351,,,4149020967000000,2.469909,Bike
Fix,GPS,37.4279015433,-122.1748623429,5.0605447533496015,0.88887644,5.85772,203.42673,1675794509999,0.4056985,30.204327,4149020955285000,3.0,Bike
Fix,FLP,37.4279014,-122.1748448,5.188282450018676,0.77241915,6.032,252.89197,1675794510932,,,4149021547000000,2.4565003,Bike
Fix,GPS,37.4278869033,-122.1748688739,4.29588339420023,0.9845464,6.165861,203.42673,1675794510999,0.42661598,14.797371,4149021955097000,3.0722518,Bike
Fix,FLP,37.4278994,-122.1748501,5.188282450018676,0.87661475,6.126,257.75418,1675794511466,,,4149022081265770,1.7327814,Bike
Fix,FLP,37.4278961,-122.1748588,5.188282450018676,0.9713754,6.172,261.25983,1675794512008,,,4149022623834435,1.7327814,Bike
Fix,GPS,37.427874399,-122.1748778469,3.999376076328473,0.8913767,6.4429226,203.42673,1675794511999,0.42055607,29.723454,4149022955128000,3.238827,Bike
Fix,FLP,37.427891,-122.1748716,3.402028281085876,0.9026725,6.274,264.85483,1675794513073,,,4149023689000000,1.7227613,Bike
Fix,GPS,37.4278595061,-122.1748851365,4.663387072117137,0.4059521,6.658078,203.42673,1675794512999,0.45780593,72.324,4149023955187000,3.3879435,Bike
Fix,GPS,37.4278561508,-122.1748891184,5.458218080181241,0.0,6.2846127,203.42673,1675794513999,0.050055884,44.339382,4149024955164000,3.0788267,Bike
Fix,FLP,37.4278871,-122.1748845,8.26829242606263,0.44729763,6.378,293.2824,1675794514179,,,4149024794099145,1.896352,Bike
Fix,GPS,37.4278561508,-122.1748891184,6.04735419240474,0.0,5.999822,203.42673,1675794514999,0.061891217,20.411953,4149025955252000,3.0,Bike
Fix,FLP,37.4278865,-122.1748912,6.669729907831254,0.03151265,6.411,,1675794515264,,,4149025879231164,2.2602863,Bike
Fix,GPS,37.4278561508,-122.1748891184,5.792777193176569,0.0,5.9328084,203.42673,1675794515999,0.4194269,26.92515,4149026955228000,3.0,Bike
Fix,FLP,37.4278857,-122.1748909,4.539790283161835,0.0019443096,6.422,,1675794516348,,,4149026964367272,2.1384137,Bike
Fix,GPS,37.4278561508,-122.1748891184,5.61927336801197,0.0,6.1563563,203.42673,1675794516999,0.045886345,180.0,4149027955768000,3.0,Bike
Fix,FLP,37.4278844,-122.1748889,1.8798818082888855,0.00050925737,6.479,,1675794517434,,,4149028049499230,2.0113628,Bike
Fix,GPS,37.4278561508,-122.1748891184,5.634409145424643,0.0,5.7249403,203.42673,1675794517999,0.4282073,68.64945,4149028955367000,3.0,Bike
Fix,FLP,37.4278826,-122.1748881,0.2785010810928128,0.0003288583,6.425,,1675794518519,,,4149029134630517,1.9804082,Bike
Fix,GPS,37.4278561508,-122.1748891184,5.253843843190031,0.0,5.681957,203.42673,1675794518999,0.41852513,82.508965,4149029955282000,3.0,Bike
Fix,FLP,37.4278797,-122.1748858,-0.628243107643442,0.0007839734,6.115,,1675794519062,,,4149029677196251,1.7857268,Bike
Fix,GPS,37.4278561508,-122.1748891184,5.516623763727466,0.0,5.478812,203.42673,1675794519999,0.06525256,15.02108,4149030955306000,3.0,Bike
Fix,FLP,37.4278771,-122.1748851,1.1863490795130218,0.00038793264,5.804,,1675794520147,,,4149030762326867,1.9561933,Bike
Fix,GPS,37.4278561508,-122.1748891184,5.551985133118843,0.0,5.393019,203.42673,1675794520999,0.44172218,180.0,4149031955239000,3.0,Bike
Fix,FLP,37.4278751,-122.1748855,1.03335677669682,0.00020530961,5.549,,1675794521231,,,4149031847457482,2.0364919,Bike
Fix,GPS,37.4278561508,-122.1748891184,5.403008949805724,0.0,5.2161193,203.42673,1675794521999,0.043687817,180.0,4149032955300000,3.0,Bike
Fix,FLP,37.4278729,-122.1748864,0.9669267705333198,0.00038931458,5.478,,1675794522317,,,4149032932588158,2.0115068,Bike
Fix,GPS,37.4278561508,-122.1748891184,5.343353919462039,0.0,5.1825156,203.42673,1675794522999,0.39333436,180.0,4149033955277000,3.0,Bike
Fix,FLP,37.427871,-122.1748882,0.9779984019749008,0.0007290988,5.305,,1675794523401,,,4149034017717980,1.8625549,Bike
Fix,GPS,37.4278561508,-122.1748891184,5.095964498823832,0.0,5.1073327,203.42673,1675794523999,0.034270767,180.0,4149034955509000,3.0,Bike
Fix,FLP,37.4278696,-122.1748899,-0.2468387020920204,0.00069369294,5.071,,1675794524487,,,4149035102847619,1.972302,Bike
Fix,GPS,37.4278561508,-122.1748891184,4.940752145171971,0.0,4.989341,203.42673,1675794524999,0.046895247,45.98481,4149035955338000,3.0,Bike
Fix,FLP,37.4278677,-122.1748907,-0.5437116894353551,0.00040461242,4.94,,1675794525030,,,4149035645412560,2.0422127,Bike
Fix,GPS,37.4278561508,-122.1748891184,4.958550440588749,0.0,5.1360292,203.42673,1675794525999,0.5107734,57.85262,4149036955436000,3.0,Bike
Fix,FLP,37.4278666,-122.1748919,-0.2277177116299356,0.0007099953,4.809,,1675794526115,,,4149036730541710,2.0290241,Bike
Fix,GPS,37.4278561508,-122.1748891184,4.861395195503877,0.0,6.7423697,203.42673,1675794526999,0.6638573,142.7669,4149037955412000,3.0,Bike
Fix,FLP,37.4278655,-122.1748932,-0.2770296516059289,0.00091396074,4.656,,1675794527200,,,4149037815670128,1.8828568,Bike
Fix,GPS,37.4278561508,-122.1748891184,4.790947530579855,0.0,8.792764,203.42673,1675794527999,0.7179877,101.43764,4149038955417000,3.0,Bike
Fix,FLP,37.427865,-122.1748952,0.0510511137257196,0.0013407456,4.537,,1675794528285,,,4149038900798302,2.003457,Bike
Fix,GPS,37.4278561508,-122.1748891184,4.705808964793084,0.0,8.596832,203.42673,1675794528999,0.72057515,27.89411,4149039955378000,3.0,Bike
Fix,FLP,37.4278648,-122.1748977,1.1761128692508152,0.0016539552,4.548,,1675794529369,,,4149039985925683,2.5597177,Bike
Fix,FLP,37.427865,-122.1749001,1.1761128692508152,0.0012595044,4.515,,1675794530418,,,4149041034000000,2.5597177,Bike
Fix,GPS,37.4278561508,-122.1748891184,4.324825520304206,0.0,6.7437067,203.42673,1675794529999,0.58345276,76.48723,4149040955417000,3.0,Bike
Fix,FLP,37.4278653,-122.1749007,-0.6061040083872484,3.0070143e-05,4.561,,1675794530998,,,4149041613616662,2.0508761,Bike
Fix,GPS,37.4278561508,-122.1748891184,3.3809791157507534,0.0,6.0862265,203.42673,1675794530999,0.49396935,78.79861,4149041955394000,3.0,Bike
Fix,FLP,37.4278654,-122.1749,-0.990511040270306,8.156641e-05,4.569,,1675794531540,,,4149042156180077,1.9389777,Bike
Fix,FLP,37.4278657,-122.1748986,-0.990511040270306,0.0005792668,4.57,,1675794532082,,,4149042698733910,1.9389777,Bike
Fix,GPS,37.4278561508,-122.1748891184,4.1594501032305775,0.0,6.06526,203.42673,1675794531999,0.5008307,180.0,4149042955387000,3.0,Bike
Fix,FLP,37.4278664,-122.1748949,-0.8134042128803429,0.0013484849,4.626,,1675794533167,,,4149043783866844,2.0266302,Bike
Fix,GPS,37.4278561508,-122.1748891184,4.388621417918295,0.0,5.6675525,203.42673,1675794532999,0.35064784,38.527874,4149043955382000,3.0,Bike
Fix,FLP,37.4278657,-122.1748931,15.566391540470804,0.003481416,4.62,,1675794533711,,,4149044326432641,2.0708125,Bike
Fix,GPS,37.4278465885,-122.1749204343,5.194752509078883,0.31852862,5.215411,203.42673,1675794533999,0.22818984,63.906563,4149044955429000,3.0,Bike
Fix,FLP,37.4278651,-122.1748922,16.51924253794013,0.004779602,4.615,,1675794534253,,,4149044868995324,2.0620391,Bike
Fix,FLP,37.4278634,-122.1748922,16.51924253794013,0.0350486,4.598,,1675794534795,,,4149045411558861,2.0620391,Bike
Fix,GPS,37.4278575346,-122.1749250498,5.5395975746161845,0.5160658,5.11497,203.42673,1675794534999,0.22675101,42.398422,4149045955411000,3.0,Bike
Fix,FLP,37.4278628,-122.174892,12.359753037968986,0.04289648,4.605,,1675794535339,,,4149045954119347,2.019382,Bike
