Fix,Provider,LatitudeDegrees,LongitudeDegrees,AltitudeMeters,SpeedMps,AccuracyMeters,BearingDegrees,UnixTimeMillis,SpeedAccuracyMps,BearingAccuracyDegrees,elapsedRealtimeNanos,VerticalAccuracyMeters,TransitType
Fix,NLP,37.4215789,-122.1586668,-7.999999523162842,,18.295,,1676998295160,,,433087609000000,1.4564528,Bike
Fix,FLP,37.4214757,-122.1587106,-7.999999523162842,0.87675107,15.003,18.606983,1676998295160,,,433087609000000,1.4517742,Bike
Fix,GPS,37.4217781019,-122.1586002153,10.822702009830616,0.0,153.90002,,1676998296567,1.7670016,,433091691107243,106.35719,Bike
Fix,FLP,37.4216004,-122.1586578,-9.858405992884144,2.3749835,21.301,18.563051,1676998299242,,,433091691107243,1.4918243,Bike
Fix,FLP,37.4215616,-122.1586691,-9.858405992884144,0.72891086,29.291,26.794903,1676998299800,,,433092249246848,1.4918243,Bike
Fix,NLP,37.4215324,-122.1586615,-8.40000057220459,,20.258,,1676998300172,,,433092621000000,1.0,Bike
Fix,GPS,37.4217711976,-122.1585055681,23.11792154279486,0.0,150.72981,,1676998297567,1.4460568,,433092705760564,96.15761,Bike
Fix,FLP,37.4215563,-122.1586727,-12.883320449683875,0.4572115,30.634,28.675547,1676998300341,,,433092791743247,1.3991807,Bike
Fix,FLP,37.4215503,-122.1586716,-12.883320449683875,0.188311,31.004,78.487495,1676998300885,,,433093334253439,1.3991807,Bike
Fix,GPS,37.42173035,-122.1582370023,30.11072756747721,0.0,74.869606,,1676998298567,0.8467799,,433093751965073,86.03229,Bike
Fix,FLP,37.4215537,-122.1586712,-15.326477075298031,0.13998985,30.109,82.35139,1676998301427,,,433093876770713,1.4092969,Bike
Fix,GPS,37.421553242,-122.1584393816,2.1392579823913103,0.0,8.407803,,1676998299567,0.9162079,,433094748199082,10.736337,Bike
Fix,FLP,37.4215566,-122.1586699,-12.41585793422364,0.111668535,29.402,81.04333,1676998301970,,,433094419278342,1.4076428,Bike
Fix,FLP,37.4215585,-122.1586657,-12.41585793422364,0.09591848,28.797,,1676998302512,,,433094961785666,1.4076428,Bike
Fix,GPS,37.4215583182,-122.1584431177,1.9876374623972175,0.0,20.648455,,1676998300567,0.85817957,,433095762464260,26.396162,Bike
Fix,FLP,37.4215592,-122.1586625,-12.41585793422364,0.08491157,28.884,,1676998303055,,,433095504292990,1.4076428,Bike
Fix,FLP,37.42156,-122.1586567,-11.017403159789591,0.07068519,28.427,,1676998303597,,,433096046802511,1.4149363,Bike
Fix,GPS,37.4215669923,-122.1585222454,-1.149108844569557,0.0,6.4369802,,1676998301567,0.8782376,,433096759605129,8.228618,Bike
Fix,FLP,37.4215602,-122.1586537,-6.136582870122119,0.06416021,26.216,,1676998304140,,,433096589306906,1.4134872,Bike
Fix,FLP,37.4215602,-122.1586458,-6.136582870122119,0.059520457,23.744,,1676998304681,,,433097131803061,1.4134872,Bike
Fix,NLP,37.4215247,-122.1586039,-7.799999713897705,,16.781,,1676998305224,,,433097673000000,1.1784569,Bike
Fix,FLP,37.4215599,-122.1586412,-6.136582870122119,0.059347954,19.468,,1676998305225,,,433097674289693,1.2592704,Bike
Fix,GPS,37.4215437401,-122.1585806752,-5.088296187918241,0.0,5.9410667,,1676998302567,0.8467718,,433097757716621,5.651581,Bike
Fix,FLP,37.421557,-122.1586301,-7.799999713897705,0.051111214,19.419,,1676998305767,,,433098216826071,1.2606105,Bike
Fix,GPS,37.4215405955,-122.1585458793,-2.366666135981091,0.0,8.160539,,1676998303664,0.8185075,,433098795832141,12.867446,Bike
Fix,FLP,37.4215548,-122.1586275,-7.799999713897705,0.024882419,19.252,,1676998306310,,,433098759331565,1.2386256,Bike
Fix,FLP,37.421551,-122.1586221,-7.799999713897705,0.014537109,18.788,,1676998306852,,,433099301836875,1.2386256,Bike
Fix,GPS,37.4215271807,-122.1585384905,8.71033630051631,0.0,11.914643,,1676998304664,20.0,,433099777135323,13.266469,Bike
Fix,FLP,37.4215489,-122.1586198,-7.799999713897705,0.013717174,18.544,,1676998307395,,,433099844342063,1.2486857,Bike
Fix,FLP,37.421545,-122.1586158,-7.799999713897705,0.006624619,18.083,,1676998307937,,,433100386836813,1.2486857,Bike
Fix,GPS,37.4215208175,-122.1585280889,9.222518767455645,0.0,11.308699,,1676998305664,20.0,,433100760191598,12.179523,Bike
Fix,GPS,37.4215048184,-122.1585253005,7.493135502998453,0.0,10.3865595,,1676998306999,20.0,,433102089302235,11.023252,Bike
Fix,FLP,37.4215405,-122.1586117,-8.40000057220459,0.005052354,16.961,,1676998309564,,,433102014359580,1.2574408,Bike
Fix,NLP,37.421571,-122.1586197,-7.799999713897705,,14.984,,1676998310281,,,433102730000000,2.4487844,Bike
Fix,FLP,37.4215377,-122.1586084,-8.40000057220459,0.0067116837,16.461,,1676998310107,,,433102556853232,1.5211531,Bike
Fix,GPS,37.4215013765,-122.1585284374,7.561483277868236,0.0,10.255012,,1676998307999,20.0,,433103123976470,10.793817,Bike
Fix,FLP,37.4215388,-122.158606,-8.40000057220459,0.0064312983,15.373,,1676998310650,,,433103099365926,1.480835,Bike
Fix,GPS,37.4214986935,-122.1585324484,6.962319596788356,0.0,10.133495,,1676998308999,0.67126447,,433104043104000,10.647507,Bike
Fix,FLP,37.4215393,-122.1586038,-10.954551568412596,0.0067245387,15.2,,1676998311735,,,433104184371787,1.4227855,Bike
Fix,GPS,37.421498591,-122.1585402642,6.30232308528154,0.0,9.978717,,1676998309999,0.68765837,,433105043396000,10.554129,Bike
Fix,FLP,37.4215391,-122.1586008,-11.406766018427309,0.0074277436,14.857,,1676998312276,,,433104726878927,1.4038732,Bike
Fix,GPS,37.421502793,-122.1585454172,6.061593898367889,0.0,11.330448,,1676998310999,0.77512383,,433106043206000,10.461514,Bike
Fix,FLP,37.4215386,-122.1585978,-12.166534022313936,0.008560602,14.101,,1676998313362,,,433105811878745,1.4089097,Bike
Fix,GPS,37.4215034327,-122.1585530478,5.888049908640205,0.0,9.864862,,1676998311999,0.67594016,,433107043363000,10.297664,Bike
Fix,FLP,37.421538,-122.1585948,-11.971872331591856,0.009988437,13.899,,1676998314447,,,433106896882590,1.4189197,Bike
Fix,NLP,37.4215849,-122.1586228,-7.799999713897705,,15.416,,1676998315256,,,433107705000000,1.8074973,Bike
Fix,FLP,37.4215375,-122.1585926,-7.799999713897705,0.0110680275,13.285,,1676998314990,,,433107439372763,1.8609004,Bike
Fix,GPS,37.4215049077,-122.1585602926,5.421589930021878,0.0,9.86417,,1676998312999,0.65143335,,433108043249000,10.205279,Bike
Fix,FLP,37.4215399,-122.1585943,-7.799999713897705,0.009558621,12.343,,1676998315532,,,433107981885459,1.8612158,Bike
Fix,GPS,37.4215067572,-122.1585692175,5.217748101687432,0.0,9.688833,,1676998313999,0.59980696,,433109043519000,10.03741,Bike
Fix,FLP,37.421541,-122.1585952,-7.799999713897705,0.008216186,11.949,,1676998316617,,,433109066889182,1.8589798,Bike
Fix,GPS,37.4215053717,-122.158577395,4.3630730649947616,0.0,9.481228,,1676998314999,0.5404685,,433110043478000,9.731392,Bike
Fix,FLP,37.4215413,-122.1585955,-7.799999713897705,0.007373492,11.568,,1676998317702,,,433110151879416,1.8638945,Bike
Fix,GPS,37.4215048257,-122.1585822126,4.220842595523883,0.0,9.317526,,1676998315999,0.5706644,,433111043233000,9.572032,Bike
Fix,FLP,37.4215411,-122.1585952,-7.799999713897705,0.007168482,11.239,,1676998318245,,,433110694387411,1.8732691,Bike
Fix,GPS,37.4215053273,-122.1585842455,3.808692980550016,0.0,9.318172,,1676998316999,0.56399745,,433112043234000,9.403046,Bike
Fix,FLP,37.4215407,-122.1585948,-7.799999713897705,0.006942571,11.158,,1676998319330,,,433111779383506,1.883259,Bike
Fix,NLP,37.4215763,-122.1586118,-7.799999713897705,,15.103,,1676998320237,,,433112686000000,1.2875065,Bike
Fix,FLP,37.4215401,-122.158595,-7.799999713897705,0.0061231144,10.813,,1676998319872,,,433112321889853,1.6252531,Bike
Fix,GPS,37.4215059609,-122.1585852156,3.876080603620287,0.0,9.298681,,1676998317999,0.5604701,,433113043595000,9.221977,Bike
Fix,FLP,37.4215411,-122.158596,-7.799999713897705,0.004995212,10.269,,1676998320415,,,433112864389914,1.5305275,Bike
Fix,GPS,37.4215048486,-122.1585854265,3.612596684254539,0.0,19.135403,,1676998318999,0.98610723,,433114043401000,9.277264,Bike
Fix,FLP,37.4215415,-122.1585962,-7.799999713897705,0.004511806,10.058,,1676998321465,,,433113914572043,1.3811983,Bike
Fix,GPS,37.4215042553,-122.1585866575,3.3540117573779398,0.0,9.514783,,1676998319999,0.74558884,,433115043689000,9.234232,Bike
Fix,FLP,37.4215419,-122.158596,-7.799999713897705,0.004572101,9.728,,1676998322585,,,433115034387168,1.401029,Bike
Fix,GPS,37.4215023611,-122.1585886094,2.9745425586093264,0.0,9.711877,,1676998320999,0.82191133,,433116043363000,9.173458,Bike
Fix,FLP,37.4215421,-122.1585953,-7.799999713897705,0.0048678587,9.457,,1676998323669,,,433116119384726,1.40471,Bike
Fix,GPS,37.4215016857,-122.1585902665,2.834579347636962,0.0,9.81579,,1676998321999,20.0,,433117043294000,9.213686,Bike
Fix,FLP,37.4215419,-122.1585948,-7.799999713897705,0.005180699,9.274,,1676998324755,,,433117204381613,1.41369,Bike
Fix,NLP,37.42159,-122.1586272,-7.799999713897705,,14.522,,1676998325394,,,433117843000000,1.6494234,Bike
Fix,FLP,37.4215415,-122.1585941,-7.799999713897705,0.0057156472,9.146,,1676998325297,,,433117746883322,1.3963498,Bike
Fix,GPS,37.4215061322,-122.1585925997,2.9143929368442545,0.0,11.302771,,1676998322999,0.94347614,,433118043463000,9.202362,Bike
Fix,GPS,37.4215202806,-122.1585914212,3.4058803771195985,0.0,10.072027,,1676998323999,0.80565196,,433119043425000,9.096333,Bike
Fix,FLP,37.4215428,-122.1585951,-5.899784126522839,0.0038541874,9.197,,1676998326382,,,433118831875022,1.4017116,Bike
Fix,GPS,37.4215314686,-122.1585906091,3.615277262549348,0.0,9.96455,,1676998324999,0.6891007,,433120043408000,8.87578,Bike
Fix,FLP,37.4215439,-122.1585961,-7.799999713897705,0.0028671217,9.138,,1676998327465,,,433119914572043,1.4194144,Bike
Fix,GPS,37.4215409163,-122.1585893486,4.059117908878132,0.0,9.921025,,1676998325999,0.6824204,,433121043608000,8.70245,Bike
Fix,FLP,37.4215431,-122.1585943,-9.717100873608832,0.0048139826,9.23,,1676998328594,0.6824204,,433121043608000,1.5852467,Bike
Fix,GPS,37.4215461167,-122.158588348,4.236456505612811,0.0,9.819942,,1676998326999,0.7046135,,433122043410000,8.550861,Bike
Fix,FLP,37.4215439,-122.1585926,-7.799999713897705,0.007664981,9.301,,1676998329594,0.7046135,,433122043410000,1.5831885,Bike
Fix,NLP,37.4215566,-122.1586326,-7.999999523162842,,15.407,,1676998330398,,,433122848000000,1.6429963,Bike
Fix,FLP,37.421544,-122.1585925,-7.999999523162842,0.008086713,15.369,,1676998330399,0.7046135,,433122848000000,1.6713221,Bike
Fix,GPS,37.4215517468,-122.1585876734,4.2874456135500445,0.0,9.686569,,1676998327999,0.64262277,,433123043545000,8.421969,Bike
Fix,FLP,37.4215462,-122.1585911,-7.999999523162842,0.025098728,15.42,,1676998330594,0.64262277,,433123043545000,1.6760886,Bike
Fix,GPS,37.4215560538,-122.1585900325,4.331934370064247,0.0,9.639864,,1676998328999,0.65000826,,433124043478000,8.286637,Bike
Fix,FLP,37.4215494,-122.1585906,-7.999999523162842,0.06592619,15.596,,1676998331593,0.65000826,,433124043478000,1.683032,Bike
Fix,GPS,37.421560071,-122.1585915637,4.617420377775357,0.0,9.61216,,1676998329999,0.63654304,,433125043537000,8.162411,Bike
Fix,FLP,37.4215536,-122.1585908,-7.999999523162842,0.13439265,15.744,5.5651746,1676998332594,0.63654304,,433125043537000,1.6763333,Bike
Fix,GPS,37.4215623704,-122.1585919082,4.7776014559982,0.0,9.661501,,1676998330999,0.6534562,,433126043774000,8.063506,Bike
Fix,FLP,37.4215578,-122.1585912,-7.999999523162842,0.20175159,15.701,1.2119176,1676998333594,0.6534562,,433126043774000,1.703022,Bike
Fix,GPS,37.4215641266,-122.1585967349,4.964721927265414,0.0,9.55806,,1676998331999,0.5699978,,433127043525000,7.961065,Bike
Fix,FLP,37.4215615,-122.1585935,-7.999999523162842,0.25180697,15.657,350.44632,1676998334594,0.5699978,,433127043525000,1.712927,Bike
Fix,NLP,37.4215816,-122.1586216,-7.400000095367432,,15.568,,1676998335438,,,433127887000000,1.9612595,Bike
Fix,FLP,37.4215637,-122.1585951,-7.400000095367432,0.26474234,14.996,345.6021,1676998335438,0.5699978,,433127887000000,1.7496608,Bike
Fix,GPS,37.4215662032,-122.1585997305,4.99026722663701,0.0,9.387718,,1676998332999,0.5822461,,433128043468000,7.8301563,Bike
Fix,FLP,37.4215648,-122.1585967,-7.400000095367432,0.29050964,14.295,340.74115,1676998335594,0.5822461,,433128043468000,1.7629925,Bike
Fix,GPS,37.421569284,-122.1586038921,5.088137449524596,0.0,9.188349,,1676998333999,0.51179916,,433129043554000,7.674692,Bike
Fix,FLP,37.4215681,-122.1586005,-4.758031819043403,0.335183,14.201,332.72208,1676998336594,0.51179916,,433129043554000,1.5880878,Bike
Fix,GPS,37.4215756989,-122.1586044551,4.528767499376851,0.0,8.984405,,1676998334999,0.51980734,,433130043853000,7.48487,Bike
Fix,FLP,37.4215729,-122.1586032,-4.763143736394859,0.3963893,14.123,333.82574,1676998337594,0.51980734,,433130043853000,1.6136974,Bike
Fix,GPS,37.4215831691,-122.1586019705,4.046664255144701,0.0,8.928036,,1676998335999,0.5630453,,433131043586000,7.469481,Bike
Fix,FLP,37.4215794,-122.1586037,-5.133238339125668,0.46520412,13.546,341.9834,1676998338594,0.5630453,,433131043586000,1.6710865,Bike
Fix,GPS,37.4215891098,-122.1586002356,2.933685336402053,0.0,9.045907,,1676998336999,0.5457066,,433132043624000,7.3882856,Bike
Fix,FLP,37.421586,-122.1586029,-7.400000095367432,0.5197939,13.967,349.48013,1676998339594,0.5457066,,433132043624000,1.7594367,Bike
Fix,NLP,37.4215798,-122.1586409,-7.999999523162842,,13.729,,1676998340506,,,433132955000000,1.2662274,Bike
Fix,FLP,37.4215907,-122.1586025,-9.91773234248615,0.5263057,14.219,352.5464,1676998340506,0.5457066,,433132955000000,1.6691417,Bike
Fix,GPS,37.421588687,-122.15860704,2.66737657360975,0.0,9.152707,,1676998337999,0.6669501,,433133043564000,7.4215283,Bike
Fix,FLP,37.4215902,-122.1586042,-10.05617117525858,0.5085243,14.189,348.31244,1676998340594,0.6669501,,433133043564000,1.6701417,Bike
Fix,GPS,37.4215914052,-122.1586080123,3.1820195799680366,0.0,9.185221,,1676998338999,0.555165,,433134043631000,6.815325,Bike
Fix,FLP,37.4215933,-122.1586065,-11.035905936516976,0.47751534,14.875,344.58563,1676998341593,0.555165,,433134043631000,1.6955913,Bike
Fix,FLP,37.4215813,-122.1586036,-11.035905936516976,0.02250184,14.069,,1676998342115,,,433134564246482,1.6955913,Bike
Fix,GPS,37.4215928112,-122.1586074327,2.8414654859494406,0.0,9.287822,,1676998339999,0.6543525,,433135043836000,6.6929483,Bike
Fix,FLP,37.4215766,-122.1586021,-7.999999523162842,0.00590699,13.468,,1676998342657,,,433135106743246,1.6901617,Bike
Fix,FLP,37.4215731,-122.1586005,-7.999999523162842,0.007976379,14.01,,1676998343200,,,433135649234580,1.6901617,Bike
Fix,GPS,37.4215926387,-122.1586077363,2.322972516273285,0.0,9.38068,,1676998340999,0.6248945,,433136043865000,6.6019626,Bike
Fix,FLP,37.4215713,-122.1585994,-11.9476008842768,0.008288624,13.45,,1676998343742,,,433136191716513,1.7029136,Bike
Fix,FLP,37.4215701,-122.1585982,-11.9476008842768,0.009662566,13.024,,1676998344285,,,433136734222006,1.7029136,Bike
Fix,GPS,37.4215922758,-122.1586079808,2.368408116544485,0.0,9.334362,,1676998341999,0.523033,,433137043893000,6.4893565,Bike
Fix,NLP,37.4215399,-122.1586371,-7.400000095367432,,16.637,,1676998345572,,,433138021000000,2.4979343,Bike
Fix,FLP,37.4215684,-122.1585963,-7.400000095367432,0.005084282,9.003,,1676998345370,,,433137819209189,1.9581999,Bike
Fix,GPS,37.4215931596,-122.1586082428,2.3528326454605173,0.0,9.272045,,1676998342999,0.5463941,,433138043871000,6.387296,Bike
Fix,GPS,37.4215934353,-122.1586085884,2.2470592739616677,0.0,9.329611,,1676998343999,0.6240374,,433139043675000,6.2856154,Bike
Fix,FLP,37.4215657,-122.1585967,-7.400000095367432,0.0060149236,8.983,,1676998346455,,,433138904196494,1.8874102,Bike
Fix,FLP,37.421564,-122.1585979,-7.400000095367432,0.006122862,8.988,,1676998346997,,,433139446692770,1.8874102,Bike
Fix,GPS,37.4215939224,-122.1586096954,1.931056913973972,0.0,9.25734,,1676998344999,0.60859567,,433140044006000,6.1747837,Bike
Fix,FLP,37.4215627,-122.158599,-3.640492481064783,0.0036770785,8.947,,1676998347540,,,433139989183310,1.8414062,Bike
Fix,FLP,37.4215613,-122.158601,-3.640492481064783,0.006708671,8.812,,1676998348082,,,433140531667929,1.8414062,Bike
Fix,GPS,37.4215946986,-122.1586125576,1.5290192046656523,0.0,9.183047,,1676998345999,0.5464062,,433141043660000,6.0996084,Bike
Fix,FLP,37.4215609,-122.1586019,-4.748319167556154,0.0032298844,8.747,,1676998348625,,,433141074170127,1.8505304,Bike
Fix,FLP,37.4215612,-122.1586029,-4.748319167556154,0.00052534894,8.618,,1676998349167,,,433141616663779,1.8505304,Bike
Fix,GPS,37.4215952695,-122.1586132585,1.61187311081447,0.0,9.205663,,1676998346999,0.56580806,,433142043674000,6.023087,Bike
Fix,FLP,37.4215618,-122.1586034,-7.400000095367432,0.0012751439,8.596,,1676998349710,,,433142159156699,1.9992099,Bike
Fix,FLP,37.4215631,-122.1586039,-7.400000095367432,0.0059252246,8.326,,1676998350252,,,433142701650107,1.9992099,Bike
Fix,NLP,37.4215865,-122.1586735,-8.40000057220459,,21.032,,1676998350586,,,433143036000000,1.8441806,Bike
Fix,GPS,37.4215953182,-122.158614046,1.6230653822643812,0.0,9.347629,,1676998347999,0.5883832,,433143043976000,5.970835,Bike
Fix,GPS,37.4215960347,-122.1586145197,1.3726935014677686,0.0,9.529156,,1676998348999,20.0,,433144044110000,5.9512086,Bike
Fix,FLP,37.4215663,-122.1586073,-5.200712404326218,0.00081779703,8.337,,1676998351337,,,433143786639486,1.9585236,Bike
Fix,FLP,37.4215678,-122.1586101,-5.200712404326218,0.0069118696,8.342,,1676998351880,,,433144329129781,1.9585236,Bike
Fix,GPS,37.421601618,-122.1586201996,0.7786491486727382,1.4632329,9.427326,343.2875,1676998349999,0.5134687,21.751652,433145043997000,5.879478,Bike
Fix,FLP,37.4215687,-122.1586129,-10.276591309445134,0.013689493,8.341,,1676998352422,,,433144871611350,1.9593097,Bike
Fix,GPS,37.4216112131,-122.1586297761,-0.0665715182623263,1.9193704,9.163592,340.94012,1676998350999,0.4457775,12.575744,433146043777000,5.8212023,Bike
Fix,FLP,37.4215695,-122.1586202,-3.308167290342631,0.6075602,8.456,265.04456,1676998353465,,,433145914572043,1.978731,Bike
Fix,GPS,37.4216234771,-122.1586553936,-0.9353715397041849,2.0643609,8.8840475,323.04614,1676998351999,0.36946195,10.0,433147043812000,5.8035603,Bike
Fix,FLP,37.4215695,-122.1586324,-1.0096531421038222,1.1661156,8.591,261.4372,1676998354592,,,433147041593894,1.9792997,Bike
Fix,FLP,37.4215775,-122.158648,-1.0096531421038222,1.3326709,9.476,293.15167,1676998355135,,,433147584087302,1.9792997,Bike
Fix,NLP,37.421599,-122.1588779,-8.300000190734863,,20.647,,1676998355643,,,433148092000000,1.3265947,Bike
Fix,GPS,37.4216331147,-122.1586864424,-1.5114855656315889,2.2874098,8.334151,324.37512,1676998352999,0.39974317,10.0,433148044113000,5.8043795,Bike
Fix,FLP,37.4215839,-122.158648,7.313689785341189,1.391666,10.098,311.96863,1676998355677,,,433148126582114,1.9892697,Bike
Fix,FLP,37.4216067,-122.1586684,7.140928866508709,1.6642119,11.257,329.37335,1676998356220,,,433148669072715,1.9683379,Bike
Fix,GPS,37.4216460899,-122.1587133268,-1.9937493992211408,2.461542,7.5909996,4.8100667,1676998353999,0.34041306,10.0,433149043882000,5.7576356,Bike
Fix,FLP,37.4216118,-122.1586783,-1.6677363931701308,1.7050651,11.278,328.38943,1676998356762,,,433149211554343,1.9742403,Bike
Fix,FLP,37.4216336,-122.1586894,-1.6677363931701308,1.9462202,12.311,347.70135,1676998357305,,,433149754059286,1.9742403,Bike
Fix,GPS,37.4216641602,-122.1587291333,-2.7787835390562474,2.9109585,6.820306,355.5184,1676998354999,0.319927,10.0,433150044213000,5.7221723,Bike
Fix,GPS,37.4216917639,-122.158738272,-1.7809771617939254,3.2711241,6.368148,338.6906,1676998355999,0.4339444,10.0,433151043878000,5.7184715,Bike
Fix,FLP,37.4216605,-122.1587021,-1.6677363931701308,2.39921,12.62,351.5601,1676998358389,,,433150839043418,1.9967787,Bike
Fix,GPS,37.4217243623,-122.1587693403,-2.037958516261308,4.526624,6.143916,322.3731,1676998356999,0.3699362,10.0,433152043867000,5.70248,Bike
Fix,FLP,37.4216874,-122.1587214,11.83502473106426,2.723134,12.728,342.63516,1676998359465,,,433151914572043,2.0073578,Bike
Fix,FLP,37.4217187,-122.1587518,11.83502473106426,3.1572664,12.055,329.35007,1676998360560,,,433153009014060,2.0073578,Bike
Fix,NLP,37.4216617,-122.1588542,-8.600000381469727,,18.844,,1676998360591,,,433153040000000,1.0,Bike
Fix,GPS,37.4217545913,-122.1588168223,-2.7653834251719345,5.013036,6.013039,313.362,1676998357999,0.35291567,10.0,433153043903000,5.7022862,Bike
Fix,FLP,37.4217493,-122.1587958,16.39694448878729,3.8357813,11.411,318.3916,1676998361102,,,433153551506797,1.9589279,Bike
Fix,GPS,37.4217813282,-122.1588696958,-3.2544491849221533,5.135748,5.847866,311.32837,1676998358999,0.31853184,10.0,433154043859000,5.660756,Bike
Fix,FLP,37.4217639,-122.1588309,18.101635674902557,4.887706,10.947,312.05035,1676998361594,0.31853184,10.0,433154043859000,1.9699789,Bike
Fix,GPS,37.4218122338,-122.1589184756,-3.629651692255355,5.2544293,5.6887817,308.19516,1676998359999,0.38491514,10.0,433155043899000,5.605531,Bike
Fix,FLP,37.4218013,-122.1588928,23.941501367794157,5.1779256,10.462,309.05377,1676998362594,0.38491514,10.0,433155043899000,1.9789733,Bike
Fix,GPS,37.4218429842,-122.1589758128,-3.833124065130159,5.710577,5.299812,309.154,1676998360999,0.31992662,10.0,433156043913000,5.4649706,Bike
Fix,FLP,37.4218368,-122.1589561,25.204456084322587,5.559562,9.335,308.83856,1676998363594,0.31992662,10.0,433156043913000,1.9889534,Bike
Fix,GPS,37.4218757491,-122.1590327504,-3.463993727082036,5.489376,5.0883512,309.02158,1676998361999,0.32486928,10.0,433157043919000,5.417419,Bike
Fix,FLP,37.4218717,-122.159018,12.876405226365009,5.5234833,8.377,308.94278,1676998364594,0.32486928,10.0,433157043919000,1.9989389,Bike
Fix,GPS,37.4219074453,-122.1590852874,-3.452158592443047,5.8021483,5.0409927,308.59418,1676998362999,0.3472932,10.0,433158043947000,5.37963,Bike
Fix,FLP,37.4219051,-122.1590757,18.57886728422365,5.7240705,6.834,308.1967,1676998365594,0.3472932,10.0,433158043947000,2.008949,Bike
Fix,GPS,37.4219402435,-122.1591403611,-3.8301249101934154,5.813736,5.329359,310.35046,1676998363999,0.4532233,10.0,433159043965000,5.430539,Bike
Fix,FLP,37.4219387,-122.1591326,18.943857438071294,5.7867265,5.289,309.34198,1676998366594,0.4532233,10.0,433159043965000,2.018959,Bike
Fix,GPS,37.4219721808,-122.1591923963,-4.493866831898001,6.1245313,5.478697,309.81094,1676998364999,0.36478978,10.0,433160044176000,5.4406834,Bike
Fix,FLP,37.4219722,-122.1591876,18.943857438071294,6.014355,5.247,308.99362,1676998367595,0.36478978,10.0,433160044176000,2.028949,Bike
Fix,GPS,37.4220068935,-122.1592451516,-4.2899465042181415,6.13255,5.5339403,313.33817,1676998365999,0.3515678,10.0,433161043993000,5.4759164,Bike
Fix,FLP,37.4220071,-122.1592423,15.486310791253082,6.088934,5.294,311.60953,1676998368594,0.3515678,10.0,433161043993000,2.038969,Bike
Fix,GPS,37.4220468649,-122.1592962763,-4.015958561862817,5.9514103,5.6359034,315.76678,1676998366999,0.32819432,10.0,433162043989000,5.481382,Bike
Fix,FLP,37.4220452,-122.1592943,18.38971426113472,5.99895,5.403,313.8637,1676998369594,0.32819432,10.0,433162043989000,2.048949,Bike
Fix,GPS,37.422088198,-122.1593376687,-3.650850188757626,6.4464703,5.628866,317.76538,1676998367999,0.31068593,10.0,433163043994000,5.48441,Bike
Fix,FLP,37.4220858,-122.159341,15.486310791253082,6.286178,5.521,316.01413,1676998370594,0.31068593,10.0,433163043994000,2.058929,Bike
Fix,GPS,37.4221326942,-122.1593868163,-3.5132588790353263,6.504899,5.531063,316.8646,1676998368999,0.3471334,10.0,433164044179000,5.4828033,Bike
Fix,FLP,37.4221294,-122.1593892,18.38971426113472,6.4264483,5.561,316.06375,1676998371595,0.3471334,10.0,433164044179000,2.068949,Bike
Fix,GPS,37.422172535,-122.159436209,-3.2394564434800386,6.206605,5.5247803,318.3644,1676998369999,0.34225202,10.0,433165044145000,5.485703,Bike
Fix,FLP,37.4221717,-122.1594376,11.17942549524993,6.284036,5.555,317.305,1676998372595,0.34225202,10.0,433165044145000,2.078969,Bike
Fix,GPS,37.4222147281,-122.1594849633,-2.820993509371877,6.318816,5.468953,320.7365,1676998370999,0.33148158,10.0,433166044025000,5.504313,Bike
Fix,FLP,37.4222142,-122.1594851,11.17942549524993,6.3139257,5.558,319.0604,1676998373595,0.33148158,10.0,433166044025000,2.088929,Bike
Fix,GPS,37.4222592674,-122.1595330728,-2.5517709268933757,6.455111,5.542839,316.892,1676998371999,0.37102303,10.0,433167044036000,5.540614,Bike
Fix,FLP,37.4222579,-122.1595331,11.17942549524993,6.403295,5.539,317.11508,1676998374595,0.37102303,10.0,433167044036000,2.098929,Bike
Fix,GPS,37.4223034841,-122.1595825964,-2.3584659485226704,6.376738,5.6788263,318.25854,1676998372999,0.37103468,10.0,433168044077000,5.6042852,Bike
Fix,FLP,37.4223016,-122.1595824,11.17942549524993,6.3898263,5.549,317.69217,1676998375595,0.37103468,10.0,433168044077000,2.108929,Bike
Fix,GPS,37.4223462888,-122.1596296483,-2.167806487743671,6.5541015,5.712104,318.44193,1676998373999,0.32598284,10.0,433169044093000,5.621599,Bike
Fix,FLP,37.4223453,-122.1596306,10.469079654490187,6.4952173,5.576,317.93015,1676998376595,0.32598284,10.0,433169044093000,2.118939,Bike
Fix,GPS,37.4223913214,-122.1596741469,-1.843036061135808,6.4807496,5.673828,318.85513,1676998374999,0.36589697,10.0,433170044127000,5.6424527,Bike
Fix,FLP,37.4223898,-122.1596774,15.655413740141618,6.484559,5.6,318.01657,1676998377595,0.36589697,10.0,433170044127000,2.128939,Bike
Fix,GPS,37.4224363667,-122.1597208321,-1.561216691818096,6.5173073,5.6526136,320.61554,1676998375999,0.30477723,10.0,433171044184000,5.649554,Bike
Fix,FLP,37.4224348,-122.1597238,10.25757508613971,6.5102386,5.652,319.3369,1676998378595,0.30477723,10.0,433171044184000,2.138949,Bike
Fix,GPS,37.4224836722,-122.1597700924,-1.4326696529047962,6.33971,5.7535524,320.43536,1676998376999,0.30304334,10.0,433172044164000,5.6719246,Bike
Fix,FLP,37.422481,-122.1597708,17.47784078091128,6.401655,5.694,319.75082,1676998379595,0.30304334,10.0,433172044164000,2.148959,Bike
Fix,GPS,37.4225282197,-122.159821231,-1.393476783372042,6.595621,5.829642,320.20282,1676998377999,0.26794663,10.0,433173044512000,5.6601276,Bike
Fix,FLP,37.4225265,-122.1598193,2.5082767904779786,6.5302005,5.724,319.9498,1676998380595,0.26794663,10.0,433173044512000,2.158949,Bike
Fix,GPS,37.4225761124,-122.1598729209,-1.218670802156541,6.177081,5.8626213,320.72168,1676998378999,0.32221803,10.0,433174044262000,5.6643405,Bike
Fix,FLP,37.422573,-122.1598689,17.766410675664375,6.3009605,5.754,319.89114,1676998381595,0.32221803,10.0,433174044262000,2.168959,Bike
Fix,GPS,37.4226204015,-122.1599144994,-1.088073423072646,6.4569163,5.778265,318.48114,1676998379999,0.31182903,10.0,433175044368000,5.672516,Bike
Fix,FLP,37.422618,-122.1599153,8.666595338550025,6.3990717,5.775,318.715,1676998382595,0.31182903,10.0,433175044368000,2.178959,Bike
Fix,GPS,37.4226645808,-122.1599612474,-1.3431834627635275,6.4030013,5.6611443,318.9684,1676998380999,0.30838287,10.0,433176044263000,5.655806,Bike
Fix,FLP,37.4226627,-122.1599624,8.666595338550025,6.401165,5.777,318.28046,1676998383595,0.30838287,10.0,433176044263000,2.1889489,Bike
Fix,GPS,37.4227080355,-122.1600106886,-1.3931744528695138,6.393333,5.7442827,318.74576,1676998381999,0.35411185,10.0,433177044219000,5.6561794,Bike
Fix,FLP,37.4227066,-122.1600107,-1.4713606391847946,6.397026,5.775,318.1111,1676998384595,0.35411185,10.0,433177044219000,2.231136,Bike
Fix,GPS,37.4227489455,-122.1600614732,-1.148428630291478,6.1624894,5.866523,317.4152,1676998382999,0.32719815,10.0,433178044228000,5.636881,Bike
Fix,FLP,37.4227488,-122.16006,6.334689508538439,6.2419486,5.79,317.35785,1676998385595,0.32719815,10.0,433178044228000,2.241136,Bike
Fix,GPS,37.4227930544,-122.1601079893,-1.3348993976619632,6.382315,5.9906597,319.1742,1676998383999,0.37241793,10.0,433179044262000,5.59949,Bike
Fix,FLP,37.4227917,-122.1601078,1.77052129863079,6.336584,5.817,318.4461,1676998386595,0.37241793,10.0,433179044262000,2.251146,Bike
Fix,GPS,37.4228385937,-122.1601587861,-1.814892598091552,6.3382964,6.0510683,319.66495,1676998384999,0.41151208,10.0,433180044688000,5.593454,Bike
Fix,FLP,37.4228361,-122.1601567,-1.4115264948956463,6.3426113,5.862,318.79938,1676998387594,0.41151208,10.0,433180044688000,2.262136,Bike
Fix,GPS,37.4228803853,-122.1602084086,-1.8419746924197136,6.4723086,6.1003437,317.65268,1676998385999,0.35698077,10.0,433181044329000,5.6246715,Bike
Fix,FLP,37.4228795,-122.1602063,10.837304834350114,6.4258213,5.95,317.64194,1676998388595,0.35698077,10.0,433181044329000,2.238949,Bike
Fix,GPS,37.4229230629,-122.1602591327,-1.824615465120172,6.574598,6.1449323,320.00815,1676998386999,0.3340696,10.0,433182044347000,5.6365457,Bike
Fix,FLP,37.4229231,-122.1602567,11.03806857353232,6.529882,6.03,319.16354,1676998389595,0.3340696,10.0,433182044347000,2.248959,Bike
Fix,FLP,37.4229676,-122.1603054,5.070456270779658,6.509687,6.073,319.05096,1676998390595,0.31001505,10.0,433183044282000,2.258929,Bike
Fix,GPS,37.4229678567,-122.1603058963,-1.7581983262833534,6.4981227,6.0777674,319.38947,1676998387999,0.31001505,10.0,433183044282000,5.638153,Bike
Fix,GPS,37.4230132992,-122.1603576169,-1.6964832373552752,6.5350385,6.2472534,320.40533,1676998388999,0.44809052,10.0,433184044336000,5.689178,Bike
Fix,FLP,37.4230126,-122.1603551,-15.245972059151242,6.5304728,6.124,319.62854,1676998391595,0.44809052,10.0,433184044336000,2.268949,Bike
Fix,GPS,37.4230506213,-122.1604133653,-2.0460761270138854,6.262131,6.251485,320.85474,1676998389999,0.42970425,10.0,433185044392000,5.698259,Bike
Fix,FLP,37.4230544,-122.1604067,-15.245972059151242,6.358864,6.145,319.72955,1676998392595,0.42970425,10.0,433185044392000,2.278959,Bike
Fix,GPS,37.4230865649,-122.1604676589,-1.971936904467229,6.174413,5.739507,316.307,1676998390999,0.053298526,10.0,433186044399000,5.27007,Bike
Fix,FLP,37.423091,-122.1604622,-13.619654996899303,6.178713,6.092,316.09436,1676998393595,0.053298526,10.0,433186044399000,2.288939,Bike
Fix,GPS,37.4231250497,-122.160516064,-1.9189468054093195,5.9836955,5.9030657,312.9304,1676998391999,0.38439912,10.0,433187044332000,5.2724376,Bike
Fix,FLP,37.4231272,-122.1605141,-10.752285759236148,5.9896326,6.06,312.12054,1676998394595,0.38439912,10.0,433187044332000,2.298929,Bike
Fix,NLP,37.4228674,-122.1605473,-7.299999713897705,,16.847,,1676998394488,,,433186937000000,1.5024326,Bike
Fix,GPS,37.4231576293,-122.160566907,-1.7839508132359267,5.619336,6.08257,317.62198,1676998392999,0.3953957,10.0,433188044370000,5.284053,Bike
Fix,FLP,37.4231612,-122.1605684,-7.299999713897705,5.627814,6.021,316.87173,1676998395595,0.3953957,10.0,433188044370000,1.904359,Bike
Fix,GPS,37.4231788907,-122.1606155024,-1.813524352773953,5.2822347,5.485671,312.33667,1676998393999,0.060331296,10.0,433189044372000,5.086481,Bike
Fix,FLP,37.4231854,-122.1606143,-7.299999713897705,5.2891583,5.894,312.10413,1676998396595,0.060331296,10.0,433189044372000,1.9153389,Bike
Fix,GPS,37.4232046857,-122.1606597354,-1.5935864167344973,4.384701,5.618632,294.5485,1676998394999,0.29933697,10.0,433190044414000,5.062531,Bike
Fix,FLP,37.4232091,-122.1606594,-8.600000381469727,4.400706,5.789,294.48422,1676998397595,0.29933697,10.0,433190044414000,1.924379,Bike
Fix,GPS,37.423212975,-122.1607028501,-1.9524721856237632,3.138801,5.495272,265.57047,1676998395999,0.34217122,10.0,433191044476000,5.0787816,Bike
Fix,FLP,37.4232136,-122.1606917,-10.49472497981318,3.1555047,5.729,267.46667,1676998398595,0.34217122,10.0,433191044476000,1.9279636,Bike
Fix,GPS,37.4232026559,-122.1607389063,-2.589872594466295,3.4089448,5.765973,233.64313,1676998396999,0.36537132,10.0,433192044464000,5.1719847,Bike
Fix,FLP,37.4232093,-122.1607214,-8.600000381469727,3.211108,5.632,248.30507,1676998399595,0.36537132,10.0,433192044464000,1.9379536,Bike
Fix,GPS,37.4231753842,-122.1607704815,-1.872986212589979,3.8026798,5.825822,208.13539,1676998397999,0.39556426,10.0,433193044805000,5.289344,Bike
Fix,FLP,37.4231909,-122.1607545,0.4654068269242373,3.656817,5.633,220.7875,1676998400595,0.39556426,10.0,433193044805000,1.9479536,Bike
Fix,GPS,37.4231431168,-122.1607881732,-2.379432970456243,4.1963987,6.4729013,201.67036,1676998398999,0.46676826,10.0,433194044523000,5.541764,Bike
Fix,FLP,37.4231591,-122.16078,10.462086958524369,4.1610527,5.747,201.89767,1676998401595,0.46676826,10.0,433194044523000,1.9579636,Bike
Fix,GPS,37.4230885745,-122.1608156049,-3.466318890553515,4.7279224,6.176402,208.37743,1676998399999,0.39486235,10.0,433195044606000,5.5243874,Bike
Fix,FLP,37.4231128,-122.1608034,14.647599249169303,4.67661,5.846,207.20938,1676998402595,0.39486235,10.0,433195044606000,1.9689636,Bike
Fix,GPS,37.4230385257,-122.1608475586,-4.335128238961945,5.2596164,6.0619545,209.02785,1676998400999,0.3289637,10.0,433196044769000,5.52236,Bike
Fix,FLP,37.4230579,-122.1608364,14.726504095791384,5.2353745,5.932,208.84193,1676998403595,0.3289637,10.0,433196044769000,1.9779636,Bike
Fix,NLP,37.4228072,-122.1607231,-6.599999904632568,,21.097,,1676998403917,,,433196366000000,2.0567267,Bike
Fix,FLP,37.42304,-122.1608461,14.553743176958903,4.99681,7.933,214.26541,1676998403917,,,433196366000000,1.9221671,Bike
Fix,FLP,37.4230074,-122.1608685,14.553743176958903,4.999528,10.252,214.0974,1676998404511,,,433196960553183,1.9221671,Bike
Fix,GPS,37.4229866887,-122.1608813571,-3.724300969828199,5.106468,5.927755,217.73047,1676998401999,0.28254056,10.0,433197044671000,5.495428,Bike
Fix,FLP,37.4229958,-122.1608758,13.130494899856352,5.103667,9.964,216.92186,1676998404595,0.28254056,10.0,433197044671000,1.9288672,Bike
Fix,GPS,37.4229410049,-122.1609174003,-3.003208355800046,5.13074,5.7627172,219.96404,1676998402999,0.32682258,10.0,433198044756000,5.4668055,Bike
Fix,FLP,37.4229477,-122.1609149,16.751077837354195,5.1299124,10.283,218.95384,1676998405595,0.32682258,10.0,433198044756000,1.9398774,Bike
Fix,GPS,37.4228989443,-122.1609528817,-3.210274604011087,4.9837675,5.7949767,217.26938,1676998403999,0.32379186,10.0,433199044586000,5.44878,Bike
Fix,FLP,37.4229037,-122.1609523,18.220556606056164,4.9873233,12.004,217.04732,1676998406595,0.32379186,10.0,433199044586000,1.9488473,Bike
Fix,GPS,37.4228562658,-122.1609863549,-2.758700566857605,5.0263658,5.6916885,213.6575,1676998404999,0.3054564,10.0,433200044675000,5.5228176,Bike
Fix,FLP,37.4228604,-122.1609864,2.013533506696511,5.0275817,12.565,213.08553,1676998407595,0.3054564,10.0,433200044675000,1.9588573,Bike
Fix,GPS,37.4228153921,-122.1610150101,-2.4695759910512383,4.9420996,5.6198487,210.01468,1676998405999,0.35931587,10.0,433201044578000,5.5584955,Bike
Fix,FLP,37.4228193,-122.1610173,-3.4430934360238297,5.0309243,12.892,213.05571,1676998408595,,,433201044578000,1.9688672,Bike
Fix,NLP,37.4227284,-122.160915,-6.599999904632568,,12.226,,1676998408892,,,433201341000000,1.0,Bike
Fix,FLP,37.4228124,-122.1610187,-3.705888228424776,4.9387074,10.14,210.0139,1676998408892,0.35931587,10.0,433201341000000,1.8719062,Bike
Fix,FLP,37.4227976,-122.1610294,-3.705888228424776,4.924966,10.026,209.95471,1676998409139,,,433201589912131,1.8719062,Bike
Fix,GPS,37.4227782901,-122.1610415898,-2.4749105202717523,4.3792005,5.698748,212.73843,1676998406999,0.345799,10.0,433202044640000,5.561856,Bike
Fix,FLP,37.4227981,-122.1610292,-6.599999904632568,4.826964,9.968,209.93451,1676998409683,,,433202132413840,1.7259628,Bike
Fix,GPS,37.4227606977,-122.1610693185,-1.8590045850205372,3.66478,5.2279787,230.47949,1676998407999,0.048162203,10.0,433203044675000,5.251739,Bike
Fix,FLP,37.4227627,-122.1610573,-6.599999904632568,4.428364,7.544,217.0454,1676998410768,,,433203217417380,1.7359927,Bike
Fix,GPS,37.4227432227,-122.1610997868,-2.0237022530790685,2.8616805,5.3511863,263.78912,1676998408999,0.2854032,10.0,433204044748000,5.1785517,Bike
Fix,FLP,37.4227421,-122.1610921,-6.599999904632568,3.7600276,8.174,235.0888,1676998411310,,,433203759918845,1.7359927,Bike
Fix,GPS,37.4227551809,-122.1611323028,-2.4096809167686213,2.8096967,4.8311296,296.37744,1676998409999,0.031759687,10.0,433205044767000,4.9868226,Bike
Fix,FLP,37.4227367,-122.1611264,-6.599999904632568,2.8288302,8.617,273.67035,1676998412395,,,433204844920615,1.6409569,Bike
Fix,GPS,37.4227767721,-122.1611590768,-2.809341299024003,2.8220375,4.523226,309.90042,1676998410999,0.049728792,10.0,433206044639000,4.8716903,Bike
Fix,FLP,37.4227589,-122.161156,-6.599999904632568,2.7541656,8.496,317.94812,1676998413480,,,433205929921836,1.650937,Bike
Fix,FLP,37.4227746,-122.1611656,-6.599999904632568,2.816139,8.858,313.61707,1676998414030,,,433206479000000,1.650937,Bike
Fix,FLP,37.4227903,-122.1611812,-6.599999904632568,2.825564,8.552,313.56354,1676998414565,,,433207014922568,1.6609769,Bike
Fix,GPS,37.4228008522,-122.1611969019,-2.366421684579233,3.832473,4.2595625,307.67694,1676998411999,0.048305854,10.0,433207044940000,4.734708,Bike
Fix,FLP,37.4228065,-122.1612072,-6.599999904632568,3.7020407,8.256,294.85324,1676998415108,,,433207557422324,1.6609769,Bike
Fix,GPS,37.4228287387,-122.1612358858,-1.6042270365560023,4.4798617,4.1357393,306.7237,1676998412999,0.035623882,10.0,433208044976000,4.6042023,Bike
Fix,FLP,37.422811,-122.1612223,11.74195451875024,3.8048255,7.958,293.58832,1676998415650,,,433208099910117,1.671927,Bike
Fix,FLP,37.4228303,-122.1612508,11.74195451875024,4.2668104,7.911,305.58276,1676998416192,,,433208642422568,1.671927,Bike
Fix,GPS,37.4228590182,-122.1612813454,-1.6150819372198515,4.754621,4.5366893,300.6878,1676998413999,0.29705793,10.0,433209044745000,4.6738167,Bike
Fix,FLP,37.422844,-122.1612677,22.029729582246027,4.440397,7.891,305.41513,1676998416734,,,433209184923056,1.3794894,Bike
Fix,GPS,37.4228812641,-122.1613297379,-2.0846088307778725,4.620534,4.753726,291.58658,1676998414999,0.43936378,5.8817363,433210044863000,4.724636,Bike
Fix,FLP,37.4228663,-122.161306,14.019754891608857,4.7993636,7.529,292.23026,1676998417278,,,433209727422506,1.3894994,Bike
Fix,FLP,37.4228762,-122.1613276,14.019754891608857,4.710249,7.616,290.60553,1676998417820,,,433210269922873,1.3894994,Bike
Fix,FLP,37.4228876,-122.1613656,14.019754891608857,4.667897,7.675,282.08844,1676998418363,,,433210812422385,1.3894994,Bike
Fix,GPS,37.4228918595,-122.1613803023,-2.6034700937423536,4.8671536,4.823392,283.5601,1676998415999,0.41803783,5.119688,433211044743000,4.733312,Bike
Fix,FLP,37.4228975,-122.161412,12.26122146313636,4.7866793,7.831,285.80225,1676998419424,,,433211873000000,1.3994894,Bike
Fix,GPS,37.4229024583,-122.1614407471,-2.884146615973979,5.4998527,4.820142,292.2443,1676998416999,0.40177163,4.3840666,433212044882000,4.777341,Bike
Fix,FLP,37.4229018,-122.1614329,18.07966053822465,5.485487,7.599,291.9393,1676998419595,0.40177163,4.3840666,433212044882000,1.4095094,Bike
Fix,GPS,37.4229191531,-122.1615083256,-2.7364580135949828,5.8264794,4.8926973,296.4054,1676998417999,0.386634,3.7687216,433213044805000,4.882238,Bike
Fix,FLP,37.4229196,-122.1615025,18.07966053822465,5.82404,7.425,295.97308,1676998420595,0.386634,3.7687216,433213044805000,1.4194894,Bike
Fix,GPS,37.42293689,-122.1615724961,-2.765615570147232,5.3579054,4.855528,294.956,1676998418999,0.36160287,3.7546089,433214044920000,4.967933,Bike
Fix,FLP,37.4229387,-122.1615691,6.670972709131732,5.36073,7.121,294.01205,1676998421595,0.36160287,3.7546089,433214044920000,1.4294795,Bike
Fix,GPS,37.4229518458,-122.1616357793,-2.521878515723667,5.904133,4.9295034,290.88486,1676998419999,0.36470118,3.5720744,433215044871000,5.0880375,Bike
Fix,FLP,37.4229539,-122.1616322,9.635627756802528,5.9006314,6.702,290.02295,1676998422595,0.36470118,3.5720744,433215044871000,1.4394894,Bike
Fix,GPS,37.4229689518,-122.1617059631,-1.9789441933375904,6.5044856,4.8733025,289.82065,1676998420999,0.35546696,3.0735939,433216044836000,5.098194,Bike
Fix,FLP,37.42297,-122.1617025,12.851285694488752,6.5008936,5.905,289.00555,1676998423595,0.35546696,3.0735939,433216044836000,1.4494994,Bike
Fix,GPS,37.4229871013,-122.1617809105,-1.6072076291040562,6.69774,4.8343225,291.98566,1676998421999,0.36913043,3.1088798,433217044843000,5.128652,Bike
Fix,FLP,37.4229877,-122.1617781,9.709872664319072,6.696476,4.867,290.98776,1676998424595,0.36913043,3.1088798,433217044843000,1.4594795,Bike
Fix,GPS,37.423007864,-122.1618544749,-1.2480319162599078,6.462199,4.8574038,292.20776,1676998422999,0.37513152,3.2965531,433218045190000,5.23223,Bike
Fix,FLP,37.4230084,-122.1618527,12.851285694488752,6.4637637,4.87,291.99295,1676998425596,0.37513152,3.2965531,433218045190000,1.4694794,Bike
Fix,GPS,37.4230273903,-122.1619222015,-1.1779889114027322,6.135505,4.7183743,291.0621,1676998423999,0.34364855,3.2243178,433219044885000,5.1915083,Bike
Fix,FLP,37.4230283,-122.1619217,9.769269059839251,6.1373477,4.844,291.0059,1676998426595,0.34364855,3.2243178,433219044885000,1.4794794,Bike
Fix,GPS,37.4230421215,-122.1619895088,-1.3921219375408307,6.148887,4.6610856,288.2949,1676998424999,0.3403842,3.210612,433220044943000,5.237782,Bike
Fix,FLP,37.423044,-122.1619886,16.589315943152343,6.148788,4.788,288.01672,1676998427595,0.3403842,3.210612,433220044943000,1.4894794,Bike
Fix,GPS,37.4230552294,-122.1620566398,-1.6973683188223154,5.9128,4.698173,289.1143,1676998425999,0.3557153,3.487255,433221044947000,5.2907352,Bike
Fix,FLP,37.4230571,-122.162056,9.769269059839251,5.914215,4.753,288.99368,1676998428595,0.3557153,3.487255,433221044947000,1.4995195,Bike
Fix,GPS,37.4230680411,-122.1621248679,-2.065459343304492,5.6483016,4.779882,287.42447,1676998426999,0.36283547,3.695584,433222044984000,5.3492117,Bike
Fix,FLP,37.4230701,-122.1621231,15.634669973407531,5.6499524,4.742,287.01297,1676998429595,0.36283547,3.695584,433222044984000,1.5094894,Bike
Fix,GPS,37.423079998,-122.1621914806,-2.0772019628817806,5.623454,4.801421,288.9828,1676998427999,0.3642932,3.731857,433223044941000,5.405596,Bike
Fix,FLP,37.4230816,-122.1621892,5.355615273255573,5.623625,4.752,287.99353,1676998430595,0.3642932,3.731857,433223044941000,1.5194894,Bike
Fix,GPS,37.4230941882,-122.1622560744,-2.4943500134510312,5.4989867,4.891041,289.1862,1676998428999,0.38710675,4.1157494,433224044939000,5.3973947,Bike
Fix,FLP,37.4230952,-122.1622541,10.735031083068556,5.499878,4.766,288.99237,1676998431595,0.38710675,4.1157494,433224044939000,1.5294794,Bike
Fix,GPS,37.4231058956,-122.1623196724,-2.7133650918508594,5.8026133,4.867673,289.4009,1676998429999,0.36921394,3.6874838,433225045174000,5.365005,Bike
Fix,FLP,37.4231076,-122.1623176,10.735031083068556,5.8006573,4.807,288.99963,1676998432596,0.36921394,3.6874838,433225045174000,1.5394994,Bike
Fix,GPS,37.4231202995,-122.1623849344,-2.8617121881496157,5.8755975,4.9058084,288.94464,1676998430999,0.36296624,3.5544088,433226044996000,5.463359,Bike
Fix,FLP,37.4231217,-122.1623832,15.080789019040369,5.8751307,4.849,288.00607,1676998433595,0.36296624,3.5544088,433226044996000,1.5494894,Bike
Fix,GPS,37.4231342057,-122.1624516883,-2.496001067437541,5.9275856,4.827817,289.6879,1676998431999,0.3495914,3.4430764,433227044987000,5.445449,Bike
Fix,FLP,37.4231354,-122.16245,12.755499898249935,5.9272747,4.858,288.99396,1676998434595,0.3495914,3.4430764,433227044987000,1.5594894,Bike
Fix,GPS,37.4231514798,-122.1625194136,-2.3838904624699286,5.8189387,4.917763,288.98746,1676998432999,0.3467249,3.4428828,433228045039000,5.443423,Bike
Fix,FLP,37.4231519,-122.1625175,15.121778040448874,5.819566,4.882,288.00583,1676998435596,0.3467249,3.4428828,433228045039000,1.5694795,Bike
Fix,GPS,37.4231662262,-122.1625883429,-2.394495374992368,5.8988447,4.966673,288.44064,1676998433999,0.36878198,3.617457,433229045009000,5.475036,Bike
Fix,FLP,37.4231668,-122.1625857,12.782135411789952,5.8983445,4.897,287.9999,1676998436596,0.36878198,3.617457,433229045009000,1.5794994,Bike
Fix,GPS,37.4231815117,-122.1626609363,-2.618750079064148,6.1109996,4.9105797,287.9528,1676998434999,0.35650218,3.3704183,433230045041000,5.517334,Bike
Fix,FLP,37.423182,-122.1626572,19.398537384022,6.1097317,4.899,287.00574,1676998437596,0.35650218,3.3704183,433230045041000,1.5894895,Bike
Fix,GPS,37.4231963581,-122.162734171,-2.963640279142824,6.314045,4.848907,288.417,1676998435999,0.34732556,3.186837,433231045121000,5.465793,Bike
Fix,FLP,37.423197,-122.1627307,12.782135411789952,6.3128786,4.894,287.99423,1676998438595,0.34732556,3.186837,433231045121000,1.5994895,Bike
Fix,GPS,37.4232106302,-122.1628083002,-2.9114314500266456,6.1261363,4.849405,288.91666,1676998436999,0.34249097,3.2281494,433232045071000,5.4402194,Bike
Fix,FLP,37.4232119,-122.1628052,16.628774913668728,6.127194,4.898,287.99988,1676998439596,0.34249097,3.2281494,433232045071000,1.6094894,Bike
Fix,GPS,37.4232250139,-122.1628809475,-2.8579298180742625,6.151586,4.8408093,288.61554,1676998437999,0.3447381,3.2644556,433233045101000,5.4173074,Bike
Fix,FLP,37.4232262,-122.1628778,10.762702702669529,6.15146,4.883,287.99988,1676998440596,0.3447381,3.2644556,433233045101000,1.9209269,Bike
Fix,GPS,37.4232347593,-122.1629556488,-2.6107324651987467,5.9748154,4.8317285,288.3915,1676998438999,0.33487576,3.2310722,433234045410000,5.379958,Bike
Fix,FLP,37.4232375,-122.1629519,14.439580911128694,5.9757714,4.856,287.99982,1676998441596,0.33487576,3.2310722,433234045410000,1.9309269,Bike
Fix,GPS,37.4232425771,-122.163027152,-2.5375361456361425,6.108374,4.8416395,285.63867,1676998439999,0.3566982,3.403545,433235045424000,5.393409,Bike
Fix,FLP,37.4232463,-122.1630237,8.58898471919003,6.107545,4.842,285.01794,1676998442596,0.3566982,3.403545,433235045424000,1.9409269,Bike
Fix,GPS,37.4232505766,-122.1630989364,-2.218391344430941,5.9353876,4.9438186,282.29468,1676998440999,0.38629866,3.847706,433236045097000,5.454656,Bike
Fix,FLP,37.4232538,-122.1630962,11.765515321842416,5.9365935,4.859,282.02307,1676998443596,0.38629866,3.847706,433236045097000,1.9509269,Bike
Fix,NLP,37.4232719,-122.163126,-5.599999904632568,,23.6,,1676998443617,,,433236066000000,1.8153818,Bike
Fix,GPS,37.4232568609,-122.163170621,-1.7123857369683,6.0950823,4.982841,279.3056,1676998441999,0.39366704,3.8655028,433237045120000,5.5028024,Bike
Fix,FLP,37.4232592,-122.1631678,11.765515321842416,6.09396,4.918,279.0222,1676998444596,0.39366704,3.8655028,433237045120000,1.6065643,Bike
Fix,GPS,37.4232626382,-122.1632437502,-1.592657149305018,6.196691,5.0054264,277.8218,1676998442999,0.40415522,4.0426974,433238045132000,5.5092645,Bike
Fix,FLP,37.4232643,-122.1632413,11.765515321842416,6.195917,4.945,277.0175,1676998445595,0.40415522,4.0426974,433238045132000,1.6165936,Bike
Fix,GPS,37.4232695358,-122.1633171486,-1.2140784224883607,6.3234544,5.138047,283.02524,1676998443999,0.45034617,4.283146,433239045145000,5.537125,Bike
Fix,FLP,37.42327,-122.1633151,13.528152042335355,6.321798,4.973,282.93845,1676998446596,0.45034617,4.283146,433239045145000,1.6265643,Bike
Fix,GPS,37.4232859509,-122.1633823533,-1.9406559210546757,6.1212225,5.249563,288.80933,1676998444999,0.407581,3.9216714,433240045167000,5.564634,Bike
Fix,FLP,37.4232849,-122.1633832,11.06435343680522,6.1225576,5.033,287.95752,1676998447596,0.407581,3.9216714,433240045167000,1.6365644,Bike
Fix,GPS,37.4233041537,-122.1634457885,-2.1864317014303656,5.9191794,5.2532396,291.71768,1676998445999,0.39940378,3.9378526,433241045158000,5.691895,Bike
Fix,FLP,37.4233034,-122.1634469,11.06435343680522,5.9206343,5.116,290.97583,1676998448596,0.39940378,3.9378526,433241045158000,1.6465743,Bike
Fix,GPS,37.423321796,-122.1635060511,-1.913645092024172,5.998556,5.2292285,287.672,1676998446999,0.3804022,3.8674238,433242045187000,5.6970053,Bike
Fix,FLP,37.423322,-122.1635073,7.946961535200394,5.9979877,5.175,287.0297,1676998449596,0.3804022,3.8674238,433242045187000,1.6565644,Bike
Fix,GPS,37.4233232137,-122.1635808265,-3.331498804806869,5.976976,5.001774,283.33594,1676998447999,0.3468958,3.482731,433243045226000,5.6543117,Bike
Fix,FLP,37.4233278,-122.1635781,6.941530380427736,5.9770646,5.174,283.0246,1676998450596,0.3468958,3.482731,433243045226000,1.6665744,Bike
Fix,GPS,37.423326987,-122.1636550647,-3.161666345331149,6.006789,4.862873,280.34177,1676998448999,0.33288485,3.2707283,433244045510000,5.545503,Bike
Fix,FLP,37.4233311,-122.1636516,7.946961535200394,6.0066166,5.119,280.01642,1676998451596,0.33288485,3.2707283,433244045510000,1.6765743,Bike
Fix,GPS,37.4233321717,-122.1637303343,-2.611415591639596,6.147736,4.7808504,282.98914,1676998449999,0.3507213,3.3203537,433245045258000,5.470424,Bike
Fix,FLP,37.4233349,-122.1637265,7.946961535200394,6.1468954,5.025,281.98807,1676998452596,0.3507213,3.3203537,433245045258000,1.6865643,Bike
Fix,GPS,37.4233438091,-122.1638007735,-1.965291399555476,6.062744,4.696493,287.09164,1676998450999,0.3415387,3.2531486,433246045329000,5.3934712,Bike
Fix,FLP,37.4233446,-122.1637988,13.425692884091475,6.06308,4.914,286.9714,1676998453596,0.3415387,3.2531486,433246045329000,1.6965944,Bike
Fix,GPS,37.4233610511,-122.1638684099,-1.8858857012290404,5.9942336,4.6861253,288.99487,1676998451999,0.34369206,3.303396,433247045258000,5.338202,Bike
Fix,FLP,37.4233609,-122.1638672,11.870515351451296,5.994621,4.805,287.9941,1676998454596,0.34369206,3.303396,433247045258000,1.7065643,Bike
Fix,GPS,37.4233782995,-122.1639353548,-2.1769004603915407,6.0787964,4.716034,287.67053,1676998452999,0.34450182,3.2503405,433248045401000,5.3295126,Bike
Fix,FLP,37.4233781,-122.1639342,11.961174962794315,6.078323,4.748,287.00552,1676998455596,0.34450182,3.2503405,433248045401000,1.7165643,Bike
Fix,GPS,37.4233941549,-122.1640015124,-2.5498960616151862,5.998206,4.664206,284.23227,1676998453999,0.3360284,3.2453454,433249045451000,5.315573,Bike
Fix,FLP,37.4233942,-122.1640011,14.480056984658056,5.998603,4.734,284.0167,1676998456596,0.3360284,3.2453454,433249045451000,1.7265743,Bike
Fix,GPS,37.4234071689,-122.1640680033,-2.7395455969365097,5.798921,4.815308,283.5818,1676998454999,0.37941775,3.763878,433250045331000,5.368214,Bike
Fix,FLP,37.4234072,-122.1640677,11.961174962794315,5.8002844,4.715,283.00726,1676998457595,0.37941775,3.763878,433250045331000,1.7365643,Bike
Fix,GPS,37.4234184871,-122.1641323215,-2.7053417858098343,5.971048,4.9218006,283.63544,1676998455999,0.38380083,3.7592587,433251045552000,5.427677,Bike
Fix,FLP,37.4234186,-122.1641321,18.68396322076439,5.9698515,4.76,282.99994,1676998458596,0.38380083,3.7592587,433251045552000,1.7465743,Bike
Fix,GPS,37.4234308148,-122.1642029407,-2.908656199690125,6.1483793,4.9594307,284.2362,1676998456999,0.33197692,3.1082642,433252045369000,5.40998,Bike
Fix,FLP,37.4234308,-122.1642013,12.33099429734166,6.147447,4.815,283.99484,1676998459596,0.33197692,3.1082642,433252045369000,1.7565643,Bike
Fix,GPS,37.4234451792,-122.1642746063,-2.7938101737997734,6.1572127,4.845601,285.49057,1676998457999,0.34395733,3.2090187,433253045358000,5.397018,Bike
Fix,FLP,37.4234449,-122.1642728,14.034318505275934,6.157161,4.82,284.99432,1676998460596,0.34395733,3.2090187,433253045358000,1.7665644,Bike
Fix,GPS,37.4234600619,-122.1643455657,-2.491315784461008,6.1574936,4.7386827,285.4445,1676998458999,0.3500523,3.266947,433254045730000,5.365631,Bike
Fix,FLP,37.4234598,-122.1643439,14.034318505275934,6.157501,4.856,284.99997,1676998461596,0.3500523,3.266947,433254045730000,1.7765644,Bike
Fix,GPS,37.4234747897,-122.1644149797,-2.156425067778233,6.0005865,4.711816,286.77615,1676998459999,0.34399396,3.252887,433255045419000,5.347387,Bike
Fix,FLP,37.4234746,-122.1644138,19.338593390029985,6.0014715,4.835,285.9943,1676998462596,0.34399396,3.252887,433255045419000,1.7865744,Bike
Fix,GPS,37.4234893788,-122.1644798406,-2.1808029727790967,5.8253255,4.676934,283.78827,1676998460999,0.34144425,3.3769155,433256045824000,5.3013473,Bike
Fix,FLP,37.4234894,-122.1644796,19.338593390029985,5.8262625,4.786,283.01727,1676998463596,0.34144425,3.3769155,433256045824000,1.7965643,Bike
Fix,GPS,37.4234991567,-122.1645452985,-2.00600585743508,5.820351,4.6566644,281.77768,1676998461999,0.3453396,3.4995537,433257045936000,5.2598176,Bike
Fix,FLP,37.4234998,-122.1645449,19.82306260843299,5.820378,4.726,281.01202,1676998464595,0.3453396,3.4995537,433257045936000,1.8065844,Bike
Fix,GPS,37.4235097466,-122.1646085458,-2.098810503980328,5.685399,4.6861634,285.5502,1676998462999,0.34199703,3.5080457,433258045546000,5.2563567,Bike
Fix,FLP,37.4235098,-122.1646088,18.56965164018409,5.686056,4.694,284.97665,1676998465596,0.34199703,3.5080457,433258045546000,1.8165743,Bike
Fix,GPS,37.423523085,-122.164670711,-2.1025094080619424,5.943468,4.694682,289.5608,1676998463999,0.35156304,3.3909552,433259045542000,5.2649693,Bike
Fix,FLP,37.4235231,-122.1646708,18.56965164018409,5.941872,4.694,288.9774,1676998466596,0.35156304,3.3909552,433259045542000,1.8265743,Bike
Fix,GPS,37.4235378209,-122.1647364671,-2.311953984692516,6.0343294,4.670793,289.70566,1676998464999,0.3178663,3.002223,433260045806000,5.3174806,Bike
Fix,FLP,37.4235387,-122.1647359,18.56965164018409,6.0338874,4.677,288.99985,1676998467596,0.3178663,3.002223,433260045806000,1.8365743,Bike
Fix,GPS,37.4235543968,-122.164803984,-2.0399779127367306,5.9491897,4.606746,288.48676,1676998465999,0.30446106,2.8916516,433261045823000,5.2946444,Bike
Fix,FLP,37.423555,-122.1648029,13.83758623882511,5.949558,4.665,288.0043,1676998468596,0.30446106,2.8916516,433261045823000,1.8465843,Bike
Fix,GPS,37.4235715332,-122.1648697058,-1.805758794683407,5.737186,4.6335397,288.5824,1676998466999,0.33399203,3.423376,433262045693000,5.269982,Bike
Fix,FLP,37.4235715,-122.1648688,14.816169588244565,5.738328,4.658,288.00015,1676998469596,0.33399203,3.423376,433262045693000,1.8565643,Bike
Fix,GPS,37.4235884913,-122.1649336101,-1.6866032684080472,5.6687565,4.7319527,287.588,1676998467999,0.3521168,3.7124562,433263045537000,5.2644525,Bike
Fix,FLP,37.4235882,-122.1649327,16.940238923367204,5.6691847,4.67,287.0065,1676998470596,0.3521168,3.7124562,433263045537000,1.8665643,Bike
Fix,GPS,37.4236014795,-122.1649981649,-1.6189369707108874,5.403671,4.7603526,275.76178,1676998468999,0.34125143,3.8045046,433264045564000,5.2433968,Bike
Fix,FLP,37.423602,-122.1649969,16.551768512642163,5.4045253,4.68,275.07635,1676998471596,0.34125143,3.8045046,433264045564000,1.8765643,Bike
Fix,GPS,37.4236050316,-122.1650648003,-1.130962578726065,5.4241962,4.8564863,270.9702,1676998469999,0.34087077,3.675229,433265045560000,5.214299,Bike
Fix,FLP,37.4236054,-122.1650626,16.551768512642163,5.4239826,4.71,270.02902,1676998472596,0.34087077,3.675229,433265045560000,1.8865644,Bike
Fix,GPS,37.4236047572,-122.1651309146,-0.3179067751564188,5.5252094,4.9291005,275.25214,1676998470999,0.36526105,4.016726,433266045650000,5.2179995,Bike
Fix,FLP,37.423605,-122.1651287,14.216709800631952,5.5244193,4.753,274.96524,1676998473595,0.36526105,4.016726,433266045650000,1.8965743,Bike
Fix,GPS,37.4236085047,-122.1651992377,0.1686778316183239,5.7810783,5.172856,279.00873,1676998471999,0.39907783,4.3086643,433267045824000,5.2857256,Bike
Fix,FLP,37.4236088,-122.1651965,16.551768512642163,5.77896,4.89,278.96518,1676998474596,0.39907783,4.3086643,433267045824000,1.9065644,Bike
Fix,GPS,37.4236150437,-122.1652653189,0.9080091831117666,5.714975,5.3353467,280.3458,1676998472999,0.4632978,4.950288,433268045878000,5.4425573,Bike
Fix,FLP,37.4236157,-122.1652639,13.386246439261186,5.7156105,5.01,279.98804,1676998475595,0.4632978,4.950288,433268045878000,1.9165744,Bike
Fix,GPS,37.4236208066,-122.1653341499,1.310853989311601,5.7134624,5.4102364,286.15085,1676998473999,0.44181302,4.7581577,433269045671000,5.5262375,Bike
Fix,FLP,37.4236221,-122.1653318,19.504181332996765,5.713026,5.14,285.93713,1676998476596,0.44181302,4.7581577,433269045671000,1.9265643,Bike
Fix,GPS,37.4236278,-122.1654028409,1.2157190946765823,5.812591,5.380435,286.41458,1676998474999,0.41107666,4.2832513,433270045650000,5.57219,Bike
Fix,FLP,37.4236307,-122.1653998,19.74667355452348,5.8117995,5.245,285.9987,1676998477596,0.41107666,4.2832513,433270045650000,1.9365643,Bike
Fix,GPS,37.4236414237,-122.1654685433,1.5299589177545658,5.8949676,5.4544835,288.87326,1676998475999,0.42389065,4.295096,433271045822000,5.647674,Bike
Fix,FLP,37.4236427,-122.1654666,19.504181332996765,5.894197,5.35,287.9817,1676998478596,0.42389065,4.295096,433271045822000,1.9465643,Bike
Fix,NLP,37.4235529,-122.1654645,-1.0000001192092896,,21.754,,1676998478502,,,433270951000000,6.6711307,Bike
Fix,GPS,37.4236531565,-122.1655390335,1.6958009479440033,5.825495,5.4978857,288.71722,1676998476999,0.42396873,4.3562555,433272045641000,5.6879306,Bike
Fix,FLP,37.4236558,-122.1655382,21.13976984497946,5.8260403,5.386,287.99985,1676998479595,0.42396873,4.3562555,433272045641000,1.7154564,Bike
Fix,GPS,37.4236658057,-122.165604179,1.9047721239700588,5.9942856,5.493163,289.1629,1676998477999,0.42649433,4.266623,433273045694000,5.749463,Bike
Fix,FLP,37.423668,-122.1656031,11.105673762918002,5.992786,5.432,288.99036,1676998480596,0.42649433,4.266623,433273045694000,1.7302691,Bike
Fix,GPS,37.423680399,-122.1656750369,2.7616959571154,6.0870147,5.421148,287.45685,1676998478999,0.41097867,4.078143,433274046022000,5.7815547,Bike
Fix,FLP,37.4236822,-122.1656723,17.058586266769893,6.0862803,5.45,287.0166,1676998481597,0.41097867,4.078143,433274046022000,1.7354982,Bike
Fix,GPS,37.4236938325,-122.1657469883,3.164509645976012,6.0635967,5.3305335,285.89355,1676998479999,0.38692108,3.8774405,433275045721000,5.769669,Bike
Fix,FLP,37.4236953,-122.165744,11.105673762918002,6.063793,5.441,285.0157,1676998482596,0.38692108,3.8774405,433275045721000,1.7454982,Bike
Fix,GPS,37.4237053285,-122.1658212805,3.265137573308919,5.989356,5.2540293,284.135,1676998480999,0.39454418,4.034779,433276045684000,5.7799253,Bike
Fix,FLP,37.4237067,-122.1658176,16.6557524955726,5.9899545,5.408,284.00845,1676998483595,0.39454418,4.034779,433276045684000,1.7554982,Bike
Fix,GPS,37.4237085779,-122.1658986038,2.704259610725887,6.013569,5.044379,283.82513,1676998481999,0.37210822,3.7702806,433277045737000,5.67811,Bike
Fix,FLP,37.4237121,-122.1658938,10.470616026647804,6.013451,5.308,283.0068,1676998484596,0.37210822,3.7702806,433277045737000,1.7655082,Bike
Fix,GPS,37.4237191351,-122.1659698332,2.7000652494790645,6.0728736,4.995464,287.17285,1676998482999,0.3927841,3.8945436,433278045771000,5.6451945,Bike
Fix,FLP,37.4237208,-122.1659667,12.945688265087531,6.0722694,5.209,286.9682,1676998485596,0.3927841,3.8945436,433278045771000,1.6568252,Bike
Fix,GPS,37.4237395813,-122.1660342146,2.8957578598858507,5.977485,5.07479,288.37817,1676998483999,0.42986777,4.4024625,433279045777000,5.6377497,Bike
Fix,FLP,37.4237387,-122.1660337,10.643376945480284,5.978304,5.186,287.99017,1676998486596,0.42986777,4.4024625,433279045777000,1.6668252,Bike
Fix,GPS,37.4237595747,-122.1660994759,3.699218932482387,5.821638,5.156108,286.1784,1676998484999,0.4483873,4.8523107,433280045780000,5.7575774,Bike
Fix,FLP,37.4237582,-122.166099,11.67383343574091,5.8232393,5.104,286.02377,1676998487596,0.4483873,4.8523107,433280045780000,1.6768352,Bike
Fix,GPS,37.4237758419,-122.1661654266,4.563573921809102,5.7827573,5.170045,285.63535,1676998485999,0.4306181,4.713205,433281046111000,5.814699,Bike
Fix,FLP,37.4237747,-122.1661644,11.546812130550492,5.7831745,5.088,285.01108,1676998488596,0.4306181,4.713205,433281046111000,1.6868151,Bike
Fix,GPS,37.4237890271,-122.1662285192,6.05961114439511,6.0038404,5.1536517,284.6642,1676998486999,0.41465783,4.3746314,433282045813000,5.8066373,Bike
Fix,FLP,37.4237887,-122.1662282,19.182748877275223,6.002037,5.11,284.00873,1676998489595,0.41465783,4.3746314,433282045813000,1.6968151,Bike
Fix,GPS,37.4238035733,-122.1662940431,6.500094407744472,6.1147237,5.22495,288.08817,1676998487999,0.41626123,4.2495203,433283046082000,5.819994,Bike
Fix,FLP,37.423803,-122.1662941,17.075541516656912,6.1135025,5.156,287.96274,1676998490597,0.41626123,4.2495203,433283046082000,1.7068251,Bike
Fix,GPS,37.4238214952,-122.1663638793,6.713136903855826,6.302653,5.179778,286.99347,1676998488999,0.42522004,4.2572975,433284045869000,5.823991,Bike
Fix,FLP,37.423821,-122.1663626,21.008463105147804,6.3010573,5.177,286.01855,1676998491596,0.42522004,4.2572975,433284045869000,1.7168251,Bike
Fix,GPS,37.4238380968,-122.1664346538,7.018808229903828,6.1306396,5.1672244,286.32288,1676998489999,0.42444497,4.343743,433285045870000,5.837892,Bike
Fix,FLP,37.4238376,-122.1664335,17.075541516656912,6.1321473,5.179,286.00082,1676998492596,0.42444497,4.343743,433285045870000,1.7268251,Bike
Fix,GPS,37.4238534371,-122.1665056415,7.54159995692261,5.8140736,5.21095,282.46277,1676998490999,0.39501175,4.265857,433286045890000,5.859485,Bike
Fix,FLP,37.4238532,-122.1665038,16.39341300537189,5.8164835,5.184,282.03757,1676998493596,0.39501175,4.265857,433286045890000,1.7368251,Bike
Fix,GPS,37.4238614801,-122.1665771997,7.488545502116728,5.3204813,5.249436,284.51938,1676998491999,0.407686,4.507544,433287046185000,5.719945,Bike
Fix,FLP,37.4238624,-122.1665742,16.01521670918367,5.3243866,5.206,283.9826,1676998494597,0.407686,4.507544,433287046185000,1.7468251,Bike
