Fix,Provider,LatitudeDegrees,LongitudeDegrees,AltitudeMeters,SpeedMps,AccuracyMeters,BearingDegrees,UnixTimeMillis,SpeedAccuracyMps,BearingAccuracyDegrees,elapsedRealtimeNanos,VerticalAccuracyMeters,TransitType
Fix,FLP,37.4214831,-122.1587147,-8.5,0.06720697,7.305,,1675961700871,0.2915166,,4316211486902000,1.2069638,Bike
Fix,GPS,37.4214829138,-122.1587158724,-7.86686668581108,0.0,4.840556,,1675961699000,0.2771571,,4316212486772000,3.2322013,Bike
Fix,FLP,37.421483,-122.1587157,-8.5,0.073079266,6.953,,1675961701870,0.2771571,,4316212486772000,1.2164168,Bike
Fix,GPS,37.4214816959,-122.1587151683,-7.924279591872747,0.0,4.775221,,1675961700000,0.24183501,,4316213486779000,3.2363288,Bike
Fix,FLP,37.4214825,-122.1587158,-8.5,0.053836383,6.829,,1675961702871,0.24183501,,4316213486779000,1.2266115,Bike
Fix,GPS,37.4214792776,-122.1587145459,-7.9433085986409235,0.0,4.7520165,,1675961701000,0.23455179,,4316214486813000,3.2466965,Bike
Fix,FLP,37.4214807,-122.1587154,-8.5,0.068635546,6.824,,1675961703871,0.23455179,,4316214486813000,1.2360843,Bike
Fix,GPS,37.4214769139,-122.1587150628,-7.804500943265226,0.0,5.006273,,1675961702000,0.23143286,,4316215486818000,3.3208947,Bike
Fix,FLP,37.4214782,-122.1587153,-8.5,0.12536441,6.853,188.39905,1675961704870,0.23143286,,4316215486818000,1.2464843,Bike
Fix,NLP,37.4215513,-122.1586291,-8.5,,14.928,,1675961705166,,,4316215781000000,1.2545334,Bike
Fix,FLP,37.4214778,-122.1587154,-8.5,0.12719025,8.266,188.07417,1675961705165,0.23143286,,4316215781000000,1.2034339,Bike
Fix,GPS,37.4214729294,-122.1587143579,-7.633866231735127,0.0,4.740464,,1675961703000,0.21818344,,4316216486951000,3.2758636,Bike
Fix,FLP,37.4214745,-122.1587148,-8.5,0.20453474,6.73,180.27582,1675961705871,0.21818344,,4316216486951000,1.2067242,Bike
Fix,GPS,37.421474479,-122.1587152913,-7.521602801862704,0.0,4.6490216,,1675961704000,0.22265433,,4316217486861000,3.2307267,Bike
Fix,FLP,37.4214738,-122.1587151,-8.5,0.17130512,6.702,182.524,1675961706870,0.22265433,,4316217486861000,1.2190471,Bike
Fix,GPS,37.4214740525,-122.1587129287,-8.002472626627611,0.54806143,4.6451893,311.23395,1675961705000,0.24182783,23.854588,4316218486864000,3.2547076,Bike
Fix,FLP,37.4214762,-122.1587169,-8.5,0.5355434,6.684,310.83487,1675961707871,0.24182783,23.854588,4316218486864000,1.2282728,Bike
Fix,GPS,37.4214779384,-122.158716511,-7.823134319084565,0.44781908,5.803067,311.23395,1675961706000,0.39880323,84.562454,4316219486905000,3.4148505,Bike
Fix,FLP,37.4214787,-122.1587195,-8.5,0.47007015,7.166,311.10175,1675961708871,0.39880323,84.562454,4316219486905000,1.238427,Bike
Fix,GPS,37.4214786916,-122.1587186913,-7.695393703282439,0.3408213,6.5030193,311.23395,1675961707000,0.39549762,15.491527,4316220486931000,3.590571,Bike
Fix,FLP,37.4214796,-122.1587198,-8.5,0.3692064,7.012,310.4747,1675961709871,0.39549762,15.491527,4316220486931000,1.248417,Bike
Fix,NLP,37.4215685,-122.158618,-8.5,,16.265,,1675961710237,,,4316220853000000,1.2089063,Bike
Fix,FLP,37.4214804,-122.1587209,-8.5,0.36917186,7.601,310.47488,1675961710238,0.39549762,15.491527,4316220853000000,1.1945415,Bike
Fix,GPS,37.421478132,-122.1587176116,-7.335289557924593,0.0,5.4924784,311.23395,1675961708000,0.037437275,180.0,4316221486959000,3.4352322,Bike
Fix,FLP,37.42148,-122.1587203,-10.513859164754336,0.0003085811,7.695,,1675961710871,0.037437275,,4316221486959000,1.1944739,Bike
Fix,GPS,37.4214775496,-122.1587160175,-7.369722657221751,0.0,6.113036,311.23395,1675961709000,0.40394023,180.0,4316222486971000,3.5046418,Bike
Fix,FLP,37.4214791,-122.1587188,-11.432938730065558,2.8747736e-05,7.878,,1675961711871,0.40394023,,4316222486971000,1.2100966,Bike
Fix,GPS,37.42147527,-122.1587136878,-7.3249207744711535,0.0,5.21851,311.23395,1675961710000,0.41150954,152.78545,4316223487022000,3.5818303,Bike
Fix,FLP,37.4214774,-122.1587165,-8.5,0.00019387958,7.95,,1675961712872,0.41150954,,4316223487022000,1.2160323,Bike
Fix,GPS,37.4214728941,-122.1587093927,-7.269071443093375,0.0,5.2835236,311.23395,1675961711000,0.41421476,180.0,4316224487010000,3.6564066,Bike
Fix,FLP,37.4214754,-122.1587134,-8.5,0.0003106453,7.885,,1675961713872,0.41421476,,4316224487010000,1.2244939,Bike
Fix,GPS,37.4214733575,-122.1587060882,-7.291493868417064,0.0,6.02022,311.23395,1675961712000,0.4310569,121.07827,4316225487010000,3.7295046,Bike
Fix,FLP,37.4214747,-122.1587107,-10.353614668624829,0.0002912837,8.499,,1675961714872,0.4310569,,4316225487010000,1.2334638,Bike
Fix,NLP,37.4215613,-122.1586299,-8.5,,14.274,,1675961715253,,,4316225868000000,1.5583233,Bike
Fix,FLP,37.4214746,-122.1587105,-8.5,0.00036457976,8.529,,1675961715253,0.4310569,,4316225868000000,1.2136557,Bike
Fix,GPS,37.421473554,-122.1587041577,-7.380078182573482,0.0,6.7110653,311.23395,1675961713000,0.4308328,101.52758,4316226487356000,3.7271926,Bike
Fix,FLP,37.4214743,-122.1587084,-8.5,0.00062080426,8.732,,1675961715872,0.4308328,,4316226487356000,1.2707837,Bike
Fix,GPS,37.4214732273,-122.1587041132,-7.334847012485467,0.0,5.2460046,311.23395,1675961714000,0.3858731,103.153366,4316227487074000,3.7527819,Bike
Fix,FLP,37.4214738,-122.1587064,-8.5,0.00022494214,8.588,,1675961716872,0.3858731,,4316227487074000,1.2255802,Bike
Fix,GPS,37.42147287,-122.1587043665,-7.267662559023107,0.0,5.2374086,311.23395,1675961715000,0.39600056,180.0,4316228487374000,3.77719,Bike
Fix,FLP,37.4214734,-122.1587055,-6.812343137326394,8.6073014e-05,8.591,,1675961717872,0.39600056,,4316228487374000,1.2276984,Bike
Fix,GPS,37.4214729342,-122.1587044139,-7.141531127029385,0.0,5.2979727,311.23395,1675961716000,0.41505936,180.0,4316229487098000,3.8034122,Bike
Fix,FLP,37.4214732,-122.158705,-8.5,4.8994243e-05,8.593,,1675961718871,0.41505936,,4316229487098000,1.2421389,Bike
Fix,GPS,37.4214729642,-122.1587042109,-7.1090752958457175,0.0,5.307257,311.23395,1675961717000,0.39132372,180.0,4316230487120000,3.824497,Bike
Fix,FLP,37.4214731,-122.1587047,-8.5,3.2574997e-05,8.474,,1675961719872,0.39132372,,4316230487120000,1.2521288,Bike
Fix,NLP,37.4215862,-122.1586386,-8.5,,13.512,,1675961720190,,,4316230805000000,1.4892503,Bike
Fix,FLP,37.4214731,-122.1587046,-8.5,3.979787e-05,10.052,,1675961720190,0.39132372,,4316230805000000,1.2642806,Bike
Fix,GPS,37.4214729605,-122.1587040012,-7.036769857537832,0.0,5.3375335,311.23395,1675961718000,0.39539543,28.405489,4316231487373000,3.8454752,Bike
Fix,FLP,37.4214731,-122.1587044,-8.5,6.628621e-05,7.657,,1675961720871,0.39539543,,4316231487373000,1.3104243,Bike
Fix,GPS,37.4214731155,-122.1587031658,-7.095378083753904,0.0,6.6433578,311.23395,1675961719000,0.44107568,90.6734,4316232487213000,3.8707278,Bike
Fix,FLP,37.4214731,-122.158704,-8.5,4.5593177e-05,7.889,,1675961721872,0.44107568,,4316232487213000,1.3246307,Bike
Fix,GPS,37.4214733096,-122.1587033112,-6.967646800058353,0.0,6.6425843,311.23395,1675961720000,0.46612868,180.0,4316233487187000,3.8848372,Bike
Fix,FLP,37.4214731,-122.1587036,-8.5,2.1044041e-05,7.578,,1675961722872,0.46612868,,4316233487187000,1.335702,Bike
Fix,GPS,37.4214727848,-122.1587027541,-6.792514515932281,0.0,5.539105,311.23395,1675961721000,0.45133066,180.0,4316234487276000,3.8977506,Bike
Fix,FLP,37.421473,-122.1587033,-10.145035234798584,4.4337467e-05,7.947,,1675961723872,0.45133066,,4316234487276000,1.3471757,Bike
Fix,FLP,37.4214816,-122.1586996,-10.145035234798584,0.004503236,7.888,,1675961724752,,,4316235367981443,1.3471757,Bike
Fix,GPS,37.4214731679,-122.1587027824,-6.487405936115013,0.0,5.70935,311.23395,1675961722000,0.52999,57.184067,4316235487172000,3.9040823,Bike
Fix,FLP,37.4214861,-122.1586976,-5.512011013163416,0.005028288,8.578,,1675961725255,0.52999,,4316235871000000,1.3144188,Bike
Fix,NLP,37.4215817,-122.1585921,-8.5,,16.551,,1675961725255,,,4316235871000000,2.120454,Bike
Fix,GPS,37.4214747941,-122.1587028368,-6.252165371936919,0.0,7.11265,311.23395,1675961723000,0.61163336,180.0,4316236487210000,3.9139457,Bike
Fix,FLP,37.4214827,-122.1586992,-8.5,0.0022434683,8.415,,1675961725872,0.61163336,,4316236487210000,1.3396621,Bike
Fix,FLP,37.4214904,-122.158694,-8.5,0.007877069,8.628,,1675961726380,,,4316236995437437,1.3396621,Bike
Fix,GPS,37.4214762258,-122.1587031723,-6.027373806970157,0.0,6.9571533,311.23395,1675961724000,0.55048156,57.292046,4316237487386000,3.9258556,Bike
Fix,FLP,37.4214953,-122.1586905,-8.5,0.018356958,8.704,,1675961726922,,,4316237537922483,1.353525,Bike
Fix,GPS,37.421477121,-122.1587036767,-5.853856091823475,0.0,7.111719,311.23395,1675961725000,0.5002303,81.792816,4316238487621000,3.956951,Bike
Fix,FLP,37.4214989,-122.1586879,-5.352171484383831,0.022296786,9.06,,1675961728006,,,4316238622890440,1.3535855,Bike
Fix,FLP,37.421501,-122.1586861,-5.352171484383831,0.010730451,8.882,,1675961728550,,,4316239165362791,1.3535855,Bike
Fix,GPS,37.4214792299,-122.1587032954,-5.733827016434997,0.0,6.1082926,311.23395,1675961726000,0.48700708,123.572,4316239487271000,3.9999733,Bike
Fix,GPS,37.4214812619,-122.1587036957,-5.534752467033176,0.0,7.1107845,311.23395,1675961727000,0.49425167,60.93,4316240487257000,4.0386486,Bike
Fix,FLP,37.4215028,-122.1586843,-2.3923250878583677,0.005265742,9.321,,1675961729634,,,4316240250335752,1.3669885,Bike
Fix,FLP,37.4215029,-122.1586839,-2.3923250878583677,0.0044060852,9.146,,1675961730177,,,4316240792802182,1.3669885,Bike
Fix,NLP,37.4215983,-122.1586344,-8.700000762939453,,18.001,,1675961730321,,,4316240937000000,1.0784446,Bike
Fix,GPS,37.4214833328,-122.158705674,-5.510606314282218,0.4534434,7.1103153,295.85907,1675961728000,0.46373788,20.9603,4316241487293000,4.0714765,Bike
Fix,FLP,37.4215056,-122.1586823,-6.385276462330282,0.012089922,7.536,,1675961730720,,,4316241335300719,1.3173491,Bike
Fix,GPS,37.4214937735,-122.158722391,-5.649946012319963,1.7383666,6.3604836,310.98392,1675961729000,0.42689252,12.425075,4316242487279000,4.0729146,Bike
Fix,FLP,37.4215081,-122.1586798,-4.938188180998978,0.22088078,7.626,71.82529,1675961731805,,,4316242420258544,1.329369,Bike
Fix,GPS,37.4215105793,-122.1587521605,-6.265230366239435,2.2265282,6.3600926,319.9518,1675961730000,0.39790085,8.834906,4316243487256000,4.093292,Bike
Fix,FLP,37.4215101,-122.1586736,1.868465582455116,0.8690604,7.729,81.96681,1675961732890,,,4316243505220397,1.339724,Bike
Fix,FLP,37.4215134,-122.1586878,1.868465582455116,0.7545345,8.187,13.134086,1675961733431,,,4316244047698972,1.339724,Bike
Fix,GPS,37.4215328751,-122.1587730318,-6.730219578868633,2.0251124,6.359701,325.34875,1675961731000,0.38089493,8.953395,4316244487321000,4.1477933,Bike
Fix,FLP,37.4215176,-122.1587004,2.106164395126129,1.1951649,8.788,357.3414,1675961733974,,,4316244590174558,1.3492494,Bike
Fix,GPS,37.4215539553,-122.1587878929,-6.977410126300706,1.743377,5.538396,322.8447,1675961732000,0.3694652,10.604639,4316245487347000,4.228498,Bike
Fix,FLP,37.4215319,-122.1587192,16.056806521574266,1.5258807,9.242,342.71707,1675961734516,,,4316245132640745,1.3592594,Bike
Fix,FLP,37.4215394,-122.1587386,16.056806521574266,1.624472,9.283,332.22455,1675961735060,,,4316245675132749,1.3592594,Bike
Fix,NLP,37.4216616,-122.1587183,-8.90000057220459,,23.199,,1675961735314,,,4316245930000000,1.0,Bike
Fix,FLP,37.4215532,-122.1587617,0.2496671512763981,1.7148241,9.626,327.25134,1675961735602,,,4316246217598325,1.3066381,Bike
Fix,GPS,37.421577908,-122.1587997115,-6.698644180086553,2.7604315,5.3424196,331.46497,1675961733000,0.31611878,5.404222,4316246487600000,4.2508264,Bike
Fix,FLP,37.4215694,-122.1587803,0.2496671512763981,2.1130083,9.663,328.67883,1675961736144,,,4316246760086851,1.3134538,Bike
Fix,GPS,37.4216072863,-122.1588178907,-6.715511543225345,3.5494242,5.1617618,326.64304,1675961734000,0.3159899,4.4786267,4316247487477000,4.263379,Bike
Fix,FLP,37.4215792,-122.1587905,19.353368226698343,2.3305252,9.751,328.73486,1675961736687,,,4316247302563108,1.3234813,Bike
Fix,FLP,37.4215935,-122.1588053,19.353368226698343,2.6524665,9.676,327.44556,1675961737230,,,4316247845039243,1.3234813,Bike
Fix,GPS,37.4216402073,-122.1588451499,-7.208440448575613,4.267702,5.007257,314.56775,1675961735000,0.2956449,3.7219446,4316248487757000,4.275854,Bike
Fix,FLP,37.4216069,-122.15882,21.418924778720587,2.8861454,9.75,324.36166,1675961737772,,,4316248387514829,1.333482,Bike
Fix,GPS,37.4216738228,-122.1588867793,-7.638901645595586,4.765549,5.0087113,307.3513,1675961736000,0.31748882,3.6846054,4316249487873000,4.3005595,Bike
Fix,FLP,37.4216348,-122.1588528,22.234361755925363,3.3643699,9.247,317.5381,1675961738857,,,4316249472465514,1.343492,Bike
Fix,FLP,37.4216651,-122.158891,22.234361755925363,3.8712838,8.965,312.16275,1675961739399,,,4316250014942381,1.343492,Bike
Fix,GPS,37.4217062665,-122.1589336076,-7.678125109840954,5.2452574,5.2231855,305.08203,1675961737000,0.3505959,3.652679,4316250487426000,4.3703294,Bike
Fix,FLP,37.4216833,-122.1589142,22.55104769349216,5.148212,8.677,305.57303,1675961739872,0.3505959,3.652679,4316250487426000,1.353492,Bike
Fix,GPS,37.4217380698,-122.1589861953,-7.896414393480865,5.715483,5.2231493,304.15695,1675961738000,0.3458931,3.2904058,4316251487444000,4.4291987,Bike
Fix,FLP,37.4217224,-122.1589727,22.33958516029174,5.653816,8.169,304.17996,1675961740872,0.3458931,3.2904058,4316251487444000,1.363482,Bike
Fix,GPS,37.4217702832,-122.1590456513,-7.576685042945449,5.7088447,4.9758306,304.20877,1675961739000,0.30378044,2.9552927,4316252487579000,4.4579988,Bike
Fix,FLP,37.4217598,-122.1590349,18.62467696764402,5.705125,7.571,304.0202,1675961741872,0.30378044,2.9552927,4316252487579000,1.373482,Bike
Fix,GPS,37.4218026184,-122.1591015864,-7.432842855031007,5.362982,5.223075,307.5435,1675961740000,0.33279204,3.3554087,4316253487964000,4.5110536,Bike
Fix,FLP,37.4217947,-122.1590939,18.62467696764402,5.400231,6.921,306.6619,1675961742872,0.33279204,3.3554087,4316253487964000,1.383482,Bike
Fix,GPS,37.4218351754,-122.1591541731,-7.114917430670534,5.825283,4.9542456,310.488,1675961741000,0.3414487,3.2687871,4316254487424000,4.5210752,Bike
Fix,FLP,37.4218292,-122.1591482,19.554135981316183,5.7769647,6.409,309.64862,1675961743872,0.3414487,3.2687871,4316254487424000,1.393482,Bike
Fix,GPS,37.4218718352,-122.1592084626,-7.131122042369239,5.938049,4.950319,312.94067,1675961742000,0.31834394,2.9448853,4316255487522000,4.533499,Bike
Fix,FLP,37.4218668,-122.1592031,19.554135981316183,5.9225645,5.665,311.7762,1675961744872,0.31834394,2.9448853,4316255487522000,1.403522,Bike
Fix,GPS,37.4219114869,-122.1592631209,-6.910969219231835,5.9425917,5.35071,313.6188,1675961743000,0.47272643,4.3773017,4316256487784000,4.657929,Bike
Fix,FLP,37.4219062,-122.1592573,18.56500898765527,5.939629,5.09,312.76175,1675961745872,0.47272643,4.3773017,4316256487784000,1.413492,Bike
Fix,GPS,37.421952645,-122.1593164576,-6.473873239063352,5.6820683,5.5192676,317.239,1675961744000,0.47147945,4.5306816,4316257487819000,4.7422075,Bike
Fix,FLP,37.4219468,-122.1593102,10.510664486538602,5.727965,5.199,316.21112,1675961746872,0.47147945,4.5306816,4316257487819000,1.423472,Bike
Fix,GPS,37.4219898741,-122.1593637925,-6.632938385298185,5.5991797,5.5566745,320.03064,1675961745000,0.43626758,4.240903,4316258487706000,4.816587,Bike
Fix,FLP,37.4219866,-122.1593584,10.510664486538602,5.618785,5.259,319.38986,1675961747872,0.43626758,4.240903,4316258487706000,1.433472,Bike
Fix,GPS,37.4220304231,-122.1594092909,-6.698981015649528,5.9355955,5.6424694,319.71152,1675961746000,0.43411267,3.9611943,4316259487560000,4.884802,Bike
Fix,FLP,37.4220274,-122.159404,10.510664486538602,5.886317,5.403,319.054,1675961748871,0.43411267,3.9611943,4316259487560000,1.443472,Bike
Fix,GPS,37.4220719549,-122.1594645216,-6.733238306835544,6.0173845,5.5558167,320.6088,1675961747000,0.4503179,4.054698,4316260487980000,4.939548,Bike
Fix,FLP,37.4220695,-122.1594548,10.510664486538602,5.9965196,5.525,319.8323,1675961749872,0.4503179,4.054698,4316260487980000,1.453492,Bike
Fix,GPS,37.4221084136,-122.159509113,-7.285425495351767,6.06833,5.641382,323.86743,1675961748000,0.45880282,4.031575,4316261487687000,4.9931498,Bike
Fix,FLP,37.42211,-122.1595027,12.529594844898696,6.054266,5.544,322.45267,1675961750872,0.45880282,4.031575,4316261487687000,1.4635019,Bike
Fix,GPS,37.422151632,-122.1595454761,-7.40914759530972,6.270674,5.7546067,320.92825,1675961749000,0.47910854,4.1230507,4316262487621000,5.059696,Bike
Fix,FLP,37.4221525,-122.1595453,12.529594844898696,6.229907,5.611,320.43607,1675961751872,0.47910854,4.1230507,4316262487621000,1.473472,Bike
Fix,GPS,37.422193655,-122.159587827,-7.478279613867016,6.55451,5.8569794,319.76047,1675961750000,0.5295518,4.392867,4316263487538000,5.1131773,Bike
Fix,FLP,37.422195,-122.1595896,14.870460032429088,6.4836245,5.668,319.2953,1675961752871,0.5295518,4.392867,4316263487538000,1.483482,Bike
Fix,GPS,37.4222384598,-122.159633146,-7.493471712974739,6.490518,5.885482,318.05682,1675961751000,0.49596822,4.1711407,4316264487551000,5.161553,Bike
Fix,FLP,37.4222389,-122.1596359,12.903523757899665,6.488473,5.722,318.24957,1675961753872,0.49596822,4.1711407,4316264487551000,1.493472,Bike
Fix,GPS,37.4222785384,-122.159681092,-7.555558811879512,6.1976566,5.8660765,318.5509,1675961752000,0.49365917,4.3463006,4316265487648000,5.210019,Bike
Fix,FLP,37.4222806,-122.1596831,12.903523757899665,6.252517,5.76,318.0506,1675961754872,0.49365917,4.3463006,4316265487648000,1.503492,Bike
Fix,GPS,37.422318393,-122.1597246922,-7.671210847864396,6.208483,5.9764004,318.27405,1675961753000,0.5514933,4.711981,4316266487752000,5.267104,Bike
Fix,FLP,37.4223208,-122.1597282,11.037075830152546,6.217122,5.867,318.0131,1675961755872,0.5514933,4.711981,4316266487752000,1.513492,Bike
Fix,GPS,37.42236102,-122.1597717903,-7.726869812572326,6.274623,6.0859957,317.72858,1675961754000,0.5492719,4.6470504,4316267487725000,5.3572865,Bike
Fix,FLP,37.4223618,-122.1597741,10.064604524332012,6.261377,5.934,317.22043,1675961756872,0.5492719,4.6470504,4316267487725000,1.523492,Bike
Fix,GPS,37.4224025924,-122.1598186455,-8.15417211660727,6.0783477,6.273426,316.5609,1675961755000,0.52325094,4.578985,4316268487637000,5.3968415,Bike
Fix,FLP,37.4224027,-122.1598208,8.421003479090189,6.1145763,6.017,316.2556,1675961757872,0.52325094,4.578985,4316268487637000,1.533482,Bike
Fix,GPS,37.4224456145,-122.1598638285,-8.302582582766261,6.163418,6.3865843,318.0245,1675961756000,0.49272546,4.234073,4316269487665000,5.418172,Bike
Fix,FLP,37.4224438,-122.1598667,-10.553724427558066,6.1537023,6.117,317.68738,1675961758872,0.49272546,4.234073,4316269487665000,1.543492,Bike
Fix,GPS,37.4224932045,-122.1599183241,-8.33938842677625,6.1495013,6.3645134,319.49442,1675961757000,0.49943772,4.214226,4316270487767000,5.4576573,Bike
Fix,FLP,37.4224881,-122.1599153,-17.974722974421525,6.151139,6.217,318.7564,1675961759872,0.49943772,4.214226,4316270487767000,1.5534819,Bike
Fix,GPS,37.4225336446,-122.1599634158,-8.876577000057049,5.832498,6.515708,320.0618,1675961758000,0.4936516,4.4792633,4316271487837000,5.5206847,Bike
Fix,FLP,37.422531,-122.1599617,-17.71190334625865,5.8926735,6.325,319.76352,1675961760872,0.4936516,4.4792633,4316271487837000,1.563482,Bike
Fix,GPS,37.4225720104,-122.1600066198,-9.230702285421737,5.808654,6.6213484,319.8313,1675961759000,0.48788357,4.4372406,4316272487753000,5.5287495,Bike
Fix,FLP,37.4225715,-122.1600055,-10.553724427558066,5.824378,6.432,319.14246,1675961761871,0.48788357,4.4372406,4316272487753000,1.573482,Bike
Fix,GPS,37.4226129725,-122.1600519547,-9.707930262981428,5.8784523,6.6556993,316.55057,1675961760000,0.462771,4.1917405,4316273487773000,5.5511146,Bike
Fix,FLP,37.4226117,-122.1600502,15.806077751331244,5.8684196,6.509,316.53088,1675961762872,0.462771,4.1917405,4316273487773000,1.5835019,Bike
Fix,GPS,37.4226457278,-122.1601039281,-10.397497528955354,5.7800736,6.4078407,315.81143,1675961761000,0.46641967,4.3109994,4316274487755000,5.531929,Bike
Fix,FLP,37.4226482,-122.1600991,12.352742336793838,5.795422,6.513,315.26248,1675961763872,0.46641967,4.3109994,4316274487755000,1.593482,Bike
Fix,GPS,37.4226843414,-122.1601544497,-10.594042220819391,5.670752,6.402623,318.1561,1675961762000,0.45492926,4.357925,4316275487774000,5.537337,Bike
Fix,FLP,37.422685,-122.1601484,12.352742336793838,5.6913304,6.52,317.51978,1675961764872,0.45492926,4.357925,4316275487774000,1.603482,Bike
Fix,GPS,37.4227250341,-122.160198745,-10.83803727969004,5.67036,6.397024,319.96805,1675961763000,0.45213783,4.3236513,4316276488064000,5.5382514,Bike
Fix,FLP,37.4227237,-122.1601944,2.4407708656237617,5.6741066,6.497,318.7469,1675961765873,0.45213783,4.3236513,4316276488064000,1.613482,Bike
Fix,GPS,37.4227660982,-122.1602464404,-11.356604358538874,5.9798727,6.2162323,321.6439,1675961764000,0.43333384,3.9071193,4316277487997000,5.5242963,Bike
Fix,FLP,37.422764,-122.1602406,9.041735955964429,5.9318023,6.416,320.65485,1675961766872,0.43333384,3.9071193,4316277487997000,1.623482,Bike
Fix,GPS,37.4228084222,-122.160296802,-11.753774073872847,6.285263,6.1367025,319.4404,1675961765000,0.44619343,3.833711,4316278487874000,5.546435,Bike
Fix,FLP,37.4228066,-122.160289,13.633238080714484,6.227185,6.312,319.25333,1675961767872,0.44619343,3.833711,4316278487874000,1.633472,Bike
Fix,NLP,37.4230433,-122.1609453,,,600.0,,1675961768316,,,4316278932000000,,Bike
Fix,FLP,37.4228224,-122.1603072,13.633238080714484,6.2247124,7.245,319.249,1675961768316,0.44619343,3.833711,4316278932000000,1.633472,Bike
Fix,GPS,37.4228500837,-122.1603469327,-12.443368744923028,5.962502,6.0071,320.4312,1675961766000,0.4425216,3.9905987,4316279487809000,5.4918227,Bike
Fix,FLP,37.4228482,-122.1603406,12.900997155687037,5.9662743,7.178,319.98547,1675961768872,0.4425216,3.9905987,4316279487809000,1.643482,Bike
Fix,GPS,37.4228947576,-122.1603886211,-12.210744542459365,5.7915483,6.046089,321.77957,1675961767000,0.46002635,4.285266,4316280487902000,5.488759,Bike
Fix,FLP,37.4228927,-122.1603868,15.875836218928598,5.7932124,7.118,320.99042,1675961769871,0.46002635,4.285266,4316280487902000,1.653472,Bike
Fix,GPS,37.4229400073,-122.1604306871,-11.937081701229394,5.7227125,5.99753,323.95874,1675961768000,0.461975,4.3654037,4316281487882000,5.4614167,Bike
Fix,FLP,37.4229374,-122.1604297,-8.90000057220459,5.723358,6.958,322.98096,1675961770871,0.461975,4.3654037,4316281487882000,1.663502,Bike
Fix,GPS,37.4229874126,-122.1604726761,-11.309447926413728,5.586126,5.966859,324.10022,1675961769000,0.49697748,4.668713,4316282487833000,5.4562783,Bike
Fix,FLP,37.422984,-122.1604712,-12.795368324138124,5.5876226,6.897,323.98947,1675961771871,0.49697748,4.668713,4316282487833000,1.672472,Bike
Fix,GPS,37.4230325551,-122.160517398,-11.081785308142464,5.4417706,6.013334,323.4507,1675961770000,0.48405197,4.6780286,4316283487996000,5.4648213,Bike
Fix,FLP,37.4230296,-122.160514,-12.795368324138124,5.4433413,6.99,323.01056,1675961772872,0.48405197,4.6780286,4316283487996000,1.6834819,Bike
Fix,GPS,37.4230726754,-122.1605649478,-10.853689960545951,4.798601,6.0046797,320.68793,1675961771000,0.4649474,5.115501,4316284487857000,5.4520764,Bike
Fix,FLP,37.4230712,-122.1605596,-10.996154818902028,4.8047137,6.005,320.03268,1675961773872,0.4649474,5.115501,4316284487857000,1.693482,Bike
Fix,GPS,37.4231080074,-122.160606745,-10.25308444873878,4.1442566,5.9386773,320.5895,1675961772000,0.42656454,5.582793,4316285487981000,5.4268,Bike
Fix,FLP,37.4231066,-122.1606021,-8.90000057220459,4.149688,5.984,320.0007,1675961774872,0.42656454,5.582793,4316285487981000,1.703472,Bike
Fix,GPS,37.4231377587,-122.1606374145,-9.807840710159915,3.3866673,5.7098556,322.86948,1675961773000,0.37718913,6.024536,4316286488063000,5.3497543,Bike
Fix,FLP,37.4231287,-122.1606277,-8.90000057220459,3.4122682,5.93,321.92368,1675961775873,0.37718913,6.024536,4316286488063000,1.713612,Bike
Fix,GPS,37.4231633555,-122.1606636159,-9.528147823090755,2.8257322,5.60231,316.42584,1675961774000,0.34902677,6.753552,4316287487974000,5.2608113,Bike
Fix,FLP,37.4231553,-122.1606549,-8.700000762939453,2.8364305,5.857,316.14032,1675961776871,0.34902677,6.753552,4316287487974000,1.723472,Bike
Fix,GPS,37.4231717603,-122.1607006486,-10.358191719974569,2.8725822,5.5240765,291.90417,1675961775000,0.36358795,7.41471,4316288488208000,5.2285795,Bike
Fix,FLP,37.4231723,-122.1606887,-2.7383412028340217,2.8687842,5.774,291.3175,1675961777873,0.36358795,7.41471,4316288488208000,1.733482,Bike
Fix,GPS,37.423168965,-122.1607418222,-11.665552336485156,3.5694206,5.5042067,266.29535,1675961776000,0.42166203,7.765149,4316289488006000,5.257445,Bike
Fix,FLP,37.4231736,-122.1607295,5.523508102057264,3.5509021,5.699,266.487,1675961778873,0.42166203,7.765149,4316289488006000,1.743482,Bike
Fix,GPS,37.4231614898,-122.1607885964,-12.078687534736014,2.4067073,5.8122797,259.7757,1675961777000,0.56784487,15.1946335,4316290488150000,5.375728,Bike
Fix,FLP,37.4231655,-122.1607777,24.98830753930362,2.438361,5.67,259.31436,1675961779873,0.56784487,15.1946335,4316290488150000,1.753502,Bike
Fix,GPS,37.4231499989,-122.1608101105,-12.17509551966211,2.2346637,6.2235928,225.86737,1675961778000,0.5512608,13.303603,4316291488005000,5.49633,Bike
Fix,FLP,37.4231572,-122.160801,14.019345101882756,2.2110696,5.695,230.80061,1675961780873,0.5512608,13.303603,4316291488005000,1.763482,Bike
Fix,GPS,37.4231245298,-122.1608282018,-11.616709208167627,2.945616,6.5921845,210.15779,1675961779000,0.56470335,9.291529,4316292488087000,5.6123056,Bike
Fix,FLP,37.4231341,-122.1608239,10.291420295376229,2.9282143,5.83,210.2458,1675961781873,0.56470335,9.291529,4316292488087000,1.773482,Bike
Fix,GPS,37.4230766172,-122.1608524462,-10.85453613761201,4.8191977,6.711337,207.78395,1675961780000,0.52513516,5.364083,4316293488073000,5.709531,Bike
Fix,FLP,37.4231021,-122.1608413,14.19421088998672,4.5859675,6.032,207.37148,1675961782872,0.52513516,5.364083,4316293488073000,1.783482,Bike
Fix,GPS,37.4230153766,-122.1608860899,-10.598462273712023,5.584428,6.727456,209.70651,1675961781000,0.5318921,4.873349,4316294488059000,5.852564,Bike
Fix,FLP,37.4230462,-122.1608714,15.98603555086649,5.544211,6.276,208.92984,1675961783872,0.5318921,4.873349,4316294488059000,1.793502,Bike
Fix,GPS,37.4229509184,-122.1609219676,-10.780520977549308,5.6919847,6.639819,211.04927,1675961782000,0.5166669,4.684089,4316295488312000,5.97444,Bike
Fix,FLP,37.422974,-122.1609129,15.98603555086649,5.6907234,6.421,210.97711,1675961784873,0.5166669,4.684089,4316295488312000,1.803462,Bike
Fix,GPS,37.4228965956,-122.1609596776,-11.160099338120874,5.2540436,6.6450434,215.96556,1675961783000,0.4950586,4.9237266,4316296488101000,6.1131816,Bike
Fix,FLP,37.4229108,-122.160954,13.05562660226606,5.2588944,6.603,214.9523,1675961785872,0.4950586,4.9237266,4316296488101000,1.813482,Bike
Fix,GPS,37.4228529781,-122.1609941847,-11.01749450536695,4.61586,6.7464366,216.85753,1675961784000,0.48254576,5.5614724,4316297488121000,6.2096705,Bike
Fix,FLP,37.4228611,-122.1609916,-22.93957219065813,4.622585,6.67,215.98566,1675961786873,0.48254576,5.5614724,4316297488121000,1.823472,Bike
Fix,GPS,37.4228140666,-122.1610249298,-10.552678413174652,4.238176,7.000456,209.9616,1675961785000,0.4600326,5.6069036,4316298488110000,6.3043795,Bike
Fix,FLP,37.4228253,-122.1610187,-16.62227274577758,4.2457337,6.745,209.16202,1675961787873,0.4600326,5.6069036,4316298488110000,1.833492,Bike
Fix,GPS,37.4227750426,-122.1610493187,-9.651008666516883,4.119573,7.0698667,207.36101,1675961786000,0.4562779,5.657185,4316299488415000,6.3463874,Bike
Fix,FLP,37.4227829,-122.161046,-11.486933196543175,4.120702,6.807,207.01785,1675961788873,0.4562779,5.657185,4316299488415000,1.843522,Bike
Fix,GPS,37.4227388588,-122.1610720063,-9.031121719428423,3.777684,7.131971,209.74232,1675961787000,0.46198973,6.298117,4316300488126000,6.39293,Bike
Fix,FLP,37.4227438,-122.1610698,-8.90000057220459,3.780987,6.854,208.97852,1675961789872,0.46198973,6.298117,4316300488126000,1.853472,Bike
Fix,GPS,37.4227090309,-122.1610937874,-9.179613477501816,3.634686,6.832262,218.16383,1675961788000,0.43907455,6.485476,4316301488201000,6.38184,Bike
Fix,FLP,37.4227111,-122.1610925,-6.695334581920463,3.6356394,6.921,217.9201,1675961790873,0.43907455,6.485476,4316301488201000,1.863482,Bike
Fix,GPS,37.4226863381,-122.161121532,-9.48152740788859,2.983441,6.694904,244.38445,1675961789000,0.42095536,8.191482,4316302488185000,6.2966394,Bike
Fix,FLP,37.4226887,-122.1611166,-8.90000057220459,2.9885473,6.901,243.47899,1675961791873,0.42095536,8.191482,4316302488185000,1.873502,Bike
Fix,GPS,37.4226849733,-122.1611589181,-9.955220223703542,2.7724285,6.5307217,281.46442,1675961790000,0.40498206,8.713275,4316303488192000,6.1759844,Bike
Fix,FLP,37.4226819,-122.1611488,-6.695334581920463,2.7646668,6.826,280.223,1675961792873,0.40498206,8.713275,4316303488192000,1.883482,Bike
Fix,GPS,37.4227010808,-122.1611916628,-10.127224109453367,3.0977356,6.468335,310.37616,1675961791000,0.3766397,6.743627,4316304488249000,6.0753427,Bike
Fix,FLP,37.4226944,-122.161186,1.7897387867575247,3.0917447,6.754,309.77432,1675961793873,0.3766397,6.743627,4316304488249000,1.893472,Bike
Fix,GPS,37.4227363963,-122.1612293454,-10.62440391484632,3.6664386,6.3185244,318.2195,1675961792000,0.39225546,5.8371615,4316305488295000,6.003844,Bike
Fix,FLP,37.4227248,-122.1612205,13.059163910280516,3.6601663,6.596,317.92847,1675961794873,0.39225546,5.8371615,4316305488295000,1.903472,Bike
Fix,GPS,37.4227792483,-122.1612709752,-10.367626195210054,3.9492173,6.2203255,312.87503,1675961793000,0.40575787,5.679551,4316306488226000,5.9439836,Bike
Fix,FLP,37.4227669,-122.1612614,15.01956559017799,3.9465592,6.507,312.05087,1675961795873,0.40575787,5.679551,4316306488226000,1.913482,Bike
Fix,GPS,37.4228143873,-122.1613191833,-10.583572033748707,4.1927004,6.013489,291.75027,1675961794000,0.43329334,6.1484995,4316307488239000,5.9496374,Bike
Fix,FLP,37.4227984,-122.1612989,15.01956559017799,4.1640677,6.364,292.25073,1675961796872,0.43329334,6.1484995,4316307488239000,1.923492,Bike
Fix,GPS,37.4228351485,-122.1613763439,-10.542876959467096,4.317123,5.8895674,283.8387,1675961795000,0.4107637,5.882608,4316308488501000,5.9625654,Bike
Fix,FLP,37.4228262,-122.1613605,12.9196940299463,4.3152194,6.243,283.12308,1675961797873,0.4107637,5.882608,4316308488501000,1.9334819,Bike
Fix,GPS,37.4228477964,-122.1614362936,-10.69213991768399,4.3565435,5.8153286,284.55905,1675961796000,0.46228024,6.4050293,4316309488760000,5.961622,Bike
Fix,FLP,37.4228409,-122.1614098,17.297416761179427,4.3506813,6.106,283.84436,1675961798872,0.46228024,6.4050293,4316309488760000,1.943482,Bike
Fix,GPS,37.4228551316,-122.1614923852,-9.65552824262932,4.820626,5.701124,283.66095,1675961797000,0.44510835,5.3667274,4316310488571000,5.915351,Bike
Fix,FLP,37.4228522,-122.1614692,17.297416761179427,4.7999024,6.0,283.0404,1675961799873,0.44510835,5.3667274,4316310488571000,1.953472,Bike
Fix,GPS,37.4228739658,-122.1615586481,-9.964153307218137,5.1492515,5.688616,286.79956,1675961798000,0.4731362,5.2152934,4316311488335000,5.8929763,Bike
Fix,FLP,37.4228642,-122.1615259,14.9649774875871,4.973512,5.904,284.4925,1675961800873,0.4731362,5.2152934,4316311488335000,1.963482,Bike
Fix,GPS,37.422896534,-122.1616259109,-10.188862840071566,5.459333,5.5497646,295.86813,1675961799000,0.45278233,4.69035,4316312488321000,5.792787,Bike
Fix,FLP,37.4228855,-122.1615982,14.280634334788026,5.4443507,5.785,294.65048,1675961801872,0.45278233,4.69035,4316312488321000,1.973562,Bike
Fix,GPS,37.4229231596,-122.1616915578,-10.171637171686957,5.498556,5.4898543,295.43723,1675961800000,0.46587548,4.845604,4316313488365000,5.7638135,Bike
Fix,FLP,37.4229167,-122.1616776,14.280634334788026,5.4982166,5.738,294.99664,1675961802872,0.46587548,4.845604,4316313488365000,1.983492,Bike
Fix,GPS,37.422948819,-122.161762376,-9.270949088730587,5.99534,5.553377,293.4989,1675961801000,0.43448448,4.086925,4316314488689000,5.7202644,Bike
Fix,FLP,37.4229448,-122.1617523,7.558922592699176,5.9910474,5.667,293.01633,1675961803873,0.43448448,4.086925,4316314488689000,1.993492,Bike
Fix,GPS,37.4229727906,-122.1618342556,-8.965878738761063,6.1034417,5.539938,292.68277,1675961802000,0.43197703,4.1076455,4316315488608000,5.6778655,Bike
Fix,FLP,37.4229703,-122.1618274,-12.023531975926502,6.1025243,5.601,292.00894,1675961804873,0.43197703,4.1076455,4316315488608000,2.003482,Bike
Fix,GPS,37.4229973765,-122.1619080539,-8.512280022978324,5.7928987,5.5279675,294.3343,1675961803000,0.42115483,4.154254,4316316488414000,5.6173935,Bike
Fix,FLP,37.4229951,-122.1619022,-8.90000057220459,5.7955303,5.578,293.98248,1675961805872,0.42115483,4.154254,4316316488414000,2.013482,Bike
Fix,GPS,37.4230188401,-122.1619760069,-8.456800710596704,5.1536155,5.474805,293.2617,1675961804000,0.4287917,4.776052,4316317488434000,5.584747,Bike
Fix,FLP,37.4230179,-122.1619712,-10.712961723162977,5.159244,5.517,293.00958,1675961806873,0.4287917,4.776052,4316317488434000,2.023482,Bike
Fix,GPS,37.4230337385,-122.1620386344,-9.102573814738951,4.675409,5.4441104,292.3403,1675961805000,0.40552753,5.0246243,4316318488594000,5.535984,Bike
Fix,FLP,37.4230345,-122.1620339,-8.90000057220459,4.679229,5.508,292.00873,1675961807873,0.40552753,5.0246243,4316318488594000,2.033482,Bike
Fix,GPS,37.42304581,-122.1620982317,-9.097103688243706,4.4044833,5.388317,291.99557,1675961806000,0.39324394,5.19031,4316319488462000,5.4796133,Bike
Fix,FLP,37.4230458,-122.1620869,-6.291500547213587,4.4082303,5.481,291.01447,1675961808873,0.39324394,5.19031,4316319488462000,2.043492,Bike
Fix,GPS,37.4230562266,-122.1621525012,-8.956246932094741,4.23871,5.320287,289.0747,1675961807000,0.40953323,5.76992,4316320488474000,5.4723244,Bike
Fix,FLP,37.4230558,-122.1621393,-5.667309616376144,4.241966,5.44,289.04172,1675961809873,0.40953323,5.76992,4316320488474000,2.053472,Bike
Fix,GPS,37.4230636238,-122.1622055463,-8.868072709820773,4.203289,5.377163,289.5648,1675961808000,0.41259754,5.83824,4316321488479000,5.454046,Bike
Fix,FLP,37.4230647,-122.1621952,0.1487548208024804,4.2038455,5.394,288.9995,1675961810873,0.41259754,5.83824,4316321488479000,2.063472,Bike
Fix,GPS,37.4230720999,-122.1622578066,-8.806944047581155,4.3476524,5.488596,291.80557,1675961809000,0.4285352,5.8494,4316322488494000,5.4800415,Bike
Fix,FLP,37.4230698,-122.1622341,16.267606423622652,4.2717433,5.392,289.97678,1675961811872,0.4285352,5.8494,4316322488494000,2.073482,Bike
Fix,GPS,37.4230832738,-122.1623122123,-8.738658349957618,4.63339,5.5607047,288.6657,1675961810000,0.4553623,5.782516,4316323488503000,5.497833,Bike
Fix,FLP,37.4230801,-122.1622881,16.267606423622652,4.614894,5.414,288.18475,1675961812873,0.4553623,5.782516,4316323488503000,2.083482,Bike
Fix,GPS,37.4230937606,-122.1623754074,-8.56854086448344,5.1474333,5.531555,291.15723,1675961811000,0.4322246,4.8981624,4316324488525000,5.4492764,Bike
Fix,FLP,37.423092,-122.1623542,15.0559578544108,5.135136,5.435,290.93207,1675961813873,0.4322246,4.8981624,4316324488525000,2.093482,Bike
Fix,GPS,37.423107059,-122.1624393462,-8.616701891777184,5.2019386,5.4889507,292.49268,1675961812000,0.42433843,4.762175,4316325488858000,5.415627,Bike
Fix,FLP,37.4231066,-122.1624248,11.251287142546415,5.201248,5.464,291.98444,1675961814873,0.42433843,4.762175,4316325488858000,2.103482,Bike
Fix,GPS,37.4231238619,-122.1625001914,-8.970423277384747,5.2139874,5.5029163,291.06433,1675961813000,0.43055314,4.737475,4316326488537000,5.411069,Bike
Fix,FLP,37.423124,-122.1624926,10.86480133083424,5.213943,5.491,291.0083,1675961815872,0.43055314,4.737475,4316326488537000,2.113482,Bike
Fix,GPS,37.4231409202,-122.1625607481,-9.19439571954434,5.3069706,5.4475546,288.96597,1675961814000,0.4217594,4.5225253,4316327488875000,5.363122,Bike
Fix,FLP,37.4231409,-122.1625562,12.702913892605068,5.3061686,5.499,288.02444,1675961816872,0.4217594,4.5225253,4316327488875000,2.123472,Bike
Fix,GPS,37.4231582342,-122.1626246757,-9.60774700951327,5.337179,5.297066,289.43652,1675961815000,0.40192875,4.2826657,4316328488896000,5.301637,Bike
Fix,FLP,37.4231573,-122.1626209,12.702913892605068,5.3369775,5.48,288.99265,1675961817873,0.40192875,4.2826657,4316328488896000,2.133482,Bike
Fix,GPS,37.4231735014,-122.1626893411,-9.509397350466305,5.4345336,5.502327,289.55243,1675961816000,0.4334473,4.5482836,4316329488611000,5.355023,Bike
Fix,FLP,37.4231733,-122.1626853,13.07533448005259,5.4337044,5.461,288.99985,1675961818873,0.4334473,4.5482836,4316329488611000,2.143492,Bike
Fix,GPS,37.423189419,-122.1627540348,-9.322769045322078,5.4974656,5.540184,291.446,1675961817000,0.4242556,4.433558,4316330488637000,5.35431,Bike
Fix,FLP,37.4231893,-122.1627503,13.07533448005259,5.4969287,5.463,290.98297,1675961819872,0.4242556,4.433558,4316330488637000,2.153482,Bike
Fix,GPS,37.423206026,-122.1628206085,-9.148537915298553,5.522392,5.5067797,291.16568,1675961818000,0.42479017,4.4284015,4316331488699000,5.3625627,Bike
Fix,FLP,37.4232064,-122.1628163,11.00827896858162,5.522213,5.458,290.99963,1675961820873,0.42479017,4.4284015,4316331488699000,2.163512,Bike
Fix,GPS,37.4232214964,-122.1628843918,-9.139288200335145,5.4118433,5.6211653,287.56152,1675961819000,0.43356273,4.569784,4316332488640000,5.41171,Bike
Fix,FLP,37.4232225,-122.1628809,11.00827896858162,5.4127274,5.485,287.0357,1675961821873,0.43356273,4.569784,4316332488640000,2.173482,Bike
Fix,GPS,37.4232333889,-122.1629510437,-8.99704229354624,5.483135,5.5082564,285.77386,1675961820000,0.41773927,4.5020366,4316333488670000,5.3922596,Bike
Fix,FLP,37.4232346,-122.162947,11.14519123860032,5.482579,5.495,285.01712,1675961822873,0.41773927,4.5020366,4316333488670000,2.183502,Bike
Fix,GPS,37.4232448162,-122.1630150484,-8.940707912798022,5.5463324,5.4851584,283.7081,1675961821000,0.43095508,4.6275525,4316334488996000,5.365041,Bike
Fix,FLP,37.4232457,-122.1630122,9.893360123337118,5.54579,5.532,283.01846,1675961823873,0.43095508,4.6275525,4316334488996000,2.193482,Bike
Fix,GPS,37.4232530416,-122.16307925,-8.758281863531396,5.6365757,5.3722887,285.29858,1675961822000,0.41428488,4.298486,4316335488931000,5.3093247,Bike
Fix,FLP,37.4232543,-122.1630773,9.18619285063042,5.63581,5.498,284.9833,1675961824872,0.41428488,4.298486,4316335488931000,1.3045834,Bike
Fix,GPS,37.4232621204,-122.1631463519,-8.539158806468357,5.5318303,5.224017,286.419,1675961823000,0.41124612,4.353591,4316336488787000,5.230948,Bike
Fix,FLP,37.4232639,-122.1631439,8.243731863367827,5.53267,5.442,285.99118,1675961825872,0.41124612,4.353591,4316336488787000,1.3049569,Bike
Fix,GPS,37.4232722122,-122.1632119498,-8.168969014385743,5.658687,5.191639,283.5435,1675961824000,0.41989413,4.357548,4316337489107000,5.1859684,Bike
Fix,FLP,37.423274,-122.1632094,6.052133518645235,5.657613,5.356,283.02505,1675961826874,0.41989413,4.357548,4316337489107000,1.3050407,Bike
Fix,GPS,37.4232810317,-122.1632805415,-7.814164593069534,5.9879146,5.1681423,283.0767,1675961825000,0.44888836,4.3739204,4316338489050000,5.1646504,Bike
Fix,FLP,37.4232825,-122.1632776,6.052133518645235,5.9847894,5.288,282.9997,1675961827874,0.44888836,4.3739204,4316338489050000,1.3064641,Bike
Fix,GPS,37.4232922596,-122.1633538393,-7.622247828096067,5.90336,5.2028637,284.54065,1675961826000,0.4450583,4.451255,4316339488784000,5.203629,Bike
Fix,FLP,37.4232931,-122.1633504,8.299791715991518,5.9041476,5.274,283.98984,1675961828873,0.4450583,4.451255,4316339488784000,1.301784,Bike
Fix,GPS,37.4233045906,-122.1634229595,-7.3319928425759295,6.0169425,5.2492604,285.9233,1675961827000,0.4314642,4.2424207,4316340489114000,5.2209806,Bike
Fix,FLP,37.423305,-122.1634204,2.5114285259455755,6.0159516,5.207,284.9905,1675961829874,0.4314642,4.2424207,4316340489114000,1.3094645,Bike
Fix,GPS,37.4233163544,-122.1634927055,-7.160064053653179,5.8646903,5.258591,285.07217,1675961828000,0.4410044,4.4843616,4316341488846000,5.2351575,Bike
Fix,FLP,37.4233173,-122.1634905,7.443278124849812,5.8661165,5.214,284.99994,1675961830873,0.4410044,4.4843616,4316341488846000,1.3038979,Bike
Fix,GPS,37.4233246904,-122.1635623673,-7.094565661208406,5.992243,5.239392,281.95013,1675961829000,0.46884468,4.71313,4316342488812000,5.2298455,Bike
Fix,FLP,37.4233268,-122.1635598,7.443278124849812,5.9908834,5.218,281.04373,1675961831872,0.46884468,4.71313,4316342488812000,1.3040017,Bike
Fix,GPS,37.4233318264,-122.1636328856,-7.156899689231714,6.018133,5.268109,280.99066,1675961830000,0.45305404,4.5234394,4316343488810000,5.236573,Bike
Fix,FLP,37.4233336,-122.1636307,7.110493483106978,6.017901,5.231,280.0105,1675961832873,0.45305404,4.5234394,4316343488810000,1.3027898,Bike
Fix,GPS,37.4233428481,-122.1637062844,-6.9876646890063325,6.013062,5.3627434,282.66165,1675961831000,0.47545776,4.746308,4316344488817000,5.2526574,Bike
Fix,FLP,37.4233429,-122.1637034,13.957688085424325,6.013079,5.275,281.97684,1675961833873,0.47545776,4.746308,4316344488817000,1.2999734,Bike
Fix,GPS,37.4233522963,-122.1637782272,-6.928418215879573,5.941093,5.271878,284.65714,1675961832000,0.42529443,4.1500216,4316345489151000,5.1942334,Bike
Fix,FLP,37.4233529,-122.1637755,13.134963723431667,5.9417024,5.28,283.98203,1675961834873,0.42529443,4.1500216,4316345489151000,1.2991246,Bike
Fix,GPS,37.4233619943,-122.1638460291,-6.6005182165339225,5.576894,5.295225,284.9341,1675961833000,0.41195428,4.1160574,4316346488819000,5.166446,Bike
Fix,FLP,37.4233633,-122.1638442,17.728690269347815,5.5798197,5.282,283.9993,1675961835873,0.41195428,4.1160574,4316346488819000,1.2988725,Bike
Fix,GPS,37.4233719398,-122.1639131301,-6.43339528841244,5.83795,5.302792,286.084,1675961834000,0.42506343,4.1446548,4316347489097000,5.154253,Bike
Fix,FLP,37.4233731,-122.1639106,15.046859773663948,5.835746,5.3,285.98367,1675961836874,0.42506343,4.1446548,4316347489097000,1.296142,Bike
Fix,GPS,37.423384844,-122.1639791997,-6.327245758661627,5.7549825,5.238083,287.91647,1675961835000,0.41613737,4.12663,4316348489118000,5.1306486,Bike
Fix,FLP,37.4233857,-122.1639775,13.613528902201104,5.755651,5.294,286.99142,1675961837873,0.41613737,4.12663,4316348489118000,1.2975155,Bike
Fix,GPS,37.4234000073,-122.164041164,-6.399673019451915,5.8024726,5.266769,288.02292,1675961836000,0.43047893,4.2900023,4316349488917000,5.136049,Bike
Fix,FLP,37.4234003,-122.1640407,13.613528902201104,5.802053,5.275,287.99103,1675961838873,0.43047893,4.2900023,4316349488917000,1.295297,Bike
Fix,GPS,37.4234137214,-122.1641020341,-6.100428115497037,5.6497216,5.241605,287.6203,1675961837000,0.43411216,4.588723,4316350489974000,5.1325393,Bike
Fix,FLP,37.4234146,-122.1641024,1.3229443232180245,5.651095,5.269,287.00983,1675961839874,0.43411216,4.588723,4316350489974000,1.3216523,Bike
Fix,GPS,37.4234265986,-122.1641613362,-6.046714908331866,5.778398,5.3203564,287.25,1675961838000,0.43984202,4.5012784,4316351488914000,5.1656156,Bike
Fix,FLP,37.4234276,-122.1641621,3.6950321407836526,5.777208,5.274,286.9998,1675961840873,0.43984202,4.5012784,4316351488914000,1.3059075,Bike
Fix,GPS,37.4234366076,-122.1642263972,-5.7254711807295005,5.7108464,5.367998,287.9161,1675961839000,0.43106332,4.3286633,4316352488937000,5.179755,Bike
Fix,FLP,37.4234387,-122.1642258,4.484529841319869,5.711426,5.289,286.99966,1675961841873,0.43106332,4.3286633,4316352488937000,1.3037742,Bike
Fix,GPS,37.4234467671,-122.1642959279,-5.355039465680955,5.662707,5.2889457,288.192,1675961840000,0.40681604,4.1139874,4316353489663000,5.206402,Bike
Fix,FLP,37.4234491,-122.1642931,7.169070709738264,5.663099,5.297,287.99173,1675961842874,0.40681604,4.1139874,4316353489663000,1.300854,Bike
Fix,GPS,37.4234602248,-122.1643615704,-5.272868031083387,5.688004,5.299176,287.72043,1675961841000,0.43099293,4.3436937,4316354488997000,5.252759,Bike
Fix,FLP,37.4234618,-122.1643591,11.56250947613384,5.687797,5.303,287.00842,1675961843873,0.43099293,4.3436937,4316354488997000,1.2986977,Bike
Fix,GPS,37.4234736301,-122.1644282431,-5.125036131065815,5.875423,5.3562393,285.951,1675961842000,0.4190409,4.0981026,4316355489545000,5.284176,Bike
Fix,FLP,37.4234747,-122.1644256,10.966852076638034,5.8738613,5.312,285.016,1675961844874,0.4190409,4.0981026,4316355489545000,1.298517,Bike
Fix,GPS,37.4234836765,-122.1644944456,-4.859230527063732,5.642384,5.411438,284.6999,1675961843000,0.41880766,4.296426,4316356489899000,5.306171,Bike
Fix,FLP,37.4234853,-122.1644928,5.9127791973775885,5.644314,5.344,284.00876,1675961845873,0.41880766,4.296426,4316356489899000,1.3046962,Bike
Fix,GPS,37.4234930525,-122.1645561472,-4.5300480561876535,5.513567,5.490157,283.50186,1675961844000,0.43809274,4.6634846,4316357489391000,5.361239,Bike
Fix,FLP,37.4234947,-122.1645557,5.9127791973775885,5.514759,5.369,283.00967,1675961846874,0.43809274,4.6634846,4316357489391000,1.3052713,Bike
Fix,GPS,37.4235037526,-122.1646151588,-4.179421899494529,5.4302974,5.5272894,283.90607,1675961845000,0.424222,4.528681,4316358489627000,5.376163,Bike
Fix,FLP,37.4235045,-122.1646157,12.28503407026605,5.43101,5.395,283.00003,1675961847874,0.424222,4.528681,4316358489627000,1.3004199,Bike
Fix,GPS,37.4235186324,-122.1646759588,-4.49958269619012,5.1317163,5.421326,286.65463,1675961846000,0.42302412,4.7415605,4316359489092000,5.3705864,Bike
Fix,FLP,37.4235175,-122.1646759,6.452032586787325,5.134191,5.441,285.97318,1675961848873,0.42302412,4.7415605,4316359489092000,1.3016863,Bike
Fix,GPS,37.4235323992,-122.1647328571,-4.550727888221394,5.0254545,5.4024663,285.45517,1675961847000,0.4356695,5.0609827,4316360490376000,5.3578877,Bike
Fix,FLP,37.4235317,-122.1647325,6.431330276761528,5.0264397,5.45,285.0094,1675961849875,0.4356695,5.0609827,4316360490376000,1.310202,Bike
Fix,GPS,37.4235487848,-122.1647899995,-4.0985955318374,5.1071057,5.405444,286.2418,1675961848000,0.43918267,4.9231076,4316361489088000,5.3346744,Bike
Fix,FLP,37.4235469,-122.1647891,6.452032586787325,5.106382,5.442,285.9914,1675961850874,0.43918267,4.9231076,4316361489088000,1.3264146,Bike
Fix,GPS,37.4235677736,-122.1648483761,-4.320278015648189,5.0500755,5.2542844,288.43378,1675961849000,0.41536245,4.670499,4316362489134000,5.2756104,Bike
Fix,FLP,37.4235651,-122.1648472,6.431330276761528,5.050539,5.416,287.98404,1675961851874,0.41536245,4.670499,4316362489134000,1.3179647,Bike
Fix,GPS,37.4235833318,-122.1649037198,-3.8147631443594414,4.8859487,5.303434,290.62805,1675961850000,0.39667147,4.6432285,4316363489752000,5.276145,Bike
Fix,FLP,37.4235819,-122.164903,3.843435927598122,4.8871627,5.357,289.98468,1675961852874,0.39667147,4.6432285,4316363489752000,1.3336654,Bike
Fix,GPS,37.4235985801,-122.1649590591,-3.3435986081888176,4.652557,5.2761683,286.96848,1675961851000,0.38454488,4.761711,4316364489169000,5.263043,Bike
Fix,FLP,37.4235975,-122.1649553,-9.893059178344345,4.6546025,5.323,286.03836,1675961853873,0.38454488,4.761711,4316364489169000,1.3612522,Bike
Fix,GPS,37.4236081098,-122.1650134499,-2.959167745584017,4.2591968,5.247778,280.9734,1675961852000,0.36474133,5.0943084,4316365489170000,5.239637,Bike
Fix,FLP,37.4236084,-122.1650108,-10.164185107986995,4.2615967,5.313,280.0449,1675961854873,0.36474133,5.0943084,4316365489170000,1.3726274,Bike
Fix,GPS,37.4236096258,-122.165064814,-2.487164842985179,4.2718287,5.2644773,275.1008,1675961853000,0.3759625,5.19829,4316366489154000,5.2291217,Bike
Fix,FLP,37.4236109,-122.1650528,-10.164185107986995,4.2713714,5.268,275.10474,1675961855873,0.3759625,5.19829,4316366489154000,1.5051594,Bike
Fix,GPS,37.4236080525,-122.1651172103,-1.982827847458378,4.451942,5.281369,273.96725,1675961854000,0.40179935,5.589262,4316367489460000,5.2302556,Bike
Fix,FLP,37.4236102,-122.1651069,-3.1393188377406034,4.4493074,5.27,273.0327,1675961856874,0.40179935,5.589262,4316367489460000,2.389995,Bike
Fix,GPS,37.4236094464,-122.1651687618,-2.418769708593939,4.7316146,5.275033,276.67145,1675961855000,0.39312685,5.099658,4316368489376000,5.2405877,Bike
Fix,FLP,37.4236094,-122.1651472,15.203550309948746,4.5925474,5.269,274.58502,1675961857874,0.39312685,5.099658,4316368489376000,1.3466979,Bike
Fix,GPS,37.4236135676,-122.1652211065,-2.9513645397776047,4.9606395,5.3574295,280.27985,1675961856000,0.43551612,5.1729546,4316369489220000,5.2413983,Bike
Fix,FLP,37.4236118,-122.165196,15.546257799338022,4.831536,5.274,277.9165,1675961858874,0.43551612,5.1729546,4316369489220000,1.6860979,Bike
Fix,GPS,37.4236194007,-122.1652766033,-2.9605986697333297,5.146692,5.5808096,281.1107,1675961857000,0.48146772,5.4270563,4316370489230000,5.284476,Bike
Fix,FLP,37.423618,-122.1652584,16.49256655370749,5.14004,5.309,280.96265,1675961859873,0.48146772,5.4270563,4316370489230000,3.5717878,Bike
Fix,GPS,37.4236270215,-122.1653389978,-2.4203609349754225,5.2707253,5.7340775,285.64975,1675961858000,0.51088786,5.4716835,4316371489686000,5.337526,Bike
Fix,FLP,37.423627,-122.1653298,16.49256655370749,5.269153,5.368,284.95267,1675961860873,0.51088786,5.4716835,4316371489686000,3.1952891,Bike
Fix,GPS,37.4236352768,-122.1653997784,-1.8975031625738723,5.1894975,5.792778,284.30136,1675961859000,0.5153959,5.666606,4316372489799000,5.405926,Bike
Fix,FLP,37.4236367,-122.1653952,8.118482364673326,5.1905565,5.437,284.01135,1675961861874,0.5153959,5.666606,4316372489799000,1.4213848,Bike
Fix,GPS,37.4236434078,-122.1654649374,-1.520593408035571,5.0932636,5.8581166,283.4311,1675961860000,0.4894252,5.491518,4316373489489000,5.469237,Bike
Fix,FLP,37.4236451,-122.1654602,13.5033604942721,5.0944195,5.529,283.0109,1675961862874,0.4894252,5.491518,4316373489489000,1.6473197,Bike
Fix,GPS,37.4236474781,-122.1655271942,-0.5028354906815009,5.173081,5.6736507,281.50858,1675961861000,0.4976201,5.5785565,4316374489617000,5.4758544,Bike
Fix,FLP,37.4236503,-122.1655233,13.5033604942721,5.17219,5.61,281.0227,1675961863874,0.4976201,5.5785565,4316374489617000,3.4564261,Bike
Fix,GPS,37.423650909,-122.1655947493,-0.0755471642015321,5.1565766,5.420046,281.8098,1675961862000,0.4214311,4.65622,4316375489770000,5.445907,Bike
Fix,FLP,37.4236537,-122.16559,11.012320627445078,5.1567626,5.695,280.99948,1675961864873,0.4214311,4.65622,4316375489770000,3.1881025,Bike
Fix,GPS,37.4236531782,-122.1656604883,0.1530486825630334,4.845376,5.1628914,285.75363,1675961863000,0.4052793,4.8652716,4316376489493000,5.381314,Bike
Fix,FLP,37.4236563,-122.1656562,6.908001197241106,4.847723,5.607,284.96564,1675961865873,0.4052793,4.8652716,4316376489493000,1.5464704,Bike
Fix,GPS,37.4236653518,-122.1657089776,-0.172323569551297,4.8644056,5.2108836,284.8804,1675961864000,0.42958498,5.0889387,4316377489493000,5.333896,Bike
Fix,FLP,37.4236661,-122.1657091,6.908001197241106,4.864252,5.519,284.00836,1675961866874,0.42958498,5.0889387,4316377489493000,1.4152346,Bike
Fix,GPS,37.4236769133,-122.1657643513,-0.698396875074881,4.81566,5.289163,285.6225,1675961865000,0.43699512,5.338067,4316378489382000,5.299203,Bike
Fix,FLP,37.4236718,-122.16574,11.45085209365277,4.8403006,5.311,284.477,1675961867874,0.43699512,5.338067,4316378489382000,1.657343,Bike
Fix,GPS,37.4236842866,-122.165825758,-0.1597638936579428,5.0556355,5.357931,284.12183,1675961866000,0.44488096,5.0719485,4316379489390000,5.3041415,Bike
Fix,FLP,37.4236836,-122.16581,10.594524367242272,5.05154,5.314,284.01648,1675961868874,0.44488096,5.0719485,4316379489390000,3.4652164,Bike
Fix,GPS,37.4236928387,-122.1658889358,0.4059679731339274,5.1371446,5.516878,280.21027,1675961867000,0.47120157,5.2480817,4316380489419000,5.343405,Bike
Fix,FLP,37.4236899,-122.1658598,8.838187248822493,5.090455,5.296,282.09814,1675961869873,0.47120157,5.2480817,4316380489419000,3.1792524,Bike
Fix,GPS,37.4236974339,-122.1659598503,1.183588158794172,5.2598324,5.557622,279.77734,1675961868000,0.47959384,5.1708074,4316381489377000,5.4169564,Bike
Fix,FLP,37.4236982,-122.1659425,9.998430023016184,5.2580266,5.32,279.03177,1675961870874,0.47959384,5.1708074,4316381489377000,1.4811409,Bike
Fix,GPS,37.4237046424,-122.1660261316,1.8662612722188012,5.444351,5.704341,280.4542,1675961869000,0.4993433,5.203857,4316382489642000,5.523146,Bike
Fix,FLP,37.423705,-122.1660169,5.341248549565734,5.4423122,5.385,279.98895,1675961871874,0.4993433,5.203857,4316382489642000,1.4361615,Bike
Fix,GPS,37.423713877,-122.1660823775,2.1500178680443547,5.4925003,5.8560834,285.07736,1675961870000,0.5130994,5.3086033,4316383489488000,5.6088753,Bike
Fix,FLP,37.4237138,-122.1660806,5.341248549565734,5.4916797,5.467,284.9395,1675961872873,0.5130994,5.3086033,4316383489488000,1.7046199,Bike
Fix,GPS,37.4237323031,-122.1661426493,2.3824876401517066,5.180957,5.914857,291.11917,1675961871000,0.50779635,5.6577897,4316384489410000,5.6969557,Bike
Fix,FLP,37.4237301,-122.1661419,5.341248549565734,5.1843653,5.609,290.92215,1675961873874,0.50779635,5.6577897,4316384489410000,3.4849982,Bike
Fix,GPS,37.42375018,-122.1661992845,2.75419580021,5.2030125,5.8894095,291.94833,1675961872000,0.50522125,5.7178426,4316385489442000,5.750373,Bike
Fix,FLP,37.4237489,-122.1661983,15.489644394704465,5.2028117,5.713,290.99924,1675961874874,0.50522125,5.7178426,4316385489442000,3.0786443,Bike
Fix,GPS,37.4237635938,-122.1662654989,2.6606041511396903,5.5052013,5.6824574,288.58295,1675961873000,0.46058962,4.995514,4316386489635000,5.7143435,Bike
Fix,FLP,37.4237643,-122.1662612,15.489644394704465,5.502184,5.809,288.02924,1675961875874,0.46058962,4.995514,4316386489635000,1.5014305,Bike
Fix,GPS,37.4237752667,-122.1663304996,2.4662888614745606,5.4433575,5.706975,286.3001,1675961874000,0.49013746,5.3838997,4316387489450000,5.7573676,Bike
Fix,FLP,37.4237769,-122.1663268,6.9034565382496,5.444078,5.792,286.02457,1675961876874,0.49013746,5.3838997,4316387489450000,1.4827713,Bike
Fix,GPS,37.4237787216,-122.1663854516,1.842465098910319,5.0873256,5.6129584,285.061,1675961875000,0.4885712,5.5882273,4316388489968000,5.7396684,Bike
Fix,FLP,37.4237829,-122.1663857,11.883848453614846,5.09131,5.761,285.01184,1675961877874,0.4885712,5.5882273,4316388489968000,1.7281895,Bike
Fix,GPS,37.4237760737,-122.1664341691,1.6849417739394676,5.203527,5.5281096,285.8344,1675961876000,0.48347226,5.3816175,4316389489910000,5.6892385,Bike
Fix,FLP,37.4237826,-122.1664367,12.610948241086064,5.2022095,5.683,284.99863,1675961878874,0.48347226,5.3816175,4316389489910000,3.4487448,Bike
Fix,GPS,37.4237898237,-122.1664907561,1.6215445326850535,4.8912954,5.5441666,291.20508,1675961877000,0.48564819,5.6971383,4316390489512000,5.700272,Bike
Fix,FLP,37.4237916,-122.1664918,12.610948241086064,4.894402,5.614,290.92886,1675961879874,0.48564819,5.6971383,4316390489512000,3.0815668,Bike
Fix,GPS,37.4238071284,-122.1665519368,1.8913314241922472,4.7411985,5.5039244,288.911,1675961878000,0.43245867,5.1871157,4316391489628000,5.6375813,Bike
Fix,FLP,37.4238072,-122.166549,13.930397418440236,4.74252,5.596,288.0261,1675961880874,0.43245867,5.1871157,4316391489628000,1.5962547,Bike
Fix,GPS,37.4238236956,-122.1666099379,1.8152777729030412,4.5122294,5.52427,284.46783,1675961879000,0.43949458,5.5297313,4316392489596000,5.601673,Bike
Fix,FLP,37.4238178,-122.1665905,7.218558683039788,4.5239415,5.531,284.21918,1675961881874,0.43949458,5.5297313,4316392489596000,1.600855,Bike
Fix,GPS,37.4238361593,-122.1666615177,2.08654279899623,4.4400687,5.703957,289.20615,1675961880000,0.45352614,5.870837,4316393489584000,5.6326027,Bike
Fix,FLP,37.4238298,-122.166638,3.132736667863256,4.4451365,5.547,288.5596,1675961882874,0.45352614,5.870837,4316393489584000,1.8603984,Bike
Fix,GPS,37.4238551644,-122.1667053033,2.076249329991368,4.564852,5.83941,302.89252,1675961881000,0.48257658,5.7750664,4316394489592000,5.727265,Bike
Fix,FLP,37.4238462,-122.1666877,7.218558683039788,4.5505843,5.582,301.1655,1675961883874,0.48257658,5.7750664,4316394489592000,3.468195,Bike
Fix,GPS,37.423881697,-122.1667439339,2.3807627772694078,4.9219465,6.2476864,319.95676,1675961882000,0.5368645,5.7931676,4316395489606000,5.8151345,Bike
Fix,FLP,37.4238711,-122.1667315,14.48936828705363,4.8941774,5.674,318.21985,1675961884874,0.5368645,5.7931676,4316395489606000,3.0820735,Bike
Fix,GPS,37.4239258563,-122.1667713106,2.68024455293624,5.069141,6.490199,333.14227,1675961883000,0.5547642,5.624184,4316396489627000,5.885606,Bike
Fix,FLP,37.4239107,-122.1667663,14.57276222708797,5.05696,5.781,332.54208,1675961885874,0.5547642,5.624184,4316396489627000,1.6070282,Bike
Fix,GPS,37.4239657741,-122.1667970308,2.130961818240108,4.590576,6.7318554,326.89703,1675961884000,0.5483202,6.12945,4316397489655000,5.9490314,Bike
Fix,FLP,37.423957,-122.1667928,9.491277761148424,4.601642,6.031,326.18045,1675961886873,0.5483202,6.12945,4316397489655000,1.5203493,Bike
Fix,GPS,37.4240053941,-122.1668203692,1.6687792947139992,4.343804,6.948053,320.2636,1675961885000,0.49258053,6.062314,4316398489883000,6.0242457,Bike
Fix,FLP,37.4239979,-122.1668204,9.491277761148424,4.3472238,6.327,320.09375,1675961887874,0.49258053,6.062314,4316398489883000,1.7631902,Bike
Fix,GPS,37.4240467467,-122.1668562932,0.914161247017556,4.5405827,6.9358892,321.21405,1675961886000,0.51127845,5.926019,4316399489726000,6.0756755,Bike
Fix,FLP,37.4240278,-122.166843,11.951048243240775,4.503666,6.596,320.8154,1675961888873,0.51127845,5.926019,4316399489726000,1.9452782,Bike
Fix,GPS,37.424084784,-122.1668807341,0.815261283873854,4.719297,6.959447,326.92905,1675961887000,0.5367771,5.8269954,4316400489703000,6.1478333,Bike
Fix,FLP,37.4240679,-122.1668741,15.123182865624829,4.7093205,6.76,325.76895,1675961889874,0.5367771,5.8269954,4316400489703000,3.4196157,Bike
Fix,GPS,37.424133277,-122.1668955305,0.4460045217591872,4.9300265,6.9900846,332.57465,1675961888000,0.50332934,5.167383,4316401489809000,6.182883,Bike
Fix,FLP,37.4241168,-122.1668985,15.123182865624829,4.9249635,6.87,331.8918,1675961890873,0.50332934,5.167383,4316401489809000,3.0728207,Bike
Fix,GPS,37.4241831002,-122.1669216524,0.2666304868934777,5.0522833,6.9893656,325.10593,1675961889000,0.50831455,5.251827,4316402489746000,6.274596,Bike
Fix,FLP,37.4241593,-122.1669136,4.70412830594033,5.025315,6.943,326.2713,1675961891874,0.50831455,5.251827,4316402489746000,1.6854018,Bike
Fix,GPS,37.424221213,-122.1669670493,-0.956769550873876,5.031592,6.673417,314.88544,1675961890000,0.5279416,5.601304,4316403489773000,6.225704,Bike
Fix,FLP,37.4242062,-122.1669507,15.051408812813548,5.0288997,6.942,314.45587,1675961892874,0.5279416,5.601304,4316403489773000,1.5408319,Bike
Fix,GPS,37.4242497911,-122.167011723,-1.956101048711628,4.5309186,6.749056,306.13654,1675961891000,0.5291155,6.38948,4316404489758000,6.2600594,Bike
Fix,FLP,37.4242444,-122.1670025,12.652383191006392,4.5365553,6.922,306.11584,1675961893874,0.5291155,6.38948,4316404489758000,1.9062145,Bike
Fix,GPS,37.4242726356,-122.1670621416,-2.335651953445011,4.3577285,6.5600724,293.09903,1675961892000,0.553586,7.406841,4316405489774000,6.226565,Bike
Fix,FLP,37.424268,-122.1670485,6.619167727074029,4.360333,6.863,293.4562,1675961894873,0.553586,7.406841,4316405489774000,3.421776,Bike
Fix,GPS,37.4242870718,-122.1671095217,-2.0983792980934086,4.5639787,6.5133095,289.39374,1675961893000,0.5929988,7.8313756,4316406489821000,6.2330832,Bike
Fix,FLP,37.4242853,-122.1671019,10.829942694998168,4.5592585,6.776,289.0942,1675961895874,0.5929988,7.8313756,4316406489821000,3.422697,Bike
Fix,GPS,37.4242975889,-122.1671608608,-1.4349750398519805,4.791638,6.6076684,288.2544,1675961894000,0.5502327,6.6804914,4316407490110000,6.2408094,Bike
Fix,FLP,37.4242942,-122.1671395,10.829942694998168,4.6919613,6.642,288.4237,1675961896875,0.5502327,6.6804914,4316407490110000,3.0688186,Bike
Fix,GPS,37.4243115316,-122.1672139839,-1.3667439237653594,4.869932,6.59389,291.4922,1675961895000,0.5343967,6.395215,4316408489818000,6.2522135,Bike
Fix,FLP,37.4243097,-122.1672029,-12.777231986106967,4.8675556,6.595,290.9653,1675961897874,0.5343967,6.395215,4316408489818000,1.6944106,Bike
Fix,GPS,37.4243255309,-122.1672697828,-1.8263229541413668,4.8242664,6.430488,291.66187,1675961896000,0.5140914,6.3466988,4316409489852000,6.189202,Bike
Fix,FLP,37.4243254,-122.1672635,-8.463708849103227,4.8249135,6.56,290.9992,1675961898874,0.5140914,6.3466988,4316409489852000,1.7416432,Bike
Fix,GPS,37.4243379553,-122.1673283092,-1.9974254972876224,4.679214,6.284527,292.68555,1675961897000,0.51335037,6.385429,4316410489827000,6.085224,Bike
Fix,FLP,37.4243392,-122.1673229,-5.942100478931096,4.6810856,6.502,291.9864,1675961899873,0.51335037,6.385429,4316410489827000,2.331544,Bike
Fix,GPS,37.4243509431,-122.1673859128,-1.881320290112446,4.373752,6.1620445,295.12567,1675961898000,0.47894427,6.419931,4316411489846000,5.9920907,Bike
