Fix,Provider,LatitudeDegrees,LongitudeDegrees,AltitudeMeters,SpeedMps,AccuracyMeters,BearingDegrees,UnixTimeMillis,SpeedAccuracyMps,BearingAccuracyDegrees,elapsedRealtimeNanos,VerticalAccuracyMeters,TransitType
Fix,NLP,37.4430699,-122.1701356,-10.0,,25.324,,1675806262231,,,4160772846000000,1.052938,Bike
Fix,GPS,37.4427248098,-122.170373559,7.455719454050745,,5.526123,,1675806272207,,,4160783280670789,21.08597,Bike
Fix,FLP,37.442725,-122.1703731,-10.0,1.0054495,5.526,249.87251,1675806272665,,,4160783280670789,1.1898353,Bike
Fix,GPS,37.4427630775,-122.170285272,3.807760883110791,0.0,3.8283236,,1675806273207,0.5014859,,4160784336277398,37.027832,Bike
Fix,FLP,37.4427527,-122.1703102,-10.0,1.9837065,4.713,58.34938,1675806273721,0.5014859,,4160784336277398,1.1565363,Bike
Fix,GPS,37.4427711853,-122.170297657,7.451846983150327,0.0,7.445789,,1675806274207,0.39369872,,4160785368900201,81.991196,Bike
Fix,FLP,37.4427683,-122.1702858,-10.0,2.213894,5.193,53.739693,1675806274753,0.39369872,,4160785368900201,1.272811,Bike
Fix,GPS,37.4427768855,-122.1702972296,10.313258517878008,0.0,7.322546,,1675806275207,0.4048895,,4160786401348891,15.351839,Bike
Fix,FLP,37.4427785,-122.1702824,-10.0,1.7304237,5.619,44.657677,1675806275786,0.4048895,,4160786401348891,1.2999241,Bike
Fix,GPS,37.4427615996,-122.170286294,10.834428820235011,0.0,3.553794,,1675806276206,0.36505684,,4160787398847061,16.14866,Bike
Fix,FLP,37.442769,-122.1702817,-10.0,1.0212346,5.332,58.308086,1675806276782,0.36505684,,4160787398847061,1.3173229,Bike
Fix,NLP,37.4428169,-122.1705084,-10.0,,28.943,,1675806277781,,,4160788396000000,1.3624653,Bike
Fix,FLP,37.4427735,-122.1702721,-10.0,1.0113678,12.49,58.45779,1675806277780,0.36505684,,4160788396000000,1.080861,Bike
Fix,GPS,37.4427544292,-122.1702945849,8.86978071576044,0.0,5.218051,,1675806277206,0.2926142,,4160788379311254,12.334821,Bike
Fix,FLP,37.4427423,-122.1702948,-10.0,0.12902789,10.311,148.65698,1675806278562,,,4160789177248896,1.0795853,Bike
Fix,GPS,37.4427580111,-122.1702981019,8.360881035825898,0.0,5.218058,,1675806278206,20.0,,4160789402815161,11.1725025,Bike
Fix,FLP,37.442722,-122.170301,-12.109440496198374,0.055943232,10.231,,1675806279146,,,4160789762307245,1.2250723,Bike
Fix,GPS,37.4427703372,-122.1702958604,8.542720143001699,0.0,5.21807,,1675806279999,0.3144309,,4160791200146053,9.854339,Bike
Fix,FLP,37.4427163,-122.1703015,-13.151358956519772,0.051435106,10.002,,1675806280232,,,4160790847426691,1.3473189,Bike
Fix,FLP,37.4427127,-122.1703004,-13.151358956519772,0.017025355,9.765,,1675806281316,,,4160791932548273,1.3473189,Bike
Fix,GPS,37.4427756863,-122.1703001111,9.097973394967347,0.0,5.218076,,1675806280999,0.30481657,,4160792204062883,9.442733,Bike
Fix,GPS,37.4427763686,-122.1703015215,8.992670155236242,0.0,5.218082,,1675806281999,0.30690506,,4160793131193000,9.090392,Bike
Fix,FLP,37.4427095,-122.1702981,-13.487615317744954,0.010689606,9.423,,1675806282402,,,4160793017670038,1.4485254,Bike
Fix,GPS,37.4427747437,-122.1703052672,7.548826304895897,0.0,5.218087,,1675806282999,0.30494654,,4160794131274000,8.573542,Bike
Fix,FLP,37.4427085,-122.1702964,-15.344773615305884,0.010012606,5.336,,1675806283486,,,4160794102788873,1.4470135,Bike
Fix,NLP,37.4430205,-122.1702217,-10.0,,31.383,,1675806283720,,,4160794335000000,1.8309314,Bike
Fix,FLP,37.4427105,-122.170295,-15.344773615305884,0.0130919395,5.124,,1675806284030,,,4160794645353449,1.4230986,Bike
Fix,GPS,37.4427743204,-122.1703071486,6.134293498251895,0.0,4.943203,,1675806283999,0.29731518,,4160795131215000,8.144942,Bike
Fix,FLP,37.4427117,-122.1702943,-15.021019913554497,0.01846737,5.188,,1675806284562,,,4160795177248896,1.6000907,Bike
Fix,GPS,37.4427780508,-122.1703082281,5.425760576490632,0.0,4.896949,,1675806284999,0.28035936,,4160796131265000,7.8569217,Bike
Fix,FLP,37.4427137,-122.1702905,-7.516233497383894,0.037566714,5.232,,1675806285658,,,4160796273032831,1.4045595,Bike
Fix,GPS,37.442779691,-122.1703097786,4.866055210109673,0.0,5.2181025,,1675806285999,0.3163944,,4160797131244000,7.644292,Bike
Fix,FLP,37.4427158,-122.1702886,-10.0,0.030036816,5.32,,1675806286200,,,4160796815593195,1.3704562,Bike
Fix,FLP,37.4427167,-122.1702846,-10.0,0.03108675,5.402,,1675806287284,,,4160797900710871,1.3704562,Bike
Fix,GPS,37.4427791719,-122.170309112,4.650309290557367,0.0,5.2181063,,1675806286999,0.29657766,,4160798131520000,7.4250226,Bike
Fix,NLP,37.4428979,-122.170364,-9.90000057220459,,32.91,,1675806288032,,,4160798647000000,1.5512066,Bike
Fix,FLP,37.4427177,-122.1702819,-9.90000057220459,0.018157948,5.565,,1675806287828,,,4160798443258539,1.7263755,Bike
Fix,GPS,37.4427757045,-122.170309634,4.789120410010669,0.0,5.21811,,1675806287999,0.31675813,,4160799131259000,7.2549396,Bike
Fix,FLP,37.442719,-122.1702809,-9.90000057220459,0.016230972,5.6,,1675806288369,,,4160798985826349,1.1971675,Bike
Fix,FLP,37.4427204,-122.1702805,-9.90000057220459,0.011028466,5.753,,1675806288913,,,4160799528374140,1.1971675,Bike
Fix,FLP,37.4427206,-122.1702805,-9.90000057220459,0.007639061,5.795,,1675806289455,,,4160800070939081,1.1971675,Bike
Fix,GPS,37.4427741149,-122.17031259,4.616710994098527,0.0,5.2817354,,1675806288999,0.32434326,,4160800131279000,7.2136946,Bike
Fix,GPS,37.4427735086,-122.170316186,4.35324556537835,0.0,5.3992443,,1675806289999,0.31266782,,4160801131292000,7.174483,Bike
Fix,FLP,37.4427221,-122.1702801,-7.621440691043162,0.0013727513,5.754,,1675806290541,,,4160801156050470,1.2503659,Bike
Fix,FLP,37.4427232,-122.1702806,-7.621440691043162,0.001948753,5.732,,1675806291083,,,4160801698604364,1.2503659,Bike
Fix,GPS,37.4427729206,-122.170312925,4.041664817785882,0.0,5.503414,,1675806290999,0.30913338,,4160802131382000,7.1502542,Bike
Fix,FLP,37.4427237,-122.170281,-5.979344266336909,0.0025091118,5.717,,1675806291626,,,4160802241150141,1.2619966,Bike
Fix,GPS,37.4427707223,-122.1703091994,3.827917554372789,0.0,5.564539,,1675806291999,0.3247584,,4160803131337000,7.1497416,Bike
Fix,FLP,37.4427244,-122.1702817,-5.909536220497927,0.0046639973,5.724,,1675806292711,,,4160803326264703,1.2733965,Bike
Fix,NLP,37.4426632,-122.170467,-10.0,,29.959,,1675806293051,,,4160803666000000,1.0,Bike
Fix,GPS,37.4427680349,-122.1703081853,3.858449062374754,0.0,5.5650263,,1675806292999,0.35462052,,4160804131352000,7.123802,Bike
Fix,FLP,37.4427244,-122.1702843,-10.0,0.001026261,5.728,,1675806293253,,,4160803868818903,1.0899801,Bike
Fix,GPS,37.4427717822,-122.1703084998,4.621620062048249,0.0,5.4088154,,1675806293999,0.38858253,,4160805131351000,7.036948,Bike
Fix,FLP,37.4427234,-122.1702843,-10.0,0.0080142515,5.674,,1675806294338,,,4160804953922846,1.0804973,Bike
Fix,GPS,37.4427731309,-122.1703069997,5.545321772233679,0.0,5.349478,,1675806294999,0.3914613,,4160806131362000,6.950517,Bike
Fix,FLP,37.4427232,-122.1702843,-10.0,0.0061906097,5.672,,1675806295424,,,4160806039024530,1.1732414,Bike
Fix,GPS,37.4427732916,-122.1703082171,6.484256500101726,0.0,5.3365936,,1675806295999,0.3706184,,4160807131563000,6.8611674,Bike
Fix,FLP,37.4427234,-122.1702824,-10.0,0.0017089463,5.662,,1675806296509,,,4160807124121454,1.1725004,Bike
Fix,GPS,37.4427741434,-122.1703108347,7.0380031534311325,0.0,5.3390417,,1675806296999,0.38621518,,4160808131406000,6.7823343,Bike
Fix,FLP,37.4427244,-122.170282,-10.0,0.0069893305,5.586,,1675806297562,,,4160808177248896,1.3482933,Bike
Fix,NLP,37.4428427,-122.1705546,-10.0,,97.715,,1675806298136,,,4160808751000000,1.4314839,Bike
Fix,FLP,37.4427252,-122.1702822,-10.0,0.00991845,5.522,,1675806298136,,,4160808751770380,1.2727275,Bike
Fix,GPS,37.4427786018,-122.1703122141,7.61425771340881,0.0,5.3217077,,1675806297999,0.38513407,,4160809131376000,6.6959414,Bike
Fix,FLP,37.4427254,-122.1702822,-10.0,0.008205657,5.492,,1675806298679,,,4160809294316461,1.2244341,Bike
Fix,GPS,37.4427826139,-122.1703147207,8.0634619412377,0.0,5.284018,,1675806298999,0.3710235,,4160810131588000,6.63417,Bike
Fix,FLP,37.4427256,-122.1702821,-12.147778916664208,0.005792812,5.46,,1675806299221,,,4160809836864313,1.2260057,Bike
Fix,GPS,37.4427810184,-122.1703195213,9.004734597651893,0.0,5.2289205,,1675806299999,0.36328003,,4160811131440000,6.5593433,Bike
Fix,FLP,37.4427259,-122.1702827,-13.62965978769725,0.005417311,5.44,,1675806300306,,,4160810921959345,1.2334807,Bike
Fix,GPS,37.4427774754,-122.1703212438,10.0506208515204,0.0,5.1486845,,1675806300999,0.36864513,,4160812131443000,6.4775863,Bike
Fix,FLP,37.4427258,-122.1702823,-13.489076528331324,0.0020235688,5.399,,1675806301392,,,4160812007046625,1.2953799,Bike
Fix,GPS,37.4427761175,-122.1703209704,10.394807596947915,0.0,5.15388,,1675806301999,0.35963857,,4160813131467000,6.418593,Bike
Fix,FLP,37.4427259,-122.1702825,-10.0,0.0016409626,5.399,,1675806302477,,,4160813092135492,1.2821784,Bike
Fix,NLP,37.4426279,-122.1705574,-10.0,,41.52,,1675806303109,,,4160813724000000,1.2638735,Bike
Fix,FLP,37.4427257,-122.1702824,-10.0,0.0007159305,5.349,,1675806303019,,,4160813634677973,1.2050542,Bike
Fix,GPS,37.4427690302,-122.1703258662,10.703258937941955,1.0784374,5.1818495,232.63106,1675806302999,0.31518608,16.280327,4160814131492000,6.3797054,Bike
Fix,FLP,37.4427255,-122.1702822,-10.0,0.0020100623,5.257,,1675806303562,,,4160814177222284,1.5192841,Bike
Fix,GPS,37.4427580683,-122.1703326968,10.41554284164138,0.88041,5.030149,213.87973,1675806303999,0.32362533,18.718971,4160815131516000,6.3254156,Bike
Fix,FLP,37.4427229,-122.1702811,-18.600175954183584,0.44348672,5.233,188.49838,1675806304647,,,4160815262289484,1.2120174,Bike
Fix,FLP,37.4427193,-122.1702785,-18.600175954183584,0.6138452,5.166,175.07483,1675806305188,,,4160815804844781,1.2120174,Bike
Fix,GPS,37.4427428092,-122.1703345929,5.6285364503793405,0.72900933,4.8060412,222.81847,1675806304999,0.070922226,10.0,4160816131520000,5.8274407,Bike
Fix,GPS,37.4427331521,-122.1703395526,5.376710408262015,0.51967764,4.769794,202.62212,1675806305999,0.31705964,27.885384,4160817131529000,5.754464,Bike
Fix,FLP,37.4427167,-122.1702792,-18.26916405734612,0.68384695,4.986,167.13869,1675806306273,,,4160816889930414,1.3971393,Bike
Fix,FLP,37.4427167,-122.1702826,-18.26916405734612,0.5763267,4.89,172.11351,1675806307341,,,4160817956000000,1.3971393,Bike
Fix,GPS,37.442723599,-122.1703355934,5.255055289515321,0.5343097,4.587292,184.69508,1675806306999,0.3141059,29.133953,4160818131549000,5.6307793,Bike
Fix,NLP,37.4427828,-122.170474,-10.0,,33.142,,1675806308163,,,4160818778000000,1.4712082,Bike
Fix,FLP,37.4427175,-122.1702867,0.2247148646777077,0.52230364,4.59,173.21231,1675806307902,,,4160818517555964,1.2156605,Bike
Fix,GPS,37.442716521,-122.1703336633,5.476955234781527,0.8375269,4.677185,117.17356,1675806307999,0.35758606,24.324202,4160819131543000,5.525919,Bike
Fix,FLP,37.4427185,-122.1702891,0.8544952858137407,0.5066752,4.371,173.27956,1675806308444,,,4160819060094476,1.2581747,Bike
Fix,GPS,37.4427129007,-122.1703195247,5.12856137803895,1.5352091,4.7306952,107.35546,1675806308999,0.4122934,15.230584,4160820131538000,5.4808965,Bike
Fix,FLP,37.4427164,-122.1702885,-17.36610089583226,0.6316206,4.264,155.14967,1675806309530,,,4160820145169916,1.2718301,Bike
Fix,GPS,37.4427105252,-122.1702938443,4.549296313178075,2.1749444,4.8754735,84.04158,1675806309999,0.3666069,11.2629175,4160821131560000,5.420731,Bike
Fix,FLP,37.4427124,-122.170283,-5.942783623459533,0.991671,4.197,141.72823,1675806310615,,,4160821230247248,1.4334337,Bike
Fix,FLP,37.4427095,-122.1702756,-5.942783623459533,1.1913148,4.507,105.7453,1675806311157,,,4160821772787043,1.4334337,Bike
Fix,GPS,37.4427185815,-122.1702645883,4.167568086526781,3.3330314,5.005226,58.904343,1675806310999,0.37977958,10.0,4160822131618000,5.407953,Bike
Fix,FLP,37.4427107,-122.1702716,-27.62445840100591,1.3568591,4.796,85.258575,1675806311700,,,4160822315327143,1.3216527,Bike
Fix,FLP,37.442713,-122.1702541,-27.62445840100591,2.9088056,5.219,44.036335,1675806312241,,,4160822857863947,1.3216527,Bike
Fix,GPS,37.4427400971,-122.1702278692,4.348429264423447,3.6767657,5.102817,45.617195,1675806311999,0.38331828,10.0,4160823131607000,5.415711,Bike
Fix,NLP,37.4428027,-122.1704726,-10.100000381469728,,37.616,,1675806313208,,,4160823824000000,1.6837437,Bike
Fix,FLP,37.4427297,-122.1702282,22.17626479499909,3.5603142,6.009,41.218857,1675806312785,,,4160823400403986,1.2803196,Bike
Fix,FLP,37.442738,-122.1702205,22.17626479499909,3.5739388,6.34,41.09407,1675806313327,,,4160823942940363,1.2803196,Bike
Fix,GPS,37.442772397,-122.1701925689,5.188196707270366,4.10663,4.969849,35.431038,1675806312999,0.07262583,10.0,4160824131617000,5.1830387,Bike
Fix,FLP,37.44277,-122.17018,22.17626479499909,4.08573,7.437,39.58477,1675806314413,,,4160825028012811,1.2856603,Bike
Fix,GPS,37.4428045163,-122.1701636445,5.112857930679983,4.4006915,4.7726483,36.590405,1675806313999,0.3139551,10.0,4160825131675000,5.0959096,Bike
Fix,FLP,37.4428048,-122.1701372,8.208851665888375,4.3535776,7.927,40.281567,1675806315498,,,4160826113090998,1.3411453,Bike
Fix,GPS,37.4428364671,-122.1701306117,4.7469050839076266,4.179067,4.779826,43.524067,1675806314999,0.32152656,10.0,4160826131652000,5.0568385,Bike
Fix,FLP,37.4428348,-122.1701004,8.208851665888375,4.223212,8.037,44.15416,1675806316040,,,4160826655626153,1.2995346,Bike
Fix,GPS,37.4428656081,-122.1700949559,4.4477825736452745,4.341937,4.7895303,46.952145,1675806315999,0.33575398,10.0,4160827131662000,5.045244,Bike
Fix,FLP,37.4428389,-122.1700938,8.208851665888375,4.2142997,8.107,45.088417,1675806316561,,,4160827177248896,1.3095945,Bike
Fix,FLP,37.4428635,-122.1700633,8.208851665888375,4.311125,8.115,45.386414,1675806317125,,,4160827740703058,1.3095945,Bike
Fix,GPS,37.4428941645,-122.1700558103,4.388520454752995,4.7430778,4.810978,47.698032,1675806316999,0.3574331,10.0,4160828131721000,5.0603437,Bike
Fix,FLP,37.44287,-122.1700549,3.8204258333886822,4.3446655,8.076,46.137497,1675806317667,,,4160828283237726,1.4049731,Bike
Fix,FLP,37.4428943,-122.1700261,3.8204258333886822,4.6430683,8.162,45.955456,1675806318218,,,4160828833000000,1.4049731,Bike
Fix,GPS,37.4429254312,-122.1700151126,4.411868857609359,4.5140705,5.416078,44.993187,1675806317999,0.041648984,10.0,4160829131707000,4.8588324,Bike
Fix,GPS,37.4429566516,-122.1699790856,4.505742983978039,4.3993754,5.259476,43.546436,1675806318999,0.03856493,10.0,4160830131796000,4.7611604,Bike
Fix,FLP,37.4429324,-122.1699753,-18.81043065536386,4.565891,8.383,45.08988,1675806319295,,,4160829910834039,1.4370844,Bike
Fix,GPS,37.4429886079,-122.1699378391,3.73323943310816,4.159753,5.6496997,44.08942,1675806319999,0.034908835,10.0,4160831131732000,4.58311,Bike
Fix,FLP,37.4429636,-122.1699353,-15.751665160541734,4.4490995,8.437,44.569424,1675806320379,,,4160830995914972,1.366602,Bike
Fix,GPS,37.4430141206,-122.1698999872,3.874904300306726,4.0621862,5.053026,42.791676,1675806320999,0.030483935,10.0,4160832131768000,4.4229155,Bike
Fix,FLP,37.4429925,-122.1698951,-12.994809540421414,4.230803,8.679,41.704994,1675806321464,,,4160832080979852,1.3759019,Bike
Fix,GPS,37.4430428643,-122.1698605579,3.940700741454105,3.888556,4.673359,51.843727,1675806321999,0.033328947,10.0,4160833131771000,4.278912,Bike
Fix,FLP,37.4430251,-122.1698574,-10.100000381469728,4.115625,8.772,46.42954,1675806322551,,,4160833166052912,1.3210016,Bike
Fix,GPS,37.4430568202,-122.1698217404,4.088341229120082,3.6670241,4.673085,62.314396,1675806322999,0.027987614,10.0,4160834131782000,4.1676836,Bike
Fix,FLP,37.4430507,-122.1698202,-10.100000381469728,3.978371,8.757,53.457794,1675806323635,,,4160834251121088,1.4413518,Bike
Fix,FLP,37.4430621,-122.1697904,-10.100000381469728,3.7414837,8.626,64.50666,1675806324178,,,4160834793655695,1.4413518,Bike
Fix,GPS,37.4430633529,-122.1697820603,3.894725081928251,3.4000623,4.9485097,82.0649,1675806323999,0.027015572,10.0,4160835131773000,4.095278,Bike
Fix,FLP,37.4430615,-122.1697673,-11.994107236861083,3.4639888,8.511,76.86582,1675806324698,,,4160835314381752,1.2620921,Bike
Fix,GPS,37.4430576806,-122.1697411841,3.692970849622355,3.4914715,4.948506,98.567085,1675806324999,0.050402157,10.0,4160836131799000,4.0047636,Bike
Fix,FLP,37.4430594,-122.1697415,-10.100000381469728,3.3841016,8.439,90.47775,1675806325263,,,4160835878722284,1.2712879,Bike
Fix,FLP,37.4430548,-122.1697298,-10.100000381469728,3.4531927,8.477,95.9684,1675806325806,,,4160836421254389,1.2712879,Bike
Fix,GPS,37.4430445289,-122.1696995774,3.611412530270101,3.8014398,4.92698,109.52175,1675806325999,0.05312326,10.0,4160837131879000,3.9249966,Bike
Fix,FLP,37.4430488,-122.1697025,-6.9787440087760615,3.4752522,8.415,101.02949,1675806326347,,,4160836963790826,1.1744052,Bike
Fix,GPS,37.4430288358,-122.1696558652,3.4992707908577603,3.7967982,4.9484997,110.921776,1675806326999,0.2973583,10.0,4160838132040000,3.9143078,Bike
Fix,FLP,37.4430343,-122.1696636,20.38816402294593,3.6919093,8.426,114.25201,1675806327433,,,4160838048853937,1.1689001,Bike
Fix,GPS,37.4430005371,-122.1696142991,3.1803197614065803,4.3359613,4.991127,128.63803,1675806327999,0.057128433,10.0,4160839131851000,3.8439202,Bike
Fix,FLP,37.443015,-122.1696229,19.22447872612443,3.7933433,8.384,119.5927,1675806328517,,,4160839133919062,1.1779267,Bike
Fix,GPS,37.4429710954,-122.1695716092,3.1024779274565333,4.4741,4.9484916,132.59474,1675806328999,0.258676,10.0,4160840131866000,3.8399317,Bike
Fix,FLP,37.4429889,-122.1695861,-6.473669797315452,4.1876793,8.49,130.90016,1675806329561,,,4160840177248896,1.1880212,Bike
Fix,GPS,37.4429397564,-122.1695296322,3.0550497181764604,4.324905,4.948488,131.26001,1675806329999,0.25014699,10.0,4160841131882000,3.8594406,Bike
Fix,FLP,37.442955,-122.1695448,-16.235130034579896,4.4558597,8.47,133.44054,1675806330688,,,4160841304047724,1.3032779,Bike
Fix,GPS,37.4429073283,-122.1694874727,2.959488444491416,4.252098,4.6018786,132.9888,1675806330999,0.25861716,10.0,4160842132078000,3.8809144,Bike
Fix,FLP,37.4429264,-122.1695061,-16.472184575627338,4.361429,8.434,132.04044,1675806331231,,,4160841846578241,1.4227375,Bike
Fix,FLP,37.4428938,-122.1694627,-16.472184575627338,4.3064637,8.368,133.82932,1675806332316,,,4160842931641535,1.4227375,Bike
Fix,GPS,37.4428766939,-122.1694471493,3.2429808577158545,4.320054,4.466495,132.8798,1675806331999,0.03702592,10.0,4160843131892000,3.7851496,Bike
Fix,GPS,37.4428456195,-122.1694070571,3.1323166788644325,4.253502,4.9484744,134.22151,1675806332999,0.03754221,10.0,4160844131931000,3.7311428,Bike
Fix,FLP,37.4428589,-122.16942,-12.9243414245677,4.3319693,8.497,134.0393,1675806333401,,,4160844016704218,1.439169,Bike
Fix,GPS,37.442816816,-122.1693675059,3.1481988124345555,4.1567245,4.948469,132.50165,1675806333999,0.03711875,10.0,4160845131951000,3.6826727,Bike
Fix,FLP,37.4428261,-122.1693797,-12.299804469327997,4.2947707,8.599,133.44424,1675806334486,,,4160845101766291,1.4365014,Bike
Fix,GPS,37.442788681,-122.1693286701,3.1029326637518584,4.108453,4.669801,133.5652,1675806334999,0.2543,10.0,4160846131994000,3.7031956,Bike
Fix,FLP,37.4427955,-122.1693384,-10.100000381469728,4.2053185,8.523,132.84148,1675806335562,,,4160846177248896,1.4601169,Bike
Fix,GPS,37.4427599714,-122.1692902906,2.99564863328622,4.046933,4.669527,133.57214,1675806335999,0.027058834,10.0,4160847131999000,3.6523097,Bike
Fix,FLP,37.442762,-122.1692969,-10.100000381469728,4.158197,8.432,133.60648,1675806336656,,,4160847271888544,1.5507089,Bike
Fix,GPS,37.4427313777,-122.1692533358,2.913598786469503,3.992801,4.6692524,136.29193,1675806336999,0.022003299,10.0,4160848132018000,3.5978239,Bike
Fix,FLP,37.4427384,-122.1692697,-11.743035308618287,4.0515246,8.283,133.26384,1675806337199,,,4160847814420038,1.5272573,Bike
Fix,GPS,37.4427059156,-122.1692222883,2.923337596884917,3.6431794,4.9484463,137.2679,1675806337999,0.028637836,10.0,4160849132035000,3.5517588,Bike
Fix,FLP,37.442708,-122.169236,-10.100000381469728,4.017914,8.265,136.61464,1675806338284,,,4160848899480341,1.9425426,Bike
Fix,GPS,37.4426829762,-122.1691951679,2.63900652246918,3.1135204,4.4767256,136.7048,1675806338999,0.028135266,10.0,4160850132022000,3.5091755,Bike
Fix,FLP,37.442677,-122.1692062,-10.100000381469728,3.7143888,8.313,136.19545,1675806339368,,,4160849984539972,1.6152202,Bike
Fix,GPS,37.4426642284,-122.1691695703,2.7007899173048164,2.9273782,4.089289,130.40993,1675806339999,0.027629983,10.0,4160851132057000,3.4601836,Bike
Fix,FLP,37.4426563,-122.1691745,-10.100000381469728,3.198015,8.322,133.30031,1675806340453,,,4160851069599237,1.5406436,Bike
Fix,GPS,37.4426478067,-122.1691470172,2.663431005938825,2.941421,4.668149,130.91481,1675806340999,0.025912015,10.0,4160852132072000,3.3965533,Bike
Fix,FLP,37.4426383,-122.1691439,-10.100000381469728,2.9676616,8.302,126.37314,1675806341539,,,4160852154658136,1.4722003,Bike
Fix,GPS,37.4426298163,-122.1691200249,2.698059922415017,2.7644088,4.0116363,136.59775,1675806341999,0.2166916,10.0,4160853132076000,3.4157462,Bike
Fix,FLP,37.4426174,-122.1691164,-10.100000381469728,2.9479632,8.389,135.63469,1675806342624,,,4160853239716669,1.4528686,Bike
Fix,GPS,37.4426127166,-122.1691005509,2.67278595346499,2.4268804,4.0116386,140.48717,1675806342999,0.03618003,10.0,4160854132095000,3.3608775,Bike
Fix,FLP,37.4425955,-122.1690921,-10.100000381469728,2.7922819,7.945,142.57855,1675806343708,,,4160854324775019,1.5787883,Bike
Fix,GPS,37.4425949044,-122.1690811629,2.923889993409266,1.7983541,4.66732,133.40373,1675806343999,0.2670944,10.0,4160855132106000,3.3939805,Bike
Fix,FLP,37.4425886,-122.1690821,-6.844758764733726,2.4490438,7.505,141.93036,1675806344252,,,4160854867302851,1.5470631,Bike
Fix,FLP,37.4425747,-122.1690697,-6.844758764733726,1.8571309,7.716,132.24078,1675806345337,,,4160855952000000,1.5470631,Bike
Fix,GPS,37.4425933732,-122.1690782727,3.2195130545391195,0.32318377,4.667042,104.8538,1675806344999,0.06390803,10.0,4160856132360000,3.3563454,Bike
Fix,FLP,37.4425808,-122.169057,8.717509531307641,0.417337,7.842,95.510735,1675806346422,,,4160857037418818,1.5563593,Bike
Fix,GPS,37.4425901004,-122.1690725937,3.592267555069789,0.0,4.0895743,104.8538,1675806345999,0.25575954,180.0,4160857132326000,3.3822556,Bike
Fix,FLP,37.4425856,-122.1690636,11.93820582421975,0.060434833,7.689,,1675806346954,,,4160857569000000,1.5653683,Bike
Fix,GPS,37.442590426,-122.1690715133,3.49228284249534,0.0,4.6664853,104.8538,1675806346999,0.1798481,76.44141,4160858132142000,3.4021432,Bike
Fix,FLP,37.4425839,-122.1690626,11.723236442865256,0.004663796,7.485,,1675806347507,,,4160858122476740,1.6158835,Bike
Fix,GPS,37.4425875456,-122.1690789793,2.657056322216171,0.0,4.659876,104.8538,1675806347999,0.019504428,180.0,4160859132106000,3.3049173,Bike
Fix,FLP,37.4425765,-122.1690669,9.277537333810486,0.0022735482,7.289,,1675806348562,,,4160859177248896,1.6566697,Bike
Fix,GPS,37.442582596,-122.1690757782,2.415227830867122,0.0,4.6595984,104.8538,1675806348999,0.018077133,180.0,4160860132117000,3.2356467,Bike
Fix,FLP,37.4425748,-122.169073,5.945069871712192,0.0010456168,6.936,,1675806349134,,,4160859750065485,1.8041514,Bike
Fix,GPS,37.4425808304,-122.1690749341,2.344066962106935,0.0,4.9669843,104.8538,1675806349999,0.015884755,17.265148,4160861132131000,3.1727445,Bike
Fix,FLP,37.4425732,-122.1690775,-0.7911187141010032,0.0009666944,6.333,,1675806350219,,,4160860835123224,1.9944929,Bike
Fix,FLP,37.4425726,-122.1690775,-0.7911187141010032,0.00034751912,5.748,,1675806351304,,,4160861920197016,1.9944929,Bike
Fix,GPS,37.4425805169,-122.1690738523,2.5571330995003065,0.0,4.659043,104.8538,1675806350999,0.1963997,64.41539,4160862132140000,3.1913092,Bike
Fix,NLP,37.4421905,-122.1697504,-10.200000762939451,,88.11,,1675806346807,,,4160857423000000,3.637377,Bike
Fix,FLP,37.4425736,-122.1690762,-4.26538074471479,0.0,5.113,,1675806351846,,,4160862462733881,1.2462695,Bike
Fix,GPS,37.4425807794,-122.1690759978,2.641372542745257,0.0,4.6587644,104.8538,1675806351999,0.29549783,180.0,4160863132173000,3.249844,Bike
Fix,FLP,37.4425726,-122.1690756,-5.269013546003762,9.2789545e-05,4.21,,1675806352390,,,4160863005275080,1.2445523,Bike
Fix,FLP,37.4425733,-122.1690753,-5.269013546003762,0.0005478983,4.152,,1675806352932,,,4160863547817133,1.2445523,Bike
Fix,NLP,37.4424744,-122.169392,-10.200000762939451,,53.824,,1675806353375,,,4160863990000000,13.757364,Bike
Fix,GPS,37.4425836858,-122.1690838498,2.127047125145144,0.0,4.6584854,104.8538,1675806352999,0.06765979,68.4458,4160864132204000,3.2278101,Bike
Fix,FLP,37.4425732,-122.1690752,-10.200000762939451,0.00018194645,4.009,,1675806353475,,,4160864090362360,1.7197667,Bike
Fix,GPS,37.4425843899,-122.1690837971,2.03832672992588,0.33644497,4.10749,123.317375,1675806353999,0.087190114,12.140023,4160865132545000,3.2106013,Bike
Fix,FLP,37.4425721,-122.1690773,-10.200000762939451,0.000992736,4.006,,1675806354559,,,4160865175457147,1.2755153,Bike
Fix,FLP,37.4425725,-122.1690781,-10.200000762939451,0.30141482,3.99,165.66269,1675806355102,,,4160865718005182,1.2755153,Bike
Fix,GPS,37.4425837405,-122.1690813353,1.9580499681799024,0.66812074,4.6642537,151.72778,1675806354999,0.31287467,23.630768,4160866132270000,3.27325,Bike
Fix,FLP,37.442572,-122.1690781,-22.064987945307536,0.32760984,3.999,167.73851,1675806355645,,,4160866260559870,1.9228426,Bike
Fix,GPS,37.4425793132,-122.1690764361,2.0441499830583147,0.91765165,4.6639733,135.4667,1675806355999,0.21702348,12.708996,4160867132262000,3.2933547,Bike
Fix,FLP,37.4425713,-122.1690776,-10.200000762939451,0.6364216,3.983,170.32944,1675806356188,,,4160866803104425,1.3236048,Bike
Fix,GPS,37.4425734962,-122.1690624067,2.1241775669958454,2.0518532,4.4732466,131.01012,1675806356999,0.2551438,10.0,4160868132229000,3.3231325,Bike
Fix,FLP,37.4425684,-122.1690779,-10.200000762939451,0.89559436,4.01,158.42076,1675806357273,,,4160867888212702,1.3332047,Bike
Fix,FLP,37.4425644,-122.1690754,-10.200000762939451,1.7703379,4.064,149.00548,1675806357812,,,4160868427000000,1.3332047,Bike
Fix,GPS,37.4425575314,-122.1690268782,2.717537283065788,3.3264394,4.663415,121.486496,1675806357999,0.030375479,10.0,4160869132401000,3.2582092,Bike
Fix,FLP,37.442558,-122.1690701,-10.200000762939451,2.0142453,4.251,141.9197,1675806358358,,,4160868973319635,1.3332047,Bike
Fix,NLP,37.4432966,-122.1695846,-10.300000190734863,,142.5,,1675806358475,,,4160869090000000,49.510414,Bike
Fix,GPS,37.4425414891,-122.1689904469,2.562079794486969,3.5963924,4.210301,121.97388,1675806358999,0.031643953,10.0,4160870132279000,3.20041,Bike
Fix,FLP,37.4425478,-122.1690414,19.82578939244381,3.124557,4.747,126.85353,1675806359443,,,4160870058417414,1.0500374,Bike
Fix,GPS,37.4425274301,-122.1689486328,2.533554470257508,3.9960196,4.6628575,116.2608,1675806359999,0.020083122,10.0,4160871132306000,3.1397521,Bike
Fix,FLP,37.4425325,-122.1689999,9.79649032952176,3.5566523,5.698,120.37266,1675806360528,,,4160871143536676,1.1676189,Bike
Fix,GPS,37.4425121534,-122.1689053088,2.625602787408829,4.066774,4.962184,108.60334,1675806360999,0.22084986,10.0,4160872132331000,3.1634517,Bike
Fix,FLP,37.4425166,-122.1689464,11.104775250459468,3.9584894,6.339,113.87862,1675806361613,,,4160872228635370,1.1640588,Bike
Fix,GPS,37.4425075094,-122.1688578827,2.228928615768701,4.495004,4.0542383,99.00298,1675806361999,0.04666041,10.0,4160873132337000,3.110424,Bike
Fix,FLP,37.4425049,-122.1688893,15.303556797249854,4.094075,6.828,101.8493,1675806362698,,,4160873313756220,1.1626812,Bike
Fix,NLP,37.4432502,-122.169589,-10.200000762939451,,92.9,,1675806363527,,,4160874142000000,7.432705,Bike
Fix,FLP,37.4425033,-122.1688382,15.303556797249854,4.4419246,7.556,94.83139,1675806363241,,,4160873856311762,1.1587778,Bike
Fix,GPS,37.4425023243,-122.1688084235,2.0460151210517323,4.816492,3.9382508,91.24092,1675806362999,0.2624388,10.0,4160874132344000,3.1409543,Bike
Fix,FLP,37.4425034,-122.1688103,15.303556797249854,4.749408,7.615,92.16703,1675806363783,,,4160874398864862,1.179253,Bike
Fix,GPS,37.4425157681,-122.1687563544,2.692441333610443,4.9412766,4.070556,74.49823,1675806363999,0.09604337,10.0,4160875132343000,3.1258702,Bike
Fix,FLP,37.4425037,-122.1687731,6.338485207804951,4.787716,7.544,86.912125,1675806364325,,,4160874941420038,1.1890771,Bike
Fix,FLP,37.4425188,-122.1687156,6.338485207804951,4.8381176,7.392,73.144615,1675806365411,,,4160876026515497,1.1890771,Bike
Fix,GPS,37.4425279942,-122.1687012277,2.5957349659125994,4.8964043,4.0969105,72.26039,1675806364999,0.26655033,10.0,4160876132413000,3.1704962,Bike
Fix,FLP,37.4425396,-122.1686569,-10.200000762939451,4.867116,7.285,66.56491,1675806366496,,,4160877111632685,1.4085392,Bike
Fix,GPS,37.4425432672,-122.1686476111,2.5267740212076637,4.9267416,3.937925,63.576782,1675806365999,0.28088212,10.0,4160877132398000,3.246805,Bike
Fix,FLP,37.4425506,-122.1686313,-14.40150879649616,4.8713245,7.2,60.61728,1675806366999,,,4160877614000000,2.1401274,Bike
Fix,GPS,37.4425662028,-122.1686017083,2.436822430031492,4.6598473,3.8755405,48.847874,1675806366999,0.24307713,10.0,4160878132393000,3.3352594,Bike
Fix,FLP,37.442562,-122.1686132,-14.40150879649616,4.90351,7.052,53.237495,1675806367562,,,4160878177248896,2.5114446,Bike
Fix,FLP,37.442582,-122.1685822,-14.40150879649616,4.722641,6.901,46.38595,1675806368124,,,4160878739287470,2.5114446,Bike
Fix,GPS,37.4425960418,-122.1685667754,1.775793322788558,4.8037004,3.8754652,42.42831,1675806367999,0.25048137,10.0,4160879132402000,3.4280097,Bike
Fix,FLP,37.4425937,-122.1685681,-10.200000762939451,4.719361,6.873,44.317394,1675806368666,,,4160879281839472,2.5278468,Bike
Fix,GPS,37.4426287258,-122.1685315325,1.4256199014972413,5.215163,3.9375985,42.95691,1675806368999,0.28465194,10.0,4160880132414000,3.5309322,Bike
Fix,FLP,37.4426244,-122.1685347,9.175445851658507,5.2000294,6.66,42.018032,1675806369517,0.28465194,10.0,4160880132414000,2.4928026,Bike
Fix,GPS,37.4426645759,-122.1684916105,1.182969169091776,5.419869,4.011711,41.20295,1675806369999,0.24464895,10.0,4160881132713000,3.5929272,Bike
Fix,FLP,37.4426629,-122.1684928,-4.671483469941776,5.4155273,6.35,41.015793,1675806370517,0.24464895,10.0,4160881132713000,2.7841313,Bike
Fix,GPS,37.4427023443,-122.1684529375,0.8542435707145833,5.4239306,4.011715,42.690083,1675806370999,0.24008542,10.0,4160882132479000,3.633903,Bike
Fix,FLP,37.4427014,-122.1684528,14.84096252424385,5.4235983,5.89,41.97745,1675806371517,0.24008542,10.0,4160882132479000,3.0486465,Bike
Fix,GPS,37.4427408907,-122.1684122877,0.0739506411524276,5.5821905,4.0117188,42.67053,1675806371999,0.27121767,10.0,4160883132460000,3.68414,Bike
Fix,FLP,37.4427399,-122.1684121,14.84096252424385,5.57855,5.046,41.99542,1675806372517,0.27121767,10.0,4160883132460000,2.8545763,Bike
Fix,GPS,37.4427820749,-122.1683710673,0.3692777640811825,5.6865067,3.876372,43.252026,1675806372999,0.23659587,10.0,4160884132762000,3.71174,Bike
Fix,FLP,37.4427806,-122.1683707,1.6308485424873282,5.6838713,4.398,42.973392,1675806373516,0.23659587,10.0,4160884132762000,2.8645663,Bike
Fix,GPS,37.442823015,-122.1683283457,0.3012319951072764,5.615198,4.0117254,43.40472,1675806373999,0.2539896,10.0,4160885132525000,3.744876,Bike
Fix,FLP,37.4428214,-122.1683278,1.6308485424873282,5.6168914,3.984,42.998734,1675806374517,0.2539896,10.0,4160885132525000,2.981297,Bike
Fix,GPS,37.4428620726,-122.1682845414,0.3329445733177278,5.428631,4.388163,42.432693,1675806374999,0.23734076,10.0,4160886132549000,3.9040635,Bike
Fix,FLP,37.4428609,-122.1682845,-10.200000762939451,5.432971,4.052,42.025837,1675806375516,0.23734076,10.0,4160886132549000,2.935594,Bike
Fix,GPS,37.4429011465,-122.1682427985,0.3687810143232263,5.400663,4.652049,41.43466,1675806375999,0.2434615,10.0,4160887132815000,4.011965,Bike
Fix,FLP,37.4428999,-122.168243,-15.30250386549622,5.40167,4.188,41.0231,1675806376517,0.2434615,10.0,4160887132815000,2.6380439,Bike
Fix,GPS,37.4429410368,-122.1682001983,0.6498831022719185,5.2958264,4.0530515,42.547012,1675806376999,0.022928415,10.0,4160888132553000,3.75317,Bike
Fix,FLP,37.4429396,-122.168201,-15.696006932667586,5.297823,4.196,41.982227,1675806377517,0.022928415,10.0,4160888132553000,2.635243,Bike
Fix,GPS,37.4429744908,-122.1681614353,0.7056886603328274,5.149467,3.93662,44.31281,1675806377999,0.020346252,10.0,4160889132574000,3.6585069,Bike
Fix,FLP,37.4429747,-122.1681612,-13.33103503366479,5.1520476,4.153,43.96213,1675806378516,0.020346252,10.0,4160889132574000,2.882496,Bike
Fix,GPS,37.4430099137,-122.168121053,0.6050074014227416,5.057416,3.874638,43.276737,1675806378999,0.024986455,10.0,4160890132612000,3.5622127,Bike
Fix,FLP,37.4430093,-122.168121,-12.470311335778618,5.059233,4.181,43.01871,1675806379517,0.024986455,10.0,4160890132612000,2.7080302,Bike
Fix,GPS,37.4430436811,-122.1680807001,0.520522706362518,4.8889456,3.874563,44.613274,1675806379999,0.020800142,10.0,4160891132792000,3.4804792,Bike
Fix,FLP,37.4430433,-122.1680811,-10.200000762939451,4.891791,4.083,43.983936,1675806380516,0.020800142,10.0,4160891132792000,2.6893055,Bike
Fix,GPS,37.4430762029,-122.1680410905,0.6876381337942705,4.789366,3.874488,43.661736,1675806380999,0.02251108,10.0,4160892132762000,3.4084992,Bike
Fix,FLP,37.4430726,-122.1680455,-10.200000762939451,4.7925277,4.027,43.03097,1675806381517,0.02251108,10.0,4160892132762000,2.694403,Bike
Fix,GPS,37.4431101391,-122.1680056456,0.9550788858899112,4.685602,3.9361858,42.221195,1675806381999,0.025612399,10.0,4160893132670000,3.3394709,Bike
Fix,FLP,37.4431081,-122.1680065,-10.200000762939451,4.687474,3.903,42.018356,1675806382517,0.025612399,10.0,4160893132670000,2.6546545,Bike
Fix,GPS,37.4431416837,-122.1679734074,1.0403833154382198,4.6144347,4.0117598,40.688995,1675806382999,0.023105266,10.0,4160894132652000,3.2856672,Bike
Fix,FLP,37.443141,-122.1679726,-10.200000762939451,4.615876,3.916,40.033504,1675806383517,0.023105266,10.0,4160894132652000,2.6646645,Bike
Fix,GPS,37.443171972,-122.1679369826,0.8248648098361494,4.538139,3.8744915,42.69852,1675806383999,0.021841826,10.0,4160895132662000,3.2200282,Bike
Fix,FLP,37.4431722,-122.1679376,-10.200000762939451,4.539009,3.92,41.972157,1675806384517,0.021841826,10.0,4160895132662000,2.6869204,Bike
Fix,GPS,37.4432018253,-122.1679016756,0.7902760328265088,4.4790826,3.8744652,42.353745,1675806384999,0.021614216,10.0,4160896132668000,3.1590989,Bike
Fix,FLP,37.4432021,-122.1679022,-10.200000762939451,4.4799333,3.917,42.000977,1675806385516,0.021614216,10.0,4160896132668000,2.584938,Bike
Fix,GPS,37.4432311703,-122.1678674283,0.5754933683239225,4.3613305,4.011771,42.012783,1675806385999,0.021341156,10.0,4160897132692000,3.1009278,Bike
Fix,FLP,37.4432147,-122.1678859,-10.200000762939451,3.8899918,4.417,163.37975,1675806386616,,,4160897231011224,2.5726311,Bike
Fix,NLP,37.4436006,-122.1684823,-11.300000190734863,,80.509,,1675806387442,,,4160898057000000,6.138074,Bike
Fix,FLP,37.4432143,-122.1678679,-11.300000190734863,3.026598,4.897,55.143223,1675806387158,,,4160897773541009,2.6754234,Bike
Fix,GPS,37.4432596734,-122.1678353252,0.5156672639024855,4.3225503,4.011775,42.207256,1675806386999,0.022968277,1.0,4160898132683000,3.0395534,Bike
Fix,GPS,37.4432886869,-122.1677994369,0.4057576195408632,4.3283305,4.0117793,45.951775,1675806387999,0.02304538,1.0,4160899132717000,3.0,Bike
Fix,FLP,37.4432678,-122.1678201,-11.300000190734863,4.2592425,5.93,43.22178,1675806388242,,,4160898858624750,3.0808966,Bike
Fix,FLP,37.4432913,-122.1677954,-11.300000190734863,4.3282943,5.948,44.99976,1675806388516,0.02304538,1.0,4160899132717000,2.984971,Bike
Fix,GPS,37.4433156157,-122.1677657881,0.2858178412633881,4.371797,4.011783,44.007893,1675806388999,0.023122482,1.0,4160900132724000,3.0,Bike
Fix,FLP,37.4433019,-122.1677825,-11.300000190734863,4.3502502,5.672,44.49799,1675806389517,0.023122482,1.0,4160900132724000,2.8987935,Bike
Fix,GPS,37.4433473688,-122.1677359659,0.5833615509707126,4.488466,3.8743348,36.154816,1675806389999,0.01987379,1.0,4160901132730000,3.0,Bike
Fix,FLP,37.4433362,-122.1677449,-11.300000190734863,4.488473,5.464,36.00496,1675806390517,0.01987379,1.0,4160901132730000,2.8875687,Bike
Fix,GPS,37.4433785022,-122.1677032941,0.3530944754343809,4.476791,4.014538,39.24949,1675806390999,0.02200017,1.0,4160902132723000,3.0,Bike
Fix,FLP,37.4433738,-122.1677078,-12.998950363008376,4.4768014,5.321,38.99973,1675806391516,0.02200017,1.0,4160902132723000,3.2793667,Bike
Fix,GPS,37.4434095823,-122.1676708892,0.2922617781699419,4.5042863,3.9843578,38.52221,1675806391999,0.023241725,1.0,4160903132786000,3.0,Bike
Fix,FLP,37.4434081,-122.1676725,-11.300000190734863,4.5042844,4.796,38.000156,1675806392516,0.023241725,1.0,4160903132786000,2.979058,Bike
Fix,FLP,37.4434257,-122.1676547,-11.300000190734863,4.5017967,5.049,38.539185,1675806393089,,,4160903704000000,2.979058,Bike
Fix,GPS,37.4434414285,-122.1676404382,0.4079439022567354,4.2803187,4.0117984,45.648983,1675806392999,0.3142756,4.0710273,4160904132791000,3.0,Bike
Fix,FLP,37.4434477,-122.1676324,-13.51389719892913,4.3293915,5.348,44.19981,1675806393669,,,4160904284028802,2.9800065,Bike
Fix,GPS,37.4434701224,-122.1676035089,-0.2196285684878411,4.116924,4.0118027,51.246944,1675806393999,0.29923314,4.23045,4160905132814000,3.1403825,Bike
Fix,FLP,37.4434602,-122.1676163,-11.300000190734863,4.3196535,5.608,49.3887,1675806394210,,,4160904826572931,2.9410439,Bike
Fix,FLP,37.4434726,-122.1675985,-11.300000190734863,4.1649756,5.837,50.32079,1675806394754,,,4160905369115229,2.9410439,Bike
Fix,GPS,37.443491718,-122.1675698936,-0.1710947474188659,3.4323964,4.4402037,62.855423,1675806394999,0.28699502,5.282224,4160906132849000,3.366617,Bike
Fix,FLP,37.4434837,-122.1675799,-11.300000190734863,4.157173,6.301,55.10977,1675806395296,,,4160905911656977,2.9459198,Bike
Fix,FLP,37.4434933,-122.1675611,-11.300000190734863,3.611126,6.303,62.586628,1675806395839,,,4160906454198786,2.9459198,Bike
Fix,GPS,37.4434898884,-122.1675316707,0.114065225683857,2.4190142,4.482238,106.08804,1675806395999,0.32404974,8.803812,4160907132890000,3.5364728,Bike
Fix,FLP,37.4434985,-122.1675429,-6.273069022574489,3.4541705,6.676,76.56514,1675806396381,,,4160906996739923,2.960256,Bike
Fix,FLP,37.443495,-122.1675166,-6.273069022574489,2.5114143,6.835,107.34812,1675806396901,,,4160907516261957,2.960256,Bike
Fix,GPS,37.4434740307,-122.1675061189,0.7405538634885496,2.961333,4.810538,139.12558,1675806396999,0.3044674,5.4914403,4160908132808000,3.6962042,Bike
Fix,FLP,37.443488,-122.1675086,-6.273069022574489,2.4208138,7.17,121.65374,1675806397466,,,4160908081821711,3.1436808,Bike
Fix,GPS,37.4434475584,-122.1674794211,0.905251922960017,3.243008,4.9991593,138.32605,1675806397999,0.31384903,5.2894793,4160909132950000,3.8566012,Bike
Fix,FLP,37.4434654,-122.1674799,4.804750986063922,2.891887,7.274,128.61119,1675806398551,,,4160909166885248,3.386445,Bike
Fix,FLP,37.4434343,-122.16745,4.804750986063922,3.2162101,7.539,144.31367,1675806399626,,,4160910241000000,3.386445,Bike
Fix,GPS,37.4434182671,-122.167450441,0.7269945760160363,3.2129757,5.264769,140.32059,1675806398999,0.31783542,5.2981443,4160910132901000,4.02744,Bike
Fix,GPS,37.4433823886,-122.1674186616,0.6255160078673367,3.6202638,5.318591,141.51117,1675806399999,0.30716065,4.556565,4160911132911000,4.1795654,Bike
Fix,FLP,37.4434056,-122.16743,13.751819374934854,3.2119577,7.96,142.14668,1675806400179,,,4160910794525629,3.2101939,Bike
Fix,FLP,37.4433946,-122.1674209,13.751819374934854,3.472135,8.026,140.50734,1675806400728,,,4160911343000000,3.2101939,Bike
Fix,GPS,37.4433513641,-122.1673868563,0.5214420728775281,3.9666243,5.39736,139.9099,1675806400999,0.31765953,4.3153496,4160912132957000,4.3084726,Bike
Fix,FLP,37.4433732,-122.1673994,13.025452375213687,3.5928864,8.401,137.20508,1675806401264,,,4160911879602716,3.117353,Bike
Fix,FLP,37.4433575,-122.1673848,13.025452375213687,3.8598127,8.458,137.29388,1675806401807,,,4160912422146540,3.117353,Bike
Fix,GPS,37.4433188914,-122.1673508488,0.5419405038371594,4.189505,5.459838,142.35825,1675806401999,0.3223963,4.1283393,4160913132955000,4.4065056,Bike
Fix,FLP,37.4433363,-122.1673621,13.025452375213687,3.95236,8.464,137.02037,1675806402349,,,4160912964684809,3.127343,Bike
Fix,GPS,37.4432801815,-122.1673187021,0.6288063255212833,4.36263,5.4530535,141.2608,1675806402999,0.31177288,3.8604589,4160914132963000,4.514945,Bike
Fix,FLP,37.4433037,-122.1673264,13.025452375213687,4.1543565,8.548,138.94907,1675806403434,,,4160914049762445,3.127343,Bike
Fix,FLP,37.4432776,-122.1673049,-3.1275845975144705,4.311671,8.678,138.9847,1675806403977,,,4160914592301264,3.055987,Bike
Fix,GPS,37.4432413783,-122.1672807932,0.9076405158626444,4.066194,5.407297,138.19449,1675806403999,0.29927042,4.023833,4160915133042000,4.564798,Bike
Fix,FLP,37.4432652,-122.1672939,-11.300000190734863,4.358485,8.728,137.47394,1675806404518,,,4160915134839350,2.9668121,Bike
Fix,GPS,37.4432045314,-122.1672435886,1.4929056726458794,3.7472718,5.184655,136.01642,1675806404999,0.28446448,4.1914907,4160916132981000,4.6195726,Bike
Fix,FLP,37.4432283,-122.1672584,-16.061393036886997,4.1790824,8.817,137.40143,1675806405603,,,4160916219915033,2.9100695,Bike
Fix,FLP,37.4431956,-122.1672249,-16.061393036886997,3.8416202,8.83,136.76395,1675806406147,,,4160916762452082,2.9100695,Bike
Fix,GPS,37.4431741086,-122.1672121001,1.5681716193031483,3.5777931,5.0955324,136.65372,1675806405999,0.28526095,4.381196,4160917132974000,4.5949697,Bike
Fix,FLP,37.4431654,-122.167197,-15.811039892305075,3.6425524,8.928,136.45624,1675806407232,,,4160917847525629,2.761352,Bike
Fix,GPS,37.4431445147,-122.1671810903,1.6843473704834593,3.4061198,5.009843,139.88115,1675806406999,0.28789032,4.5120854,4160918133209000,4.5665693,Bike
Fix,FLP,37.443132,-122.1671644,-16.558723279297013,3.4520848,9.064,139.36688,1675806408317,,,4160918932598322,2.8313644,Bike
Fix,GPS,37.4431197988,-122.1671598577,1.5685264292047416,3.3002362,5.1379433,144.79845,1675806407999,0.2714794,4.43259,4160919133083000,4.5624213,Bike
Fix,FLP,37.4431121,-122.167148,-11.300000190734863,3.3222558,8.884,142.57143,1675806408860,,,4160919475133966,2.9365568,Bike
Fix,GPS,37.4430887209,-122.16713618,1.595174920264553,3.3882694,5.108975,147.904,1675806408999,0.29050305,4.5239673,4160920133064000,4.5751715,Bike
Fix,FLP,37.443103,-122.1671405,-8.146239828013876,3.3127587,8.843,142.06436,1675806409401,,,4160920017669611,3.047291,Bike
Fix,FLP,37.4430871,-122.1671298,-8.146239828013876,3.3836439,8.754,145.45483,1675806409984,,,4160920599000000,3.047291,Bike
Fix,FLP,37.4430702,-122.167118,-8.146239828013876,3.3985965,8.733,146.88205,1675806410486,,,4160921101000000,3.047291,Bike
Fix,GPS,37.4430582558,-122.1671125222,1.3987152170628911,3.6714537,5.2391543,148.99142,1675806409999,0.3264988,4.596585,4160921133024000,4.625591,Bike
Fix,FLP,37.4430506,-122.1671043,-0.5092655917377584,3.6101234,8.726,148.35048,1675806411029,,,4160921645274042,3.0739286,Bike
Fix,GPS,37.4430275631,-122.1670895388,1.5285002382546151,4.104906,5.37644,148.03944,1675806410999,0.35931462,4.631266,4160922133084000,4.7284155,Bike
Fix,FLP,37.4430335,-122.1670918,18.249771719380405,3.6681576,8.788,148.74028,1675806411571,,,4160922187808527,3.3220305,Bike
Fix,FLP,37.4430075,-122.1670756,18.249771719380405,3.9737937,8.876,149.36919,1675806412114,,,4160922730342768,3.3220305,Bike
Fix,GPS,37.4429938356,-122.1670628425,1.8052415777423567,4.30639,5.544813,145.67084,1675806411999,0.3808416,4.7293963,4160923133073000,4.850718,Bike
Fix,FLP,37.4430001,-122.1670712,16.210469411749244,4.0464816,8.923,148.49776,1675806412657,,,4160923272876825,3.2697465,Bike
Fix,GPS,37.4429625095,-122.1670349493,1.5519513212385396,4.596312,5.716531,145.76303,1675806412999,0.36965793,4.2500906,4160924133075000,4.968452,Bike
Fix,FLP,37.4429716,-122.1670471,15.592943596894957,4.2198477,9.083,143.86098,1675806413200,,,4160923815410334,3.736351,Bike
Fix,FLP,37.4429572,-122.1670332,15.592943596894957,4.477132,9.216,144.85934,1675806413742,,,4160924357943781,3.736351,Bike
Fix,GPS,37.4429285844,-122.1670104235,1.4095643757822311,4.9103465,5.709132,152.33022,1675806413999,0.32582116,3.703869,4160925133104000,5.057554,Bike
Fix,FLP,37.4429402,-122.1670177,10.64425453128004,4.571281,9.413,146.61777,1675806414285,,,4160924900479913,3.1720452,Bike
Fix,FLP,37.4429021,-122.1669919,10.64425453128004,4.928808,9.865,157.87784,1675806415370,,,4160925985542719,3.1720452,Bike
Fix,GPS,37.4428896268,-122.1669902959,1.1861282132743318,4.965035,5.7254314,163.41173,1675806414999,0.33473516,3.6649513,4160926133144000,5.064813,Bike
Fix,FLP,37.4428699,-122.1669809,8.633621617622552,4.9785433,9.926,163.75528,1675806415901,,,4160926516261957,2.9012437,Bike
Fix,GPS,37.4428467146,-122.1669822783,0.95876354449017,5.0613537,5.740895,170.6917,1675806415999,0.3414513,3.6107676,4160927133304000,5.1544175,Bike
Fix,FLP,37.4428544,-122.1669813,10.266616730866671,5.0583396,9.604,169.94325,1675806416518,0.3414513,3.6107676,4160927133304000,3.1174724,Bike
Fix,GPS,37.4427950961,-122.1669655202,0.997835849748338,4.802899,5.7709436,165.30238,1675806416999,0.3682095,3.972528,4160928133143000,5.3466516,Bike
Fix,FLP,37.4428043,-122.1669698,10.469523423978105,4.9457846,9.706,166.60944,1675806417517,,,4160928133143000,3.1260905,Bike
Fix,FLP,37.4427828,-122.1669604,10.469523423978105,4.735986,9.767,144.66655,1675806418028,,,4160928643948175,3.1260905,Bike
Fix,GPS,37.4427507805,-122.1669450228,1.1764448788987478,4.229428,5.6796036,152.6057,1675806417999,0.36469862,4.409365,4160929133151000,5.516357,Bike
Fix,FLP,37.4427762,-122.1669521,7.964320268066444,4.7507405,10.182,137.28925,1675806418571,,,4160929186477411,3.1350906,Bike
Fix,FLP,37.4427322,-122.1669171,-19.53245662554424,4.4236603,10.583,146.63911,1675806419655,,,4160930271546320,3.1460905,Bike
Fix,GPS,37.4427119666,-122.1669065424,1.0914521722018735,4.1421022,5.5200357,134.56425,1675806418999,0.33626753,4.4874673,4160930133194000,5.67434,Bike
Fix,FLP,37.4427016,-122.1668928,-19.53245662554424,4.204425,10.466,137.06236,1675806420197,,,4160930812000000,3.1423616,Bike
Fix,GPS,37.4426819248,-122.166858752,1.6677803490157748,4.151044,5.4248424,131.73828,1675806419999,0.36718658,4.8129306,4160931133188000,5.741535,Bike
Fix,FLP,37.4426856,-122.1668677,-15.867395184143334,4.178681,10.279,131.48917,1675806420741,,,4160931356609003,3.3431656,Bike
Fix,FLP,37.4426706,-122.1668435,-15.867395184143334,4.1796155,10.207,129.64072,1675806421284,,,4160931899140131,3.3431656,Bike
Fix,GPS,37.4426504249,-122.1668100366,2.129707945765281,4.025157,5.402303,135.00859,1675806420999,0.35445735,4.861939,4160932133209000,5.6539397,Bike
Fix,FLP,37.442654,-122.1668154,-16.627608796622184,4.1024747,10.517,134.47565,1675806421826,,,4160932441671320,3.456685,Bike
Fix,GPS,37.4426233527,-122.1667767564,1.8807818422848892,4.0287366,5.7479534,145.94229,1675806421999,0.39922652,5.3953257,4160933133212000,5.58845,Bike
Fix,FLP,37.4426341,-122.1667891,-15.231729793221334,4.073424,10.489,141.15628,1675806422369,,,4160932984198908,3.404389,Bike
Fix,NLP,37.4431299,-122.1658814,-11.40000057220459,,38.216,,1675806422461,,,4160933076000000,3.4688826,Bike
Fix,FLP,37.4426283,-122.1667839,-13.369287386207075,4.076722,10.46,144.14775,1675806422911,,,4160933526734247,3.0104904,Bike
Fix,FLP,37.4425979,-122.1667571,-13.369287386207075,4.0951,10.471,144.17526,1675806423417,,,4160934032000000,3.0104904,Bike
Fix,GPS,37.4425889715,-122.1667452029,1.8044944306301445,3.949971,5.8787055,159.7385,1675806422999,0.40525907,5.2562327,4160934133405000,5.61278,Bike
Fix,FLP,37.4425724,-122.1667384,-11.40000057220459,3.9849172,9.828,159.11261,1675806423996,,,4160934611793818,3.0334015,Bike
Fix,GPS,37.4425487345,-122.1667213316,1.696611358933743,4.135058,6.029044,167.34596,1675806423999,0.42010716,5.2764654,4160935133284000,5.6551304,Bike
Fix,FLP,37.4425616,-122.1667336,-11.40000057220459,3.9858317,9.789,163.01492,1675806424539,,,4160935154323908,2.9519062,Bike
Fix,GPS,37.4425103441,-122.1667063166,1.210373155879115,4.2618604,6.118359,167.0466,1675806424999,0.43672392,5.7647376,4160936133592000,5.7432895,Bike
Fix,FLP,37.4425251,-122.1667184,-11.40000057220459,4.1047797,9.894,163.84377,1675806425623,,,4160936239384699,2.939468,Bike
Fix,FLP,37.4424962,-122.1667052,-11.40000057220459,4.2288213,10.003,161.36534,1675806426166,,,4160936781918207,2.939468,Bike
Fix,GPS,37.442468519,-122.1666860595,1.100181030956537,4.159306,6.0742736,161.52177,1675806425999,0.4117755,5.2418747,4160937133332000,5.8484793,Bike
Fix,FLP,37.4424562,-122.1666849,-7.811822646638433,4.175625,10.245,158.48785,1675806427259,,,4160937875000000,2.9497008,Bike
Fix,GPS,37.4424232467,-122.1666646526,0.5480684735235807,4.5478516,6.1557384,149.24173,1675806426999,0.43708795,5.151675,4160938133319000,6.01153,Bike
Fix,FLP,37.4424242,-122.1666663,-5.98236682271849,4.394248,10.336,150.53,1675806427794,,,4160938409504023,2.8054466,Bike
Fix,GPS,37.4423869239,-122.166626846,0.1194565002418417,4.8423657,6.173362,141.93756,1675806427999,0.36572105,4.152517,4160939133331000,6.039256,Bike
Fix,FLP,37.4424052,-122.1666513,11.852853220307082,4.486152,10.371,145.2717,1675806428337,,,4160938952033625,2.7863922,Bike
Fix,FLP,37.4423896,-122.1666339,11.852853220307082,4.7186356,10.454,141.91017,1675806428843,,,4160939458000000,2.7863922,Bike
Fix,FLP,37.4423641,-122.1666057,11.852853220307082,4.808815,10.621,138.97675,1675806429422,,,4160940037092157,2.7863922,Bike
Fix,GPS,37.4423483828,-122.1665802801,0.1906561237005485,4.9139557,5.8218,139.5021,1675806428999,0.364433,4.1195393,4160940133325000,6.0123453,Bike
Fix,FLP,37.4423273,-122.1665586,7.658841331560708,4.9171076,10.77,140.15642,1675806430506,,,4160941122150202,2.5385442,Bike
Fix,GPS,37.4423118408,-122.1665372419,0.2180176834565761,4.957853,5.852555,139.19487,1675806429999,0.3796259,4.2324333,4160941133418000,6.0203557,Bike
Fix,FLP,37.4423018,-122.1665302,-10.200000762939451,4.9642954,10.701,139.8889,1675806431049,,,4160941664678827,2.5227787,Bike
Fix,GPS,37.4422761197,-122.1664994672,0.5670415831714013,4.7336793,5.7170486,141.369,1675806430999,0.34346238,3.9082859,4160942133378000,5.9566708,Bike
Fix,FLP,37.4422828,-122.1665107,-16.73431461195328,4.9908395,10.633,140.61522,1675806431591,,,4160942207207392,3.0012896,Bike
Fix,GPS,37.4422409011,-122.1664668919,0.5166451091924644,4.6578455,5.6969314,144.12495,1675806431999,0.3357461,3.849545,4160943133413000,5.924604,Bike
Fix,FLP,37.4422454,-122.1664694,-16.73431461195328,4.817454,10.635,141.12985,1675806432677,,,4160943292264521,2.9810672,Bike
Fix,GPS,37.4422038432,-122.1664340815,0.5932881976158344,4.972502,5.692325,142.89285,1675806432999,0.34320736,3.7384822,4160944133397000,5.8606496,Bike
Fix,FLP,37.44222,-122.1664443,-14.644602260038326,4.666628,10.549,141.14627,1675806433219,,,4160943834792597,3.2402627,Bike
Fix,FLP,37.4422014,-122.1664276,-14.644602260038326,4.8660264,10.404,141.85663,1675806433762,,,4160944377312372,3.2402627,Bike
Fix,GPS,37.4421636907,-122.1663987891,0.6223321707362369,5.015886,5.488973,147.10634,1675806433999,0.33479083,3.6047997,4160945133439000,5.7813416,Bike
Fix,FLP,37.4421842,-122.1664125,-11.40000057220459,4.945629,10.278,142.95451,1675806434304,,,4160944919848566,3.238903,Bike
Fix,GPS,37.4421247436,-122.1663608149,0.9147316254316638,5.1227407,5.4795003,148.31873,1675806434999,0.30536804,3.1728215,4160946133432000,5.717816,Bike
Fix,FLP,37.4421408,-122.1663792,-11.40000057220459,5.0310884,9.927,147.48837,1675806435389,,,4160946004904108,3.238903,Bike
Fix,FLP,37.4421316,-122.1663686,3.864203079535884,5.1217937,9.483,147.987,1675806435518,0.30536804,3.1728215,4160946133432000,3.247973,Bike
Fix,GPS,37.4420866781,-122.1663194296,1.6087505582342954,5.1417394,5.420457,147.21141,1675806435999,0.31740725,3.248204,4160947133399000,5.667771,Bike
Fix,FLP,37.4420888,-122.166326,-17.48386360876239,5.141674,8.947,147.00415,1675806436518,0.31740725,3.248204,4160947133399000,3.300817,Bike
Fix,GPS,37.44204655,-122.1662788637,1.9377940689435305,5.054441,5.515458,144.72964,1675806436999,0.34434792,3.5767248,4160948133461000,5.597939,Bike
Fix,FLP,37.4420478,-122.1662844,-18.90129703642559,5.05491,8.417,144.01573,1675806437518,0.34434792,3.5767248,4160948133461000,2.7926395,Bike
Fix,GPS,37.44200552,-122.1662409275,1.6732225750735308,4.909858,5.5234942,144.05138,1675806437999,0.343848,3.671184,4160949133474000,5.486057,Bike
Fix,FLP,37.4420092,-122.166246,-17.48386360876239,5.0284185,8.144,144.17409,1675806438518,,,4160949133474000,2.6406424,Bike
Fix,FLP,37.4419837,-122.1662202,-17.48386360876239,4.900362,8.294,145.60649,1675806439056,,,4160949671481989,2.6406424,Bike
Fix,GPS,37.4419706826,-122.1662049071,1.57453624413481,4.6404476,5.725836,145.69553,1675806438999,0.36038107,3.9936538,4160950133477000,5.4116063,Bike
Fix,FLP,37.4419858,-122.166222,-11.40000057220459,4.911329,8.52,147.6849,1675806439599,,,4160950214008905,2.863448,Bike
Fix,GPS,37.441943513,-122.1661788261,1.4242192677946328,4.3103175,5.876147,146.39975,1675806439999,0.3742552,4.568144,4160951133508000,5.4201837,Bike
Fix,FLP,37.4419429,-122.1661811,-11.40000057220459,4.725652,8.972,145.55452,1675806440684,,,4160951299062922,2.867445,Bike
Fix,GPS,37.4419191656,-122.1661621449,1.247819499601566,3.8595343,5.8638296,145.7783,1675806440999,0.34858027,4.5740194,4160952133541000,5.455759,Bike
Fix,FLP,37.4419172,-122.1661573,-10.200000762939451,4.3558517,9.489,144.00603,1675806441226,,,4160951841589472,2.8655217,Bike
Fix,FLP,37.4419106,-122.166153,-10.200000762939451,4.0007763,9.472,144.48428,1675806441768,,,4160952384101434,2.8655217,Bike
Fix,FLP,37.4418963,-122.166141,-10.200000762939451,3.8950834,9.458,145.13297,1675806442310,,,4160952926641413,2.8655217,Bike
Fix,GPS,37.4418908405,-122.1661389562,0.744088690861862,3.833361,5.8963265,140.79971,1675806441999,0.33598533,4.643207,4160953133542000,5.4746246,Bike
Fix,FLP,37.4418834,-122.1661303,-10.200000762939451,3.8361416,9.913,142.0217,1675806442853,,,4160953469160883,2.9144933,Bike
Fix,FLP,37.4418693,-122.1661161,-10.200000762939451,3.8353372,9.944,141.31157,1675806443373,,,4160953988000000,2.9144933,Bike
Fix,GPS,37.4418684668,-122.1661198228,0.205779726507653,3.5841644,5.7403116,141.4311,1675806442999,0.3250082,4.77376,4160954133593000,5.4343543,Bike
Fix,FLP,37.4418462,-122.1660927,-10.200000762939451,3.63729,10.099,138.23872,1675806444414,,,4160955030000000,3.054182,Bike
Fix,GPS,37.4418443055,-122.1660915444,-0.3039904900088733,3.69074,5.5888653,137.15128,1675806443999,0.3442202,5.0916047,4160955133690000,5.4180074,Bike
Fix,GPS,37.4418224913,-122.1660600033,-0.5418159067431382,3.1137066,5.434887,129.2013,1675806444999,0.34554777,6.279242,4160956133580000,5.4031916,Bike
Fix,FLP,37.4418216,-122.166061,-10.200000762939451,3.687187,9.968,127.49066,1675806445458,,,4160956073293268,3.3534691,Bike
Fix,FLP,37.4418105,-122.1660435,-10.200000762939451,3.2167962,9.889,126.039894,1675806445999,,,4160956615818903,3.3534691,Bike
Fix,GPS,37.4418092233,-122.1660268973,-0.5947949437181116,2.7687788,5.3896303,115.18756,1675806445999,0.30422518,6.5318546,4160957133626000,5.3577867,Bike
Fix,FLP,37.4418031,-122.1660299,-11.40000057220459,3.1520758,9.846,121.94196,1675806446543,,,4160957158344355,2.886105,Bike
Fix,FLP,37.4417954,-122.1660048,-11.40000057220459,2.8263252,9.787,115.273834,1675806447085,,,4160957700869990,2.886105,Bike
Fix,GPS,37.4418023094,-122.1659913348,-0.6438813924865712,2.4856064,5.238745,106.17217,1675806446999,0.29719198,6.9245915,4160958133565000,5.305974,Bike
Fix,FLP,37.4417949,-122.1659979,-10.200000762939451,2.8007379,9.757,113.1229,1675806447627,,,4160958243395319,2.8050218,Bike
Fix,FLP,37.4417891,-122.1659711,-10.200000762939451,2.5139048,9.532,103.20918,1675806448170,,,4160958785920283,2.8050218,Bike
Fix,GPS,37.4417994514,-122.1659573357,-0.4866728385668416,2.0931523,5.3559804,93.803894,1675806447999,0.30296502,9.201178,4160959133604000,5.2678485,Bike
Fix,FLP,37.4417907,-122.1659449,-7.37474246409424,2.140879,9.419,96.65782,1675806449255,,,4160959870970758,2.7383285,Bike
Fix,GPS,37.4418028208,-122.1659275396,-0.5743185771261484,1.827965,5.302857,98.06776,1675806448999,0.2878717,9.389573,4160960134291000,5.2064166,Bike
Fix,GPS,37.441803623,-122.1659003283,-0.2379182238658901,1.4102128,5.4544835,111.29656,1675806449999,0.27574658,10.872429,4160961133656000,5.232561,Bike
Fix,FLP,37.4417925,-122.1659094,-2.7283981725507545,1.855202,9.196,92.26977,1675806450341,,,4160960956021296,2.7107422,Bike
Fix,FLP,37.4417957,-122.1658968,-2.7283981725507545,1.4592795,9.248,108.63873,1675806450875,,,4160961490639460,2.7107422,Bike
Fix,GPS,37.4418013814,-122.1658843056,0.0953141952606517,0.3850072,5.6995635,111.29656,1675806450999,0.30388755,44.39624,4160962133679000,5.299782,Bike
Fix,FLP,37.441795,-122.1658878,3.0459365375569263,1.4214865,9.303,111.675804,1675806451425,,,4160962041071649,2.8518882,Bike
Fix,FLP,37.4417923,-122.1658725,3.0459365375569263,0.45973936,9.542,103.26182,1675806452511,,,4160963126121638,2.8518882,Bike
Fix,GPS,37.4418057392,-122.1658762458,0.8752881844381682,0.31921622,5.769886,111.29656,1675806451999,0.27675015,34.399067,4160963133688000,5.291602,Bike
Fix,FLP,37.4417958,-122.1658702,7.266313100835589,0.33434635,9.36,100.36016,1675806453032,,,4160963647000000,2.757819,Bike
Fix,GPS,37.4417986354,-122.1658604513,0.9347483431855016,0.0,5.574533,111.29656,1675806452999,0.19050111,94.861275,4160964133630000,5.305681,Bike
Fix,FLP,37.4417971,-122.1658656,7.683564156753633,0.3225603,9.194,68.01101,1675806453596,,,4160964211171198,2.7423115,Bike
Fix,GPS,37.4417986354,-122.1658604513,0.5018943917305355,0.0,4.9784226,111.29656,1675806453999,0.17540702,95.07471,4160965133639000,5.051119,Bike
Fix,FLP,37.4417994,-122.1658642,9.351765068292522,0.011537825,8.83,,1675806454138,,,4160964753695368,2.9956555,Bike
Fix,GPS,37.4417986354,-122.1658604513,1.020445003636823,0.0,4.6229343,111.29656,1675806454999,0.19123238,180.0,4160966133669000,4.838058,Bike
Fix,FLP,37.4418005,-122.1658682,5.217187887813935,0.0014909747,8.178,,1675806455223,,,4160965838745234,3.0052555,Bike
Fix,NLP,37.4425924,-122.1641065,-11.800000190734863,,52.4,,1675806456135,,,4160966751000000,7.6412754,Bike
Fix,FLP,37.4418,-122.1658683,0.8406247257673556,0.000117072916,7.779,,1675806456308,,,4160966923786798,2.7582283,Bike
Fix,GPS,37.4417986354,-122.1658604513,1.3206814068421842,0.0,4.309332,111.29656,1675806455999,0.19728406,180.0,4160967133667000,4.5956883,Bike
Fix,GPS,37.4417986354,-122.1658604513,1.182988805945585,0.0,4.058606,111.29656,1675806456999,0.1857244,90.94587,4160968133682000,3.9515777,Bike
Fix,FLP,37.4417993,-122.1658674,-3.892428033811029,0.00023103239,6.623,,1675806457392,,,4160968008855707,2.9924564,Bike
Fix,GPS,37.4417986354,-122.1658604513,1.2487541884883235,0.0,4.0543356,111.29656,1675806457999,0.18003823,104.015816,4160969133702000,3.534552,Bike
Fix,FLP,37.4417998,-122.165866,-6.654124957137242,0.00034152129,4.818,,1675806458478,,,4160969093921503,3.0999203,Bike
Fix,GPS,37.4417986354,-122.1658604513,1.3902400355459508,0.0,4.0463557,111.29656,1675806458999,0.17938928,169.70143,4160970133727000,3.2423332,Bike
Fix,FLP,37.4418002,-122.165865,-7.759155499762045,0.00025485744,4.469,,1675806459563,,,4160970178993830,2.774154,Bike
Fix,NLP,37.4425908,-122.1641146,-11.800000190734863,,60.0,,1675806460576,,,4160971191000000,8.862071,Bike
Fix,FLP,37.4417999,-122.1658646,-7.1648543825529885,0.0001113671,4.218,,1675806460106,,,4160970721532160,2.6604364,Bike
Fix,GPS,37.4417986354,-122.1658604513,1.3597303961495848,0.0,4.0462747,111.29656,1675806459999,0.17585908,180.0,4160971133726000,3.020618,Bike
Fix,GPS,37.4417986354,-122.1658604513,1.425125256229869,0.0,4.046194,111.29656,1675806460999,0.17294025,97.29562,4160972133739000,3.0,Bike
Fix,FLP,37.4418003,-122.1658644,-8.0962490072462,7.6242155e-05,3.923,,1675806461191,,,4160971806601496,2.5995266,Bike
Fix,GPS,37.4417986354,-122.1658604513,1.415060662248255,0.0,4.046113,111.29656,1675806461999,0.17028923,32.453144,4160973133774000,3.0,Bike
Fix,FLP,37.4418008,-122.1658643,-8.976181937080142,0.0002254751,3.81,,1675806462275,,,4160972891700190,3.0412595,Bike
Fix,GPS,37.4417986354,-122.1658604513,1.4420837001594662,0.0,4.046032,111.29656,1675806462999,0.18268952,180.0,4160974133799000,3.0,Bike
Fix,FLP,37.4418014,-122.1658639,-8.533019104614425,0.00032227518,3.723,,1675806463360,,,4160973976793146,3.0442307,Bike
Fix,GPS,37.4417986354,-122.1658604513,1.1977269432095474,0.0,3.9273527,111.29656,1675806463999,0.19420053,151.09383,4160975133786000,3.0,Bike
