Fix,Provider,LatitudeDegrees,LongitudeDegrees,AltitudeMeters,SpeedMps,AccuracyMeters,BearingDegrees,UnixTimeMillis,SpeedAccuracyMps,BearingAccuracyDegrees,elapsedRealtimeNanos,VerticalAccuracyMeters,TransitType
Fix,NLP,37.4269739,-122.1730701,0.2999999821186065,,26.006,,1677706863825,,,1141667049000000,2.0620527,Bike
Fix,FLP,37.4269054,-122.1732712,2.2382249444827598,0.0,19.011,,1677706863825,,,1141667049000000,1.4293321,Bike
Fix,GPS,37.4268439667,-122.1725159953,29.10713994341797,0.0,80.95757,,1677706867562,1.0594682,,1141673311836170,83.43635,Bike
Fix,FLP,37.4269555,-122.1731099,3.034200230309171,2.1696873,28.199,68.659546,1677706870088,,,1141673311836170,1.448402,Bike
Fix,GPS,37.4269229093,-122.1729327633,10.272770089176957,0.0,40.051014,,1677706868562,0.81130654,,1141674378817697,60.243225,Bike
Fix,FLP,37.4269698,-122.1730622,2.6527966901893443,2.4580147,27.918,68.832405,1677706871154,,,1141674378817697,1.4583421,Bike
Fix,GPS,37.4269094373,-122.1730061376,9.773284507543758,0.0,30.497875,,1677706869562,20.0,,1141675330852569,36.5865,Bike
Fix,FLP,37.4269732,-122.1730462,2.947910640711765,2.3146827,27.593,69.44739,1677706872106,,,1141675330852569,1.4683421,Bike
Fix,GPS,37.4269082882,-122.1730964668,13.737469074620048,1.8471421,20.123854,168.29903,1677706870562,0.5494939,17.165638,1141676310121287,24.631044,Bike
Fix,FLP,37.4269406,-122.1730691,2.623694315450632,1.4116839,26.942,149.73839,1677706873086,,,1141676310121287,1.4773321,Bike
Fix,NLP,37.4269973,-122.172999,-0.1000000014901161,,25.613,,1677706874016,,,1141677240000000,1.5436199,Bike
Fix,FLP,37.426937,-122.1730605,-0.1000000014901161,1.6629663,26.338,162.73631,1677706874017,,,1141677240000000,1.4631168,Bike
Fix,GPS,37.4268832997,-122.1730847783,9.240396340229204,2.3731792,13.421019,165.98137,1677706872000,0.5218989,12.87151,1141677780531078,16.75917,Bike
Fix,FLP,37.426931,-122.173053,2.1519434796071764,1.8929821,25.783,163.68108,1677706874557,,,1141677780531078,1.4285579,Bike
Fix,FLP,37.4269446,-122.1730459,2.1519434796071764,0.57561535,24.617,124.92022,1677706874747,,,1141677971162326,1.4285579,Bike
Fix,FLP,37.4269557,-122.1730425,2.1519434796071764,0.6560047,23.463,25.209084,1677706875290,,,1141678513678683,1.4285579,Bike
Fix,GPS,37.4268597464,-122.1730613591,8.707049745952103,2.4024801,11.570774,178.62927,1677706873000,0.5152533,13.21539,1141678795166820,14.558314,Bike
Fix,FLP,37.426969,-122.1730389,-2.923838785632743,1.5290872,21.804,7.3374853,1677706876374,,,1141679598689120,1.4385478,Bike
Fix,GPS,37.4268367637,-122.1730309485,8.715820877321386,3.680067,10.17304,164.18898,1677706874000,0.46143943,10.0,1141679740823000,13.103279,Bike
Fix,FLP,37.4269451,-122.1730361,23.073135277366276,0.5276278,20.81,38.756767,1677706876899,,,1141680122000000,1.4398674,Bike
Fix,FLP,37.4269233,-122.1730327,23.073135277366276,0.83828396,19.869,143.90146,1677706877458,,,1141680682000000,1.4398674,Bike
Fix,GPS,37.4267988135,-122.1729896505,8.972578622960343,4.237648,9.006858,161.41183,1677706875000,0.38108727,10.0,1141680740806000,11.92421,Bike
Fix,FLP,37.4268732,-122.1730175,29.86186589397347,2.320743,17.981,160.1241,1677706878003,,,1141681226201083,1.4464481,Bike
Fix,GPS,37.4267604235,-122.1729625234,8.112047108531504,4.5326633,8.297703,163.96924,1677706876000,0.40895385,10.0,1141681740841000,11.228168,Bike
Fix,FLP,37.4268586,-122.1730127,19.44215608157916,2.8388753,17.639,162.25444,1677706878545,,,1141681768704013,1.4564681,Bike
Fix,NLP,37.4265581,-122.1730734,-0.1000000014901161,,22.162,,1677706879060,,,1141682283000000,1.4279243,Bike
Fix,FLP,37.4268292,-122.1730007,28.361721579770716,3.4407873,16.77,164.8967,1677706879088,,,1141682311206454,1.4040414,Bike
Fix,GPS,37.4267250872,-122.1729578491,7.169543392336521,4.031925,7.546344,179.16817,1677706877000,0.43688992,10.0,1141682741092000,10.532825,Bike
Fix,FLP,37.4267908,-122.172991,15.75802003792582,3.866085,15.546,166.28938,1677706879630,,,1141682853708651,1.4101014,Bike
Fix,FLP,37.4267579,-122.1729836,15.75802003792582,3.936001,14.645,170.18935,1677706880172,,,1141683396210421,1.4101014,Bike
Fix,GPS,37.4266941437,-122.1729667215,6.025333122317225,3.879897,7.0423365,194.96303,1677706878000,0.39093718,10.0,1141683740857000,10.106883,Bike
Fix,FLP,37.4267177,-122.1729789,19.44215608157916,3.9005518,13.723,176.81277,1677706880714,,,1141683938711215,1.4200231,Bike
Fix,GPS,37.4266627565,-122.1729841871,5.123072266554443,3.5825202,6.661771,197.4527,1677706879000,0.39410904,10.0,1141684740879000,9.399755,Bike
Fix,FLP,37.4267045,-122.1729811,32.98849155802317,3.8371768,13.01,180.93237,1677706881257,,,1141684481212008,1.4301331,Bike
Fix,FLP,37.4266802,-122.1729874,32.98849155802317,3.7386103,12.546,184.45384,1677706881799,,,1141685023709384,1.4301331,Bike
Fix,GPS,37.4266313551,-122.1730034358,4.383892922287888,4.2141795,6.5783596,203.58632,1677706880000,0.43092164,10.0,1141685740882000,8.904327,Bike
Fix,FLP,37.4266677,-122.1729918,28.13792635174107,3.67537,11.796,186.59966,1677706882343,,,1141685566211764,1.4390156,Bike
Fix,FLP,37.4266459,-122.1729994,28.13792635174107,3.7843883,11.653,189.83403,1677706882885,,,1141686108711093,1.4390156,Bike
Fix,GPS,37.4265947429,-122.1730283898,4.420605040654769,4.7432427,6.544889,204.4229,1677706881000,0.53957486,10.0,1141686740897000,8.630199,Bike
Fix,FLP,37.4266314,-122.1730058,31.91917124372713,3.8406239,11.19,192.86415,1677706883427,,,1141686651210116,1.4500556,Bike
Fix,FLP,37.4266106,-122.1730166,31.91917124372713,4.0711427,11.162,194.61809,1677706883969,,,1141687193708346,1.4500556,Bike
Fix,NLP,37.4265474,-122.1730926,0.2999999821186065,,23.447,,1677706884027,,,1141687250000000,1.8717941,Bike
Fix,GPS,37.4265536457,-122.1730615535,3.196035919744732,5.0463233,6.4577713,208.3697,1677706882000,0.43929446,10.0,1141687741060000,8.176369,Bike
Fix,FLP,37.4265881,-122.1730311,25.93989327782015,4.2265286,10.691,196.36983,1677706884490,,,1141687714247592,1.7338408,Bike
Fix,FLP,37.4265503,-122.1730542,25.93989327782015,4.4698944,10.348,198.41069,1677706885054,,,1141688278704135,1.7338408,Bike
Fix,GPS,37.4265116155,-122.1730926257,2.416006182341269,4.946573,6.4462605,203.76964,1677706883000,0.47034895,10.0,1141688740901000,7.905742,Bike
Fix,FLP,37.4265484,-122.1730583,-8.418954488869309,4.632805,10.383,198.77094,1677706885597,,,1141688821202120,1.743107,Bike
Fix,GPS,37.4264700519,-122.1731149491,1.8388305281546675,4.959209,6.302541,195.98851,1677706884000,0.40156385,10.0,1141689741096000,7.597633,Bike
Fix,FLP,37.4265071,-122.1730818,-3.9539347244110914,4.860147,10.248,198.4561,1677706886683,,,1141689906194858,1.8279747,Bike
Fix,FLP,37.4264667,-122.1731034,-3.9539347244110914,4.9800463,10.245,198.13948,1677706887225,,,1141690448691073,1.8279747,Bike
Fix,GPS,37.4264218381,-122.1731236542,1.6072806985715855,4.880828,6.047208,190.69258,1677706885000,0.32675767,10.0,1141690740975000,7.2814837,Bike
Fix,FLP,37.4264362,-122.1731183,0.2999999821186065,5.0259542,10.228,196.87933,1677706887767,,,1141690991186862,1.8348224,Bike
Fix,GPS,37.4263746318,-122.1731268111,1.4533639163505083,4.6567965,5.3956842,187.5446,1677706886000,0.053776935,10.0,1141691741013000,6.5911665,Bike
Fix,FLP,37.426407,-122.1731311,0.2999999821186065,5.0064664,10.116,196.0179,1677706888310,,,1141691533682284,1.8348224,Bike
Fix,NLP,37.4268308,-122.1729889,-0.1999998986721038,,32.529,,1677706889064,,,1141692287000000,1.5710484,Bike
Fix,FLP,37.4263811,-122.1731356,-0.1999998986721038,4.9143066,9.675,193.96184,1677706888853,,,1141692076177585,1.7085719,Bike
Fix,GPS,37.4263329071,-122.1731305493,1.2539712837160524,3.9010599,5.2913337,184.95903,1677706887000,0.0362048,10.0,1141692740992000,6.1911407,Bike
Fix,FLP,37.4263637,-122.1731338,-0.1999998986721038,4.823447,9.46,192.26938,1677706889394,,,1141692618672458,1.7145519,Bike
Fix,GPS,37.4263006282,-122.1731311373,1.4277208892623523,3.2429533,4.944422,184.50418,1677706888000,0.028823597,10.0,1141693741019000,5.938518,Bike
Fix,FLP,37.4263189,-122.1731432,-0.1999998986721038,4.4854193,9.203,191.10484,1677706890480,,,1141693703660922,1.7068915,Bike
Fix,FLP,37.4262892,-122.1731444,-0.1999998986721038,3.9506855,8.809,189.1628,1677706891023,,,1141694246144137,1.7068915,Bike
Fix,GPS,37.4262700254,-122.1731263682,0.7317693370772967,3.5365264,4.2970448,176.27042,1677706889000,0.052477177,10.0,1141694741092000,5.742285,Bike
Fix,FLP,37.4262832,-122.1731418,3.291665185446149,3.7369816,8.737,187.01573,1677706891564,,,1141694788648532,1.7526114,Bike
Fix,GPS,37.4262362769,-122.1731210216,0.7054820530344852,3.7689738,4.393379,160.43416,1677706890000,0.28623748,10.0,1141695741111000,5.541683,Bike
Fix,FLP,37.42625,-122.1731351,3.6919955868392655,3.506068,8.269,179.48058,1677706892649,,,1141695873635348,1.7271985,Bike
Fix,GPS,37.4262063463,-122.1731000138,1.0430496358999983,3.9665074,4.2965136,140.00397,1677706891000,0.36037067,10.0,1141696741104000,5.4096794,Bike
Fix,FLP,37.4262187,-122.1731203,17.703241427306363,3.4607925,7.902,168.30829,1677706893193,,,1141696416127474,1.7372085,Bike
Fix,FLP,37.4262079,-122.173109,17.703241427306363,3.5132163,7.781,160.39421,1677706893735,,,1141696958620883,1.7372085,Bike
Fix,FLP,37.4261872,-122.1730854,17.703241427306363,3.6168919,7.614,147.47281,1677706894277,,,1141697501113498,1.7372085,Bike
Fix,GPS,37.4261853238,-122.1730619981,0.6640874109049362,4.485748,4.512352,111.767395,1677706892000,0.39957625,10.0,1141697741098000,5.35679,Bike
Fix,FLP,37.4261706,-122.1730405,29.312193102575545,4.105993,7.487,127.110115,1677706895363,,,1141698586098544,1.7473485,Bike
Fix,GPS,37.4261773424,-122.1730002324,-0.829686154474194,5.3982654,4.88931,101.58308,1677706893000,0.30246618,10.0,1141698741073000,5.1686225,Bike
Fix,FLP,37.4261636,-122.1729971,29.312193102575545,4.6217275,7.396,115.96811,1677706895904,,,1141699128588167,1.7572085,Bike
Fix,GPS,37.4261697108,-122.1729345704,-1.6087027958508962,5.350786,4.49405,109.80846,1677706894000,0.31467494,10.0,1141699741173000,5.0261292,Bike
Fix,FLP,37.4261647,-122.1729626,29.752685902670702,5.266358,7.038,110.01476,1677706896517,0.31467494,10.0,1141699741173000,1.7672585,Bike
Fix,GPS,37.4261534206,-122.1728729341,-1.6507074871859062,5.236115,5.2313113,106.20706,1677706895000,0.3793485,10.0,1141700741165000,5.0196815,Bike
Fix,FLP,37.4261513,-122.1728923,14.0908855936386,5.263325,6.721,107.35348,1677706897518,0.3793485,10.0,1141700741165000,1.7772084,Bike
Fix,GPS,37.4261405465,-122.1728113391,-1.564058511762321,5.6031394,5.0241127,103.200836,1677706896000,0.378762,10.0,1141701741200000,4.9952316,Bike
Fix,FLP,37.4261392,-122.172824,12.480039433208322,5.5671434,6.384,104.41262,1677706898517,0.378762,10.0,1141701741200000,1.7872084,Bike
Fix,GPS,37.4261296984,-122.1727455742,-2.020295036581345,5.824874,5.154347,106.517845,1677706897000,0.36242342,10.0,1141702741238000,4.914168,Bike
Fix,FLP,37.4261278,-122.1727551,28.1245135295457,5.7658033,6.033,105.156876,1677706899518,0.36242342,10.0,1141702741238000,1.7972285,Bike
Fix,GPS,37.4261147546,-122.1726803362,-1.505042226583532,5.806665,5.1612353,111.78976,1677706898000,0.45873713,10.0,1141703741153000,4.938393,Bike
Fix,FLP,37.4261136,-122.172687,17.2485437761104,5.762206,5.472,108.66964,1677706900517,0.45873713,10.0,1141703741153000,1.8071985,Bike
Fix,GPS,37.4260975035,-122.1726204664,-0.9579137958562612,4.7089343,4.910312,111.47697,1677706899000,0.4153365,5.28062,1141704741228000,5.0980964,Bike
Fix,FLP,37.4260976,-122.1726244,3.424425717442194,4.86097,5.096,110.55633,1677706901517,0.4153365,5.28062,1141704741228000,1.8172085,Bike
Fix,GPS,37.4260840363,-122.1725778377,-1.5303142711753044,3.6288042,5.1715,114.404564,1677706900000,0.48222914,7.5588484,1141705741214000,5.159606,Bike
Fix,FLP,37.4260838,-122.1725732,14.5428569559373,5.2360377,5.747,113.09591,1677706902518,,,1141705741214000,1.8272785,Bike
Fix,FLP,37.4260813,-122.1725553,14.5428569559373,2.4973426,6.216,275.53632,1677706903093,,,1141706316591891,1.8272785,Bike
Fix,GPS,37.4260732189,-122.172551078,-2.0878540360941886,2.2302797,5.450607,126.493126,1677706901000,0.4623625,11.2084255,1141706741308000,5.232834,Bike
Fix,FLP,37.4260833,-122.1725659,13.594971971317488,3.3904238,7.319,272.35712,1677706903636,,,1141706859079807,1.8371885,Bike
Fix,FLP,37.426077,-122.1725616,13.594971971317488,1.5879449,7.522,115.05948,1677706904178,,,1141707401569796,1.8371885,Bike
Fix,GPS,37.4260758408,-122.1725527283,-1.7026607771832234,0.0,5.1548653,126.493126,1677706902000,0.08205531,55.272507,1141707741229000,4.879967,Bike
Fix,FLP,37.4260676,-122.1725331,16.670105509906744,0.14957038,8.022,99.68401,1677706905263,,,1141708486550143,1.8461984,Bike
Fix,GPS,37.4260758408,-122.1725527283,-1.5321280687947425,0.0,5.1549683,126.493126,1677706903000,0.040351726,180.0,1141708741222000,4.6944757,Bike
Fix,GPS,37.4260758408,-122.1725527283,-0.8457579065927064,0.0,4.934946,126.493126,1677706904000,0.075701654,180.0,1141709741215000,4.5529943,Bike
Fix,FLP,37.4260649,-122.1725364,12.393652358061896,0.0014476234,8.367,,1677706906348,,,1141709571525485,1.8661985,Bike
Fix,GPS,37.4260758408,-122.1725527283,-0.6018195744704222,0.0,5.5947523,126.493126,1677706905000,0.36244538,180.0,1141710741231000,4.434241,Bike
Fix,FLP,37.4260611,-122.172534,7.735169614284231,0.00081597385,8.588,,1677706907432,,,1141710656507175,1.8761885,Bike
Fix,GPS,37.4260758408,-122.1725527283,-0.4609953163890489,0.0,5.459001,126.493126,1677706906000,0.36051187,128.11882,1141711741245000,4.35182,Bike
Fix,FLP,37.4260559,-122.1725287,5.81702573117261,0.0013883101,8.303,,1677706908518,,,1141711741492953,1.8861985,Bike
Fix,GPS,37.4260758408,-122.1725527283,-0.2200867076490782,0.0,4.8416886,126.493126,1677706907000,0.35037997,126.962845,1141712741258000,4.2989388,Bike
Fix,FLP,37.4260539,-122.1725247,4.370149525134607,0.00090192276,7.234,,1677706909603,,,1141712826484164,1.8961785,Bike
Fix,GPS,37.4260758408,-122.1725527283,-0.0698717993624793,0.0,4.836918,126.493126,1677706908000,0.33050334,180.0,1141713741284000,4.260244,Bike
Fix,FLP,37.4260579,-122.1725248,3.296260707484976,0.0005503095,6.519,,1677706910145,,,1141713368980319,1.9061885,Bike
Fix,GPS,37.4260758408,-122.1725527283,0.0705872314878466,0.0,4.8351936,126.493126,1677706909000,0.33689487,180.0,1141714741288000,4.233996,Bike
Fix,FLP,37.4260609,-122.1725247,2.515568413080313,0.00023014507,5.764,,1677706911229,,,1141714453979098,1.9161885,Bike
Fix,GPS,37.4260758408,-122.1725527283,0.1360617387940909,0.0,5.155685,126.493126,1677706910000,0.35375226,80.096115,1141715741303000,4.209527,Bike
Fix,FLP,37.426063,-122.1725247,-0.1999998986721038,6.506708e-05,5.249,,1677706912315,,,1141715538983493,1.9261885,Bike
Fix,FLP,37.4260641,-122.1725249,-0.1999998986721038,0.00010870422,5.073,,1677706913400,,,1141716623981357,1.9261885,Bike
Fix,GPS,37.4260758408,-122.1725527283,0.4896942601718176,0.0,5.046664,126.493126,1677706912000,0.4257542,180.0,1141717741361000,4.166456,Bike
Fix,FLP,37.4260637,-122.1725239,-0.1999998986721038,0.00026927868,4.521,,1677706914486,,,1141717709007602,1.9461884,Bike
Fix,FLP,37.4260643,-122.1725253,-0.1999998986721038,0.00032113394,4.478,,1677706915027,,,1141718251517612,1.9461884,Bike
Fix,GPS,37.4260758408,-122.1725527283,0.6432009127021302,0.0,5.151128,126.493126,1677706913000,0.48909637,49.93447,1141718741349000,4.1443443,Bike
Fix,FLP,37.4260642,-122.172525,-0.1999998986721038,3.126489e-05,4.373,,1677706915571,,,1141718794026156,1.9561884,Bike
Fix,FLP,37.4260641,-122.1725253,-0.1999998986721038,2.4707346e-05,4.353,,1677706916626,,,1141719849000000,1.9561884,Bike
Fix,GPS,37.4260706028,-122.1725506258,0.7305681622671395,1.032818,5.2797623,93.50542,1677706914000,0.40939683,25.127262,1141719741364000,4.1305547,Bike
Fix,GPS,37.4260700855,-122.1725263108,0.7689348691532594,2.4674244,5.7440453,90.75487,1677706915000,0.3979013,10.0,1141720741554000,4.232535,Bike
Fix,FLP,37.4260633,-122.1725259,7.67590752196983,0.96683997,4.386,133.5454,1677706917198,,,1141720421564426,1.9772385,Bike
Fix,FLP,37.4260599,-122.1725186,7.67590752196983,2.2681153,4.398,118.04186,1677706918282,,,1141721506593967,1.9772385,Bike
Fix,GPS,37.4260659494,-122.1724914469,0.8065125023491827,3.0956,5.407387,101.57731,1677706916000,0.08760558,10.0,1141721741419000,4.150436,Bike
Fix,FLP,37.426059,-122.1724938,15.750618454509688,3.00834,4.78,106.47341,1677706918825,,,1141722049108371,1.9872785,Bike
Fix,NLP,37.426029,-122.1722887,0.6000000238418579,,25.984,,1677706919507,,,1141722730000000,1.4072727,Bike
Fix,FLP,37.4260605,-122.1724833,25.528485954790217,3.0724542,5.068,105.74686,1677706919368,,,1141722591624545,1.6843898,Bike
Fix,GPS,37.4260600506,-122.1724488981,0.8722402955777029,3.3733494,5.693325,101.197266,1677706917000,0.33532146,10.0,1141722741547000,4.2389026,Bike
Fix,FLP,37.4260588,-122.1724529,25.528485954790217,3.333072,5.602,104.70981,1677706919910,,,1141723134138949,1.6843898,Bike
Fix,GPS,37.4260530542,-122.1723990441,1.0860294349426038,4.471915,5.6345916,100.532745,1677706918000,0.31412533,10.0,1141723741429000,4.3055243,Bike
Fix,FLP,37.4260572,-122.1724384,19.689058185978528,3.3591573,6.077,106.26002,1677706920453,,,1141723676655551,1.6943898,Bike
Fix,FLP,37.4260525,-122.1724104,19.689058185978528,4.2942247,6.436,102.79027,1677706920996,,,1141724219169894,1.6943898,Bike
Fix,GPS,37.4260444798,-122.1723369414,1.172454313386903,4.9410524,5.756712,99.1839,1677706919000,0.38881615,10.0,1141724741635000,4.4148874,Bike
Fix,FLP,37.4260494,-122.1723877,23.781864413597784,4.4431734,6.955,101.67472,1677706921538,,,1141724761686313,1.7055018,Bike
Fix,GPS,37.4260353394,-122.1722742845,1.710717431644193,5.1649127,5.9027677,105.3324,1677706920000,0.4020285,10.0,1141725741546000,4.5466766,Bike
Fix,FLP,37.4260379,-122.172302,19.689058185978528,5.1539526,7.344,104.84237,1677706922517,0.4020285,10.0,1141725741546000,1.715381,Bike
Fix,GPS,37.4260259279,-122.1722126569,1.8797282508698328,5.2499127,6.051696,107.93194,1677706921000,0.41047445,10.0,1141726741568000,4.7059913,Bike
Fix,FLP,37.4260259,-122.1722255,16.642488757749877,5.2474756,8.086,106.92225,1677706923518,0.41047445,10.0,1141726741568000,1.7253917,Bike
Fix,GPS,37.4260148008,-122.1721573119,1.8261644622456163,5.369417,6.202862,104.55897,1677706922000,0.4410328,10.0,1141727741561000,4.8269873,Bike
Fix,FLP,37.4260138,-122.1721618,16.642488757749877,5.369473,8.025,104.09186,1677706924518,0.4410328,10.0,1141727741561000,1.7353817,Bike
Fix,GPS,37.4260027006,-122.1720982596,1.805498261116556,5.521273,6.3236904,105.03005,1677706923000,0.39582467,10.0,1141728741559000,4.9564466,Bike
Fix,FLP,37.4260024,-122.1721001,9.716090811813082,5.518864,7.835,104.955086,1677706925517,0.39582467,10.0,1141728741559000,1.7454017,Bike
Fix,GPS,37.4259837349,-122.1720345123,1.9708705997549345,5.601967,6.189745,108.30161,1677706924000,0.42110825,10.0,1141729741523000,5.097261,Bike
Fix,FLP,37.4259859,-122.1720365,4.711289693291057,5.598488,7.288,107.887596,1677706926517,0.42110825,10.0,1141729741523000,1.7554917,Bike
Fix,GPS,37.4259689825,-122.1719592316,1.1301829256220737,6.2005434,5.5942698,106.87549,1677706925000,0.053702947,10.0,1141730741609000,4.6852736,Bike
Fix,FLP,37.4259695,-122.171965,0.6000000238418579,6.198128,6.072,106.012764,1677706927517,0.053702947,10.0,1141730741609000,1.7654217,Bike
Fix,GPS,37.425954066,-122.1718856028,0.9688696816133382,6.111106,5.189387,104.710686,1677706926000,0.04142213,1.0,1141731741619000,4.586183,Bike
Fix,FLP,37.4259541,-122.1718894,0.6000000238418579,6.111137,5.9,104.00104,1677706928517,0.04142213,1.0,1141731741619000,1.7753917,Bike
Fix,GPS,37.4259393327,-122.1718152389,0.7617229069638202,5.8614655,4.8888054,106.22314,1677706927000,0.044008665,10.0,1141732741638000,4.4694943,Bike
Fix,FLP,37.4259398,-122.1718174,0.6000000238418579,5.8608956,5.637,105.93968,1677706929518,0.044008665,10.0,1141732741638000,1.7854117,Bike
Fix,GPS,37.4259254303,-122.1717496816,0.8982321357738144,5.829435,5.2428055,108.5593,1677706928000,0.37683478,3.9605036,1141733741667000,4.5210376,Bike
Fix,FLP,37.4259253,-122.171751,3.7573574527455698,5.8296,5.421,107.9849,1677706930517,0.37683478,3.9605036,1141733741667000,1.7954417,Bike
Fix,GPS,37.4259087534,-122.1716862287,0.837985050573561,5.8023677,5.499099,108.770874,1677706929000,0.51673996,5.2820153,1141734741646000,4.5662956,Bike
Fix,FLP,37.4259089,-122.1716869,5.188296184809378,5.8027234,5.282,107.99985,1677706931517,0.51673996,5.2820153,1141734741646000,1.8054117,Bike
Fix,GPS,37.4258921707,-122.1716226401,0.9120009575938732,6.317592,5.638399,105.154945,1677706930000,0.5144684,4.905416,1141735741689000,4.647652,Bike
Fix,FLP,37.4258924,-122.1716232,7.915512847606536,6.3111186,5.291,105.03602,1677706932517,0.5144684,4.905416,1141735741689000,1.8154018,Bike
Fix,GPS,37.4258770609,-122.1715532097,0.4346738937051236,6.286107,5.6576314,104.72289,1677706931000,0.503702,4.690342,1141736741769000,4.754901,Bike
Fix,FLP,37.4258773,-122.1715535,17.31554493066253,6.2864137,5.385,104.01291,1677706933518,0.503702,4.690342,1141736741769000,1.8254018,Bike
Fix,GPS,37.4258652442,-122.1714814916,0.2886267213659478,6.424892,5.6800404,102.680695,1677706932000,0.52238744,4.8260345,1141737741673000,4.881608,Bike
Fix,FLP,37.4258646,-122.1714826,6.452442498191459,6.4231143,5.543,102.02648,1677706934517,0.52238744,4.8260345,1141737741673000,1.8353918,Bike
Fix,GPS,37.4258519826,-122.1714069525,-0.0414990964454313,6.593773,5.682648,103.539116,1677706933000,0.53817356,4.897661,1141738741690000,5.005562,Bike
Fix,FLP,37.4258522,-122.1714086,-2.846232319085761,6.591434,5.631,102.98565,1677706935518,0.53817356,4.897661,1141738741690000,1.8453918,Bike
Fix,GPS,37.4258380921,-122.171335135,-0.3777137779528487,6.776439,5.641408,105.59388,1677706934000,0.5092292,4.3934755,1141739741779000,5.062838,Bike
Fix,FLP,37.4258384,-122.1713353,-2.846232319085761,6.774114,5.66,104.97526,1677706936517,0.5092292,4.3934755,1141739741779000,1.8543917,Bike
Fix,GPS,37.4258199202,-122.1712629483,-0.3439990354112476,6.504625,5.8125916,107.75197,1677706935000,0.512055,4.587055,1141740742061000,5.1783357,Bike
Fix,FLP,37.4258209,-122.1712623,0.6000000238418579,6.5078783,5.695,106.97382,1677706937519,0.512055,4.587055,1141740742061000,1.8644117,Bike
Fix,GPS,37.4258009396,-122.1711905884,-0.4527345067063251,6.4059057,5.802553,105.84042,1677706936000,0.47507864,4.346374,1141741741720000,5.224449,Bike
Fix,FLP,37.425802,-122.171191,0.6000000238418579,6.4069896,5.713,105.0224,1677706938517,0.47507864,4.346374,1141741741720000,1.8744117,Bike
Fix,GPS,37.4257868552,-122.1711220626,-0.5603857577831733,6.1536217,5.7999496,102.755066,1677706937000,0.48266754,4.6864285,1141742741737000,5.262056,Bike
Fix,FLP,37.425787,-122.1711217,0.6000000238418579,6.156375,5.748,102.037605,1677706939517,0.48266754,4.6864285,1141742741737000,1.8844018,Bike
Fix,GPS,37.4257759223,-122.1710566151,-1.5583720509515817,6.1168504,5.8267617,99.26938,1677706938000,0.46583512,4.7973375,1141743741824000,5.288772,Bike
Fix,FLP,37.4257757,-122.1710554,0.6000000238418579,6.117254,5.776,99.03739,1677706940517,0.46583512,4.7973375,1141743741824000,1.8943918,Bike
Fix,GPS,37.4257671877,-122.1709852653,-2.2437077312003884,5.9397097,5.778406,97.51146,1677706939000,0.45350668,4.8592596,1141744741868000,5.3425646,Bike
Fix,FLP,37.4257672,-122.1709859,0.6000000238418579,5.941469,5.804,97.02526,1677706941518,0.45350668,4.8592596,1141744741868000,1.9044018,Bike
Fix,GPS,37.4257627843,-122.1709173834,-2.5710464998117835,5.7263813,5.840243,94.45053,1677706940000,0.4221952,4.632047,1141745741830000,5.33159,Bike
Fix,FLP,37.425762,-122.170918,0.6000000238418579,5.728168,5.81,94.031654,1677706942517,0.4221952,4.632047,1141745741830000,1.9144018,Bike
Fix,GPS,37.4257601891,-122.1708550632,-3.1627906661539527,5.436442,5.9481273,92.341896,1677706941000,0.4561315,4.932071,1141746741790000,5.331648,Bike
Fix,FLP,37.4257595,-122.1708544,0.6000000238418579,5.4392695,5.838,92.02201,1677706943517,0.4561315,4.932071,1141746741790000,1.9244018,Bike
Fix,GPS,37.4257560169,-122.1707919066,-3.674107722573414,5.2864456,5.7142024,100.960884,1677706942000,0.4496579,4.8762608,1141747742165000,5.248529,Bike
Fix,FLP,37.4257566,-122.1707922,0.6000000238418579,5.2874107,5.821,99.922066,1677706944518,0.4496579,4.8762608,1141747742165000,1.9343917,Bike
Fix,GPS,37.4257464817,-122.170726062,-3.7760480883988974,5.547876,5.303835,104.64637,1677706943000,0.40661928,4.313765,1141748741859000,5.1613674,Bike
Fix,FLP,37.4257471,-122.1707284,4.300186850563637,5.5457177,5.716,103.96793,1677706945517,0.40661928,4.313765,1141748741859000,1.9444118,Bike
Fix,GPS,37.4257324586,-122.1706623797,-3.794809266195682,6.1519732,5.2572665,105.80123,1677706944000,0.38352448,3.8135993,1141749741827000,5.1226387,Bike
Fix,FLP,37.4257334,-122.1706641,0.6000000238418579,6.147664,5.64,104.99161,1677706946518,0.38352448,3.8135993,1141749741827000,1.9544017,Bike
Fix,GPS,37.4257137117,-122.1705944346,-2.962181257143357,6.4077106,5.3555193,105.70926,1677706945000,0.417857,3.8715878,1141750741934000,5.112584,Bike
Fix,FLP,37.4257155,-122.1705952,-2.681932540048677,6.405554,5.515,104.99982,1677706947518,0.417857,3.8715878,1141750741934000,1.9643917,Bike
Fix,GPS,37.4256984317,-122.1705233972,-2.696137718003764,6.392373,5.421562,104.46312,1677706946000,0.4123375,3.8911865,1141751741947000,5.0761843,Bike
Fix,FLP,37.4256992,-122.170524,0.6000000238418579,6.3925004,5.41,104.00893,1677706948517,0.4123375,3.8911865,1141751741947000,1.9744017,Bike
Fix,GPS,37.4256842868,-122.1704551543,-2.4832365062068527,6.2543874,5.635634,105.490746,1677706947000,0.45650563,4.387379,1141752741946000,5.1256633,Bike
Fix,FLP,37.4256846,-122.1704547,0.6000000238418579,6.255727,5.448,104.989494,1677706949517,0.45650563,4.387379,1141752741946000,1.9844117,Bike
Fix,GPS,37.4256704458,-122.1703878847,-2.3037688572745645,6.0469956,5.7984767,106.86972,1677706948000,0.4482951,4.363215,1141753741862000,5.169922,Bike
Fix,FLP,37.4256703,-122.1703873,0.6000000238418579,6.0489597,5.493,105.98986,1677706950518,0.4482951,4.363215,1141753741862000,1.9943818,Bike
Fix,GPS,37.4256540146,-122.1703211763,-2.5609179481558195,6.0247498,5.8508697,106.84008,1677706949000,0.44118163,4.292621,1141754741912000,5.2336454,Bike
Fix,FLP,37.4256545,-122.1703213,0.6000000238418579,6.0249763,5.612,105.999985,1677706951517,0.44118163,4.292621,1141754741912000,2.0044017,Bike
Fix,GPS,37.4256400863,-122.1702545953,-3.400714240083004,5.654589,5.8042727,104.28706,1677706950000,0.4064662,4.602199,1141755742056000,5.277875,Bike
Fix,FLP,37.4256399,-122.170255,0.6000000238418579,5.6576176,5.702,104.021706,1677706952518,0.4064662,4.602199,1141755742056000,2.0144017,Bike
Fix,GPS,37.4256307658,-122.1701886789,-4.073823974865716,5.125377,5.667428,98.35703,1677706951000,0.3989425,5.1014104,1141756741955000,5.3475084,Bike
Fix,FLP,37.4256297,-122.1701902,0.6000000238418579,5.1293893,5.751,98.066025,1677706953517,0.3989425,5.1014104,1141756741955000,2.0244117,Bike
Fix,GPS,37.4256286958,-122.1701300196,-4.580334198477018,4.698241,5.5357623,93.601555,1677706952000,0.39049566,5.422434,1141757742002000,5.313205,Bike
Fix,FLP,37.4256268,-122.1701309,0.6000000238418579,4.701273,5.731,93.05159,1677706954518,0.39049566,5.422434,1141757742002000,2.0344117,Bike
Fix,NLP,37.4256617,-122.1699581,0.1999999582767486,,52.224,,1677706954660,,,1141757884000000,3.915826,Bike
Fix,FLP,37.4256273,-122.1701259,0.6000000238418579,4.700817,5.84,93.0489,1677706954661,0.39049566,5.422434,1141757884000000,1.9329736,Bike
Fix,GPS,37.4256290835,-122.1700802832,-5.773340583675696,4.475657,5.5544596,94.671074,1677706953000,0.39475256,5.6536407,1141758741984000,5.284646,Bike
Fix,FLP,37.4256278,-122.170082,-0.1999998986721038,4.477538,5.883,93.98481,1677706955517,0.39475256,5.6536407,1141758741984000,3.5847127,Bike
Fix,GPS,37.4256248008,-122.1700294877,-6.104289429036256,4.679949,5.377244,97.94696,1677706954000,0.3828838,5.009075,1141759741990000,5.2759943,Bike
Fix,FLP,37.4256264,-122.1700462,-0.1999998986721038,4.6692348,5.757,96.83608,1677706956518,0.3828838,5.009075,1141759741990000,3.5947328,Bike
Fix,GPS,37.4256198916,-122.1699782366,-6.34583464865511,4.627442,5.214492,101.0867,1677706955000,0.38265708,5.136486,1141760742019000,5.2201786,Bike
Fix,FLP,37.4256204,-122.1699838,-0.1999998986721038,4.62762,5.703,100.96622,1677706957519,0.38265708,5.136486,1141760742019000,3.5440917,Bike
Fix,GPS,37.4256127012,-122.1699235823,-6.37170414165225,4.4862537,5.191147,99.89441,1677706956000,0.40287292,5.6986294,1141761742065000,5.181899,Bike
Fix,FLP,37.425615,-122.1699433,0.1999999582767486,4.4943705,5.562,99.13805,1677706958519,0.40287292,5.6986294,1141761742065000,3.5541017,Bike
Fix,GPS,37.4256036921,-122.1698724213,-6.24699189381086,4.6950426,5.3118806,101.30399,1677706957000,0.4151965,5.6487355,1141762742096000,5.1691346,Bike
Fix,FLP,37.4256065,-122.1698851,-2.528215723897059,4.690895,5.512,100.953415,1677706959518,0.4151965,5.6487355,1141762742096000,3.5641017,Bike
Fix,GPS,37.4255946608,-122.1698177467,-5.973241026453378,4.5382366,5.429263,103.71776,1677706958000,0.39616993,5.362111,1141763742111000,5.1437426,Bike
Fix,FLP,37.4255983,-122.1698378,-2.2694686081926143,4.5474453,5.322,102.86652,1677706960518,0.39616993,5.362111,1141763742111000,3.5741017,Bike
Fix,NLP,37.4253532,-122.1695793,-1.6999999284744265,,22.639,,1677706960737,,,1141763960000000,1.7067884,Bike
Fix,FLP,37.425595,-122.1698257,-1.6999999284744265,1.9115757,8.037,65.18571,1677706960736,,,1141763960000000,2.2739465,Bike
Fix,FLP,37.4255972,-122.1698055,-1.6999999284744265,1.9219774,11.705,66.75043,1677706961299,,,1141764522459994,2.2739465,Bike
Fix,GPS,37.4255840651,-122.1697670756,-5.646403645958056,4.7161508,5.416215,103.69547,1677706959000,0.39411256,5.187858,1141764742115000,5.1198263,Bike
Fix,GPS,37.4255735545,-122.1697168573,-5.843224899792164,4.5788918,5.411403,104.3104,1677706960000,0.36653453,4.8912306,1141765742134000,5.0432925,Bike
Fix,FLP,37.4255875,-122.1697434,-1.6999999284744265,4.547746,14.459,97.67427,1677706962383,,,1141765607456882,2.2828066,Bike
Fix,FLP,37.4255756,-122.1697032,-1.6999999284744265,4.581439,14.367,102.15472,1677706962925,,,1141766149948763,1.829575,Bike
Fix,FLP,37.425568,-122.1696765,-1.6999999284744265,4.5848403,15.482,103.21096,1677706963469,,,1141766692441196,1.829575,Bike
Fix,GPS,37.4255624416,-122.1696682995,-6.132653900601669,4.180964,5.5519104,102.94461,1677706961000,0.3982043,5.8180265,1141766742155000,5.0297637,Bike
Fix,FLP,37.4255585,-122.1696461,-1.6999999284744265,4.2576094,14.622,103.55965,1677706964011,,,1141767234932650,1.839855,Bike
Fix,GPS,37.4255521355,-122.1696234056,-6.627764600204685,3.9870238,5.8068094,107.16886,1677706962000,0.4471722,6.8649483,1141767742119000,5.073158,Bike
Fix,FLP,37.4255525,-122.1696244,3.575056381437644,4.2047033,15.682,103.43237,1677706964553,,,1141767777424838,2.3233654,Bike
Fix,FLP,37.425545,-122.1695881,3.575056381437644,3.9972513,16.985,106.270935,1677706965095,,,1141768319915865,2.3233654,Bike
Fix,GPS,37.4255394448,-122.1695813164,-6.522244288808555,4.0108724,6.0177655,112.07947,1677706963000,0.44360456,6.6215773,1141768742091000,5.158156,Bike
Fix,FLP,37.425543,-122.1695815,10.147892072260516,3.9937148,16.508,106.652985,1677706965639,,,1141768862400119,2.3333654,Bike
Fix,NLP,37.426084,-122.1726537,,,899.999,,1677706965767,,,1141768991000000,,Bike
Fix,FLP,37.4255322,-122.1695437,10.147892072260516,3.980002,14.364,110.50273,1677706966181,,,1141769404899142,2.3333654,Bike
Fix,GPS,37.4255224252,-122.1695399855,-6.365012606895272,3.9303193,5.96052,115.765396,1677706964000,0.40275383,5.993717,1141769742151000,5.200343,Bike
Fix,FLP,37.4255213,-122.1695232,5.757429373844413,3.9257333,10.046,114.72686,1677706966723,,,1141769947391452,2.3433855,Bike
Fix,GPS,37.4255022976,-122.169495901,-6.737661790344963,3.2236912,5.616187,119.115425,1677706965000,0.37257946,6.606127,1141770742211000,5.211963,Bike
Fix,FLP,37.4255122,-122.1695061,0.1999999582767486,3.9180834,10.111,118.15035,1677706967265,,,1141770489884859,2.3533854,Bike
Fix,FLP,37.4255011,-122.1694875,0.1999999582767486,3.3603597,10.126,122.10202,1677706967808,,,1141771032379916,2.3533854,Bike
Fix,FLP,37.4254907,-122.1694737,0.1999999582767486,3.2613626,10.148,134.15517,1677706968351,,,1141771574875033,2.3533854,Bike
Fix,GPS,37.4254795502,-122.169469036,-6.4862309246838645,2.1765783,5.233382,138.87953,1677706966000,0.37769663,9.568047,1141771742165000,5.1454196,Bike
Fix,FLP,37.425473,-122.1694561,-7.086559859685821,2.3079107,10.237,146.59807,1677706968893,,,1141772117370944,2.3633854,Bike
Fix,GPS,37.4254603125,-122.1694584074,-6.979610348268071,1.2742547,5.4838004,184.38615,1677706967000,0.365738,16.939749,1141772742249000,5.2271056,Bike
Fix,FLP,37.4254647,-122.169452,-9.112614349877148,2.1855962,10.259,163.81093,1677706969436,,,1141772659863315,2.3733954,Bike
Fix,GPS,37.4254423989,-122.1694675623,-6.308105198098424,1.1616743,5.481426,203.29976,1677706968000,0.3139811,15.571468,1141773742165000,5.239499,Bike
Fix,FLP,37.4254425,-122.1694581,-9.112614349877148,1.3047605,10.105,209.82666,1677706970521,,,1141773744858066,2.3833656,Bike
Fix,GPS,37.4254254433,-122.1694760242,-5.742059283381714,1.0705233,5.5241218,233.68175,1677706969000,0.32260722,16.36237,1141774742272000,5.283537,Bike
Fix,FLP,37.4254288,-122.1694725,-5.82334560803292,1.1740692,9.742,210.86943,1677706971605,,,1141774829848910,2.3933656,Bike
Fix,GPS,37.4254148375,-122.1694836182,-5.588296447671439,0.44000217,5.591303,233.68175,1677706970000,0.291619,18.91713,1141775742293000,5.34697,Bike
Fix,FLP,37.4254193,-122.1694823,-1.6999999284744265,1.0780463,9.284,211.1674,1677706972148,,,1141775372345004,2.4033656,Bike
Fix,GPS,37.4254084125,-122.1694866465,-5.026367833926834,0.5847168,5.474077,233.68175,1677706971000,0.23969771,48.558617,1141776742260000,5.3682437,Bike
Fix,FLP,37.4254103,-122.1694906,-1.6999999284744265,0.48000818,8.533,205.55788,1677706973233,,,1141776457337253,2.4133756,Bike
Fix,GPS,37.4254035446,-122.1694853975,-4.872944948959421,0.56074816,5.432222,233.68175,1677706972000,0.22177644,51.107124,1141777742342000,5.3800225,Bike
Fix,FLP,37.4254053,-122.1694927,4.841908430846175,0.57662475,7.342,201.05399,1677706974318,,,1141777542322177,2.4233656,Bike
Fix,GPS,37.4254030349,-122.1694786617,-5.067699201329088,0.60789376,5.5396433,233.68175,1677706973000,0.27633452,22.74816,1141778742241000,5.39266,Bike
Fix,FLP,37.4254023,-122.1694926,7.456412588419457,0.5576821,6.505,185.49417,1677706975404,,,1141778627313266,2.4333656,Bike
Fix,GPS,37.425397557,-122.1694788137,-4.5095388019410585,0.28116953,5.8947353,233.68175,1677706974000,0.31862593,32.61708,1141779742287000,5.3608837,Bike
Fix,FLP,37.4254005,-122.1694894,16.106847941787844,0.60065013,5.518,176.13615,1677706976489,,,1141779712312838,2.4434555,Bike
Fix,NLP,37.425321,-122.169484,-1.5000001192092896,,19.365,,1677706977457,,,1141780680000000,1.0,Bike
Fix,FLP,37.4253996,-122.1694876,14.026131023578063,0.30585596,5.416,194.44621,1677706977574,,,1141780797304050,2.2702508,Bike
Fix,GPS,37.4253934071,-122.1694872462,-4.499893407748223,0.8886564,5.9941053,233.68175,1677706975000,0.29714197,28.957806,1141780742383000,5.292721,Bike
Fix,FLP,37.4253977,-122.1694881,12.159650236192563,0.8228006,5.005,202.1878,1677706978115,,,1141781339796725,2.2715108,Bike
Fix,GPS,37.4253820878,-122.1694959593,-4.48041853542925,0.9903354,6.088473,233.68175,1677706976000,0.33982015,10.77893,1141781742366000,5.293015,Bike
Fix,GPS,37.4253697599,-122.1695047097,-4.6210159434098985,1.0495006,5.9008393,182.17274,1677706977000,0.3318712,18.076553,1141782742307000,5.3410354,Bike
Fix,FLP,37.4253935,-122.1694907,-6.454976329794839,0.9769957,5.044,199.02727,1677706979201,,,1141782424789644,2.2281933,Bike
Fix,GPS,37.425354153,-122.1695169328,-4.761345696092081,0.89796436,5.5255094,182.17274,1677706978000,0.27775878,11.891545,1141783742416000,5.360603,Bike
Fix,FLP,37.4253898,-122.169493,-13.266241804320844,1.0422146,5.103,204.334,1677706980285,,,1141783509778841,2.189492,Bike
Fix,GPS,37.4253440184,-122.169517601,-4.572859405788324,0.8544318,5.3930893,182.17274,1677706979000,0.2859017,4.0062585,1141784742460000,5.3707542,Bike
Fix,FLP,37.4253863,-122.1694959,-6.665679473200981,0.9057139,5.246,205.75592,1677706981370,,,1141784594767368,2.2318625,Bike
Fix,NLP,37.4252689,-122.1694341,-1.1999999284744265,,40.667,,1677706982490,,,1141785714000000,1.0,Bike
Fix,GPS,37.4253320481,-122.1695174646,-4.162953404386605,1.0074683,5.4066806,179.79718,1677706980000,0.30549943,16.475346,1141785742387000,5.364925,Bike
Fix,FLP,37.4253828,-122.169498,9.68685291495378,0.84994686,5.426,187.60776,1677706982456,,,1141785679752780,1.9898057,Bike
Fix,GPS,37.425320029,-122.169519953,-4.209254670850684,0.82438815,5.650302,179.79718,1677706981000,0.3789777,9.114884,1141786742450000,5.4210405,Bike
Fix,FLP,37.425378,-122.1694989,12.779497516998642,0.9943199,5.949,213.39197,1677706983540,,,1141786764730685,1.9995756,Bike
Fix,FLP,37.4253748,-122.1695024,12.779497516998642,0.8310295,6.197,227.34804,1677706984083,,,1141787307235141,1.9995756,Bike
Fix,GPS,37.4253078389,-122.169525784,-4.360008850953667,1.3074049,5.8044195,205.58835,1677706982000,0.33958212,13.637059,1141787742372000,5.457569,Bike
Fix,FLP,37.4253748,-122.1695032,9.68685291495378,0.8247415,6.438,229.6055,1677706984625,,,1141787849727816,2.0095656,Bike
Fix,FLP,37.4253715,-122.1695074,9.68685291495378,1.2536324,6.542,222.02205,1677706985127,,,1141788351000000,2.0095656,Bike
Fix,GPS,37.4252898713,-122.169535526,-3.761584845821031,2.176617,5.8568726,197.54097,1677706983000,0.3833551,8.971341,1141788742407000,5.488053,Bike
Fix,FLP,37.425363,-122.1695145,9.018266483063371,1.9991966,6.883,212.41031,1677706985711,,,1141788934713167,2.0195656,Bike
Fix,FLP,37.4253551,-122.1695203,9.018266483063371,2.1488667,7.047,210.12029,1677706986254,,,1141789477206149,2.0195656,Bike
Fix,GPS,37.4252621059,-122.1695418111,-3.2801317949217013,2.4542167,5.8833227,189.79132,1677706984000,0.39848253,8.614862,1141789742421000,5.527035,Bike
Fix,FLP,37.4253204,-122.1695311,5.588247879321425,2.4033191,7.493,188.26917,1677706986795,,,1141790019695407,2.0301006,Bike
Fix,FLP,37.4252908,-122.1695361,5.588247879321425,2.449322,7.934,176.7823,1677706987338,,,1141790562179843,2.0301006,Bike
Fix,GPS,37.4252324141,-122.1695335982,-3.535754293660328,2.7360928,5.6332574,174.45766,1677706985000,0.36001566,7.1457005,1141790742460000,5.51243,Bike
Fix,NLP,37.4252444,-122.1694469,-0.6000000238418579,,35.947,,1677706987543,,,1141790767000000,1.5673286,Bike
Fix,FLP,37.4252398,-122.1695323,21.24570385363841,2.5199587,8.326,174.48387,1677706988424,,,1141791647176120,1.979337,Bike
Fix,GPS,37.4252018828,-122.1695229023,-3.513290697815332,3.3329563,5.4035254,173.53604,1677706986000,0.32447276,5.7636876,1141791742490000,5.5110016,Bike
Fix,GPS,37.4251624574,-122.1695076048,-3.333060610622028,3.1538455,5.342505,190.91072,1677706987000,0.3760003,6.7825403,1141792742462000,5.520064,Bike
Fix,FLP,37.4251959,-122.1695313,-5.469244412887814,3.2523766,8.879,201.98877,1677706989508,,,1141792732160678,2.0389583,Bike
Fix,GPS,37.4251258776,-122.1695098782,-2.390688655099764,2.9887052,5.421857,196.83356,1677706988000,0.41304702,8.013373,1141793742513000,5.5827885,Bike
Fix,FLP,37.4251551,-122.1695268,-5.4850619297366805,3.173879,9.221,191.54074,1677706990593,,,1141793817145053,2.0833166,Bike
Fix,FLP,37.4251257,-122.1695201,-5.4850619297366805,3.017142,9.299,183.67346,1677706991136,,,1141794359634067,2.0833166,Bike
Fix,GPS,37.4250903737,-122.169508622,-2.3990628933360965,2.2752812,5.64851,191.01491,1677706989000,0.41242698,10.956083,1141794742537000,5.6815467,Bike
Fix,FLP,37.42511,-122.1695146,-5.469244412887814,2.9399316,9.436,167.93344,1677706991678,,,1141794902129123,2.1186433,Bike
Fix,FLP,37.425083,-122.1695064,-5.469244412887814,2.364029,9.382,165.9089,1677706992221,,,1141795444621554,2.1186433,Bike
Fix,GPS,37.4250608522,-122.1695046191,-2.836559550579071,1.6237062,5.803107,148.2393,1677706990000,0.4094116,14.064661,1141795742550000,5.7793407,Bike
Fix,FLP,37.4250597,-122.1694992,-1.5000001192092896,1.6477013,9.365,133.07701,1677706993306,,,1141796529605196,2.1286433,Bike
Fix,GPS,37.4250479426,-122.1694835676,-2.89711264445778,2.2644858,5.804477,130.46265,1677706991000,0.43943685,10.620648,1141796742599000,5.8674717,Bike
Fix,FLP,37.4250412,-122.1694763,-0.6000000238418579,2.1963942,9.454,137.594,1677706994390,,,1141797614589083,2.1386533,Bike
Fix,GPS,37.4250419733,-122.1694458684,-3.551724533919855,3.1357465,5.8335276,112.550606,1677706992000,0.4567079,7.8372416,1141797742545000,5.9670634,Bike
Fix,FLP,37.4250281,-122.1694398,12.473599269571626,3.0388684,9.571,110.79482,1677706995471,,,1141798695000000,2.1486433,Bike
Fix,GPS,37.425039323,-122.1693933736,-4.32932747389631,3.492935,5.8401256,111.92945,1677706993000,0.446031,7.109831,1141798742562000,5.991725,Bike
Fix,FLP,37.4250286,-122.1694052,14.439880784710272,3.420475,9.617,106.63823,1677706995984,,,1141799207000000,2.1586332,Bike
Fix,GPS,37.4250339853,-122.1693402561,-5.138014976775199,3.4152172,5.9347963,111.13691,1677706994000,0.45028338,7.3505335,1141799742593000,6.07372,Bike
Fix,FLP,37.4250292,-122.1693776,14.439880784710272,3.494272,9.77,103.816,1677706996560,,,1141799784555269,2.1686332,Bike
Fix,FLP,37.4250257,-122.1693463,14.439880784710272,3.40744,9.927,110.41745,1677706997071,,,1141800294000000,2.1686332,Bike
Fix,GPS,37.4250253861,-122.1692981599,-4.547984875609052,3.5859702,6.096383,121.2021,1677706995000,0.4362339,6.7863874,1141800742655000,6.1124897,Bike
Fix,FLP,37.4250219,-122.1693202,10.746512635579176,3.4196835,10.225,120.035995,1677706997646,,,1141800869537325,2.1786532,Bike
Fix,FLP,37.4250081,-122.1692837,10.413202018803876,3.5550823,10.296,141.97337,1677706998188,,,1141801412028842,2.1886632,Bike
Fix,GPS,37.425001851,-122.1692460751,-4.286544992662118,3.7006817,5.860587,139.29042,1677706996000,0.42951706,6.366053,1141801742711000,6.0027633,Bike
Fix,FLP,37.424984,-122.1692462,10.413202018803876,3.7125053,10.275,152.6323,1677706999272,,,1141802496999911,2.1886632,Bike
Fix,GPS,37.4249725983,-122.1692129258,-5.0064612015627805,3.6419828,5.9891644,153.60878,1677706997000,0.4477787,6.9271984,1141802742602000,5.9759912,Bike
Fix,FLP,37.4249522,-122.1692156,9.23189553019864,3.6785138,10.278,163.72282,1677707000358,,,1141803581993625,2.1986532,Bike
Fix,GPS,37.4249407576,-122.1691995581,-5.665089344801622,3.6408103,5.9469266,163.27876,1677706998000,0.47712705,7.358205,1141803742729000,5.957723,Bike
Fix,FLP,37.4249172,-122.169198,6.28267253087094,3.6492765,10.36,164.99632,1677707001412,,,1141804635000000,2.2086432,Bike
Fix,GPS,37.4249002722,-122.1692084608,-5.708658692827062,4.0028825,5.8991613,179.25745,1677706999000,0.4531349,6.2558446,1141804742709000,5.8964567,Bike
Fix,FLP,37.4248897,-122.1691958,-0.6000000238418579,3.9611058,10.275,174.19652,1677707001986,,,1141805209465853,2.2186432,Bike
Fix,GPS,37.4248492334,-122.1692215627,-5.755193255748273,3.648684,5.676738,184.53064,1677707000000,0.4039124,6.1075974,1141805742720000,5.891692,Bike
Fix,FLP,37.4248745,-122.1691979,-0.6000000238418579,3.995718,10.13,174.61589,1677707002527,,,1141805751956821,2.2286432,Bike
Fix,FLP,37.4248364,-122.1692085,-0.6000000238418579,3.683973,9.931,180.32834,1677707003070,,,1141806294447054,2.2286432,Bike
Fix,GPS,37.4248044949,-122.169232473,-4.89540363374365,2.9104755,5.4203577,169.7732,1677707001000,0.34270746,6.0945044,1141806742752000,5.9068995,Bike
Fix,FLP,37.4248305,-122.1692132,-0.6000000238418579,3.664893,9.94,178.30635,1677707003613,,,1141806836937533,2.2387033,Bike
Fix,FLP,37.4247951,-122.1692177,-0.6000000238418579,2.9979806,9.835,161.78777,1677707004155,,,1141807379427462,2.2387033,Bike
Fix,GPS,37.424770266,-122.1692286323,-5.009234171843779,2.8923354,5.3895645,146.40317,1677707002000,0.4151608,7.8563304,1141807742739000,5.870342,Bike
Fix,FLP,37.4247762,-122.1692171,-0.6000000238418579,2.875102,9.707,147.32768,1677707004698,,,1141807921918856,2.2486432,Bike
Fix,GPS,37.424748705,-122.1692072096,-5.229319239036171,3.0988727,5.3127365,130.46906,1677707003000,0.3744187,6.65376,1141808742798000,5.7733827,Bike
Fix,FLP,37.4247629,-122.1692101,8.368639196783231,2.881841,9.581,135.35985,1677707005241,,,1141808464395785,2.2586532,Bike
Fix,FLP,37.4247486,-122.1691966,8.368639196783231,3.0605524,9.498,128.47981,1677707005783,,,1141809006897738,2.2586532,Bike
Fix,GPS,37.4247309521,-122.1691804295,-5.109222309410764,3.2260969,5.6890273,119.47639,1677707004000,0.41944405,7.2748313,1141809742788000,5.8491635,Bike
Fix,FLP,37.4247412,-122.169186,3.59855271562353,3.101222,9.309,123.72964,1677707006326,,,1141809549386997,2.2686431,Bike
Fix,FLP,37.4247287,-122.1691672,3.59855271562353,3.2110307,9.397,118.299065,1677707006842,,,1141810066795505,2.2686431,Bike
Fix,GPS,37.4247194469,-122.1691449358,-4.254384032410548,2.9303668,5.853577,134.36864,1677707005000,0.40252492,7.5406055,1141810742817000,5.937154,Bike
Fix,FLP,37.4247246,-122.1691597,-6.665169302440834,3.225816,9.489,117.805916,1677707007410,,,1141810634365633,2.2786531,Bike
Fix,GPS,37.4246983241,-122.1691208017,-3.5636795730707727,2.7477553,5.873419,158.98097,1677707006000,0.39947703,8.351005,1141811742787000,6.0348277,Bike
Fix,FLP,37.4247051,-122.1691292,-12.255812232756291,2.9559262,9.545,153.59705,1677707008495,,,1141811719344698,2.288633,Bike
Fix,FLP,37.4246856,-122.1691164,-12.255812232756291,2.7782483,9.586,161.7575,1677707009037,,,1141812261830538,2.288633,Bike
Fix,GPS,37.4246766207,-122.1691099345,-3.539838029633025,3.2399201,6.233664,155.41127,1677707007000,0.4479665,7.905339,1141812742838000,6.1900454,Bike
Fix,FLP,37.424678,-122.1691124,-13.034801900406904,2.7524328,9.787,158.00258,1677707009580,,,1141812804311678,2.2986531,Bike
Fix,FLP,37.4246581,-122.1690995,-13.034801900406904,3.1423402,10.094,144.83833,1677707010123,,,1141813346806673,2.2986531,Bike
Fix,GPS,37.4246375424,-122.1690837523,-2.6099105984810764,2.7541819,6.3609796,143.17274,1677707008000,0.42429575,8.521828,1141813742843000,6.3350377,Bike
Fix,GPS,37.4246161112,-122.1690543301,-2.681525365187834,2.6034129,6.4648867,125.375404,1677707009000,0.45087022,9.357475,1141814742849000,6.5008764,Bike
Fix,FLP,37.4246327,-122.1690743,25.38833396926684,2.8114958,10.521,131.92792,1677707011207,,,1141814431791049,2.318633,Bike
Fix,FLP,37.4246193,-122.1690554,25.38833396926684,2.645085,10.523,124.779785,1677707011751,,,1141814974279513,2.318633,Bike
Fix,GPS,37.424603137,-122.1690193357,-2.952532174414826,3.1223433,6.760357,108.40201,1677707010000,0.4732498,8.042209,1141815742878000,6.7330914,Bike
Fix,FLP,37.4246121,-122.1690422,15.359510875772134,2.6213036,10.533,120.5213,1677707012293,,,1141815516768832,2.328643,Bike
Fix,FLP,37.4246067,-122.169028,15.359510875772134,3.0254197,10.619,110.446846,1677707012835,,,1141816059257296,2.328643,Bike
Fix,GPS,37.4245986151,-122.1689771022,-3.4439485793799225,3.2133136,6.8793683,101.64966,1677707011000,0.48492107,8.284231,1141816742862000,6.92236,Bike
Fix,FLP,37.4245998,-122.1690024,22.310607551400448,3.119484,10.839,105.04238,1677707013377,,,1141816601749239,2.3386333,Bike
Fix,GPS,37.4245945953,-122.168930813,-3.58645188052096,3.4169009,6.860348,97.17733,1677707012000,0.48517555,7.9568486,1141817742919000,7.0414076,Bike
Fix,FLP,37.4245928,-122.1689606,15.359510875772134,3.211271,11.02,98.6361,1677707014463,,,1141817686723909,2.3486233,Bike
Fix,GPS,37.4245904772,-122.1688857808,-3.80838341949664,3.8946717,7.104345,102.39296,1677707013000,0.5918969,8.463417,1141818742881000,7.2649274,Bike
Fix,FLP,37.424589,-122.1689067,13.014600693990465,3.3995287,11.24,98.24873,1677707015547,,,1141818771700961,2.358653,Bike
Fix,FLP,37.424587,-122.1688692,13.014600693990465,3.8125322,11.296,102.88226,1677707016091,,,1141819314189181,2.358653,Bike
Fix,FLP,37.4245786,-122.1688242,-7.55588054810169,3.8656769,11.717,107.30851,1677707017176,,,1141820399165926,2.3786533,Bike
Fix,GPS,37.4245932724,-122.1687205533,-8.648003113143744,4.0350966,6.8539276,108.964584,1677707015000,0.49962747,7.1961994,1141820742955000,7.3827186,Bike
Fix,FLP,37.4245785,-122.1687771,-8.070572954375699,4.0080786,11.81,107.66943,1677707017717,,,1141820941654819,2.3796632,Bike
Fix,FLP,37.4245765,-122.1687378,-8.070572954375699,4.030786,11.868,108.09771,1677707018261,,,1141821484131502,2.3796632,Bike
Fix,GPS,37.4245827672,-122.1686619673,-7.211318249587991,4.65327,6.231571,108.28771,1677707016000,0.10024861,1.0236866,1141821742967000,6.749712,Bike
Fix,FLP,37.4245702,-122.1686633,-6.424875452006088,4.5847216,11.799,105.9899,1677707019345,,,1141822569120638,2.389743,Bike
Fix,GPS,37.4245692272,-122.1686080903,-6.495232580747973,5.127679,5.8188233,105.74628,1677707017000,0.0869078,1.0,1141822742984000,6.5005226,Bike
Fix,FLP,37.424563,-122.1686061,-4.447165984675671,5.0453916,11.532,105.35802,1677707019887,,,1141823111609897,2.3996532,Bike
Fix,GPS,37.4245587347,-122.1685536265,-6.078073748069169,5.243992,5.8851104,106.44645,1677707018000,0.4522894,5.1068773,1141823742995000,6.3568244,Bike
Fix,FLP,37.4245594,-122.1685714,-0.6000000238418579,5.2405133,11.026,105.99321,1677707020518,0.4522894,5.1068773,1141823742995000,2.4096332,Bike
Fix,GPS,37.424545187,-122.168490578,-6.01150398029594,5.667265,5.328115,105.436356,1677707019000,0.048711885,1.0,1141824743222000,6.014916,Bike
Fix,FLP,37.4245456,-122.1684985,-0.6000000238418579,5.6672063,10.346,105.00005,1677707021520,0.048711885,1.0,1141824743222000,2.4197032,Bike
Fix,GPS,37.4245354858,-122.1684298574,-5.4229304184935705,5.604097,5.2565074,102.618645,1677707020000,0.40434477,4.599969,1141825742997000,5.873706,Bike
Fix,FLP,37.4245345,-122.1684321,-1.1999999284744265,5.604639,9.659,102.02895,1677707022518,0.40434477,4.599969,1141825742997000,2.4286432,Bike
Fix,NLP,37.4243886,-122.1681176,4.0,,36.609,,1677707022773,,,1141825996000000,6.6374187,Bike
Fix,FLP,37.4245332,-122.1684215,-1.1999999284744265,5.603005,9.123,102.025795,1677707022773,0.40434477,4.599969,1141825996000000,2.2429707,Bike
Fix,GPS,37.4245304759,-122.1683728639,-5.3513104486527485,5.0710444,5.274948,98.58081,1677707021000,0.41891184,5.552129,1141826743087000,5.8648553,Bike
Fix,FLP,37.4245289,-122.168374,-3.619411311804399,5.0757556,8.016,98.04445,1677707023520,0.41891184,5.552129,1141826743087000,2.289141,Bike
Fix,GPS,37.4245285703,-122.1683111516,-5.467230145834416,5.2272587,5.3259544,92.75599,1677707022000,0.4297916,5.407105,1141827743077000,5.7288384,Bike
Fix,FLP,37.4245265,-122.1683132,-0.6000000238418579,5.2257633,6.816,92.06621,1677707024520,0.4297916,5.407105,1141827743077000,2.4429047,Bike
Fix,GPS,37.4245296313,-122.1682474231,-5.855334928612805,5.6898007,5.4956136,85.994156,1677707023000,0.4981316,5.53482,1141828743079000,5.648418,Bike
Fix,FLP,37.4245279,-122.1682497,8.0139578832555,5.683802,5.576,85.09213,1677707025520,0.4981316,5.53482,1141828743079000,2.5197296,Bike
Fix,GPS,37.424536967,-122.1681812119,-5.985845815887818,5.388362,5.5530424,85.061325,1677707024000,0.44228095,5.12179,1141829743150000,5.4991074,Bike
Fix,FLP,37.4245353,-122.1681828,16.054670313348357,5.3911166,5.572,85.00016,1677707026520,0.44228095,5.12179,1141829743150000,2.5297296,Bike
Fix,GPS,37.4245396682,-122.1681237771,-6.065818839391975,4.904129,5.7179947,92.358955,1677707025000,0.47974697,5.863632,1141830743506000,5.4316854,Bike
Fix,FLP,37.4245396,-122.1681231,4.0,4.9089494,5.69,91.909424,1677707027519,0.47974697,5.863632,1141830743506000,2.5397296,Bike
Fix,GPS,37.424539206,-122.1680755851,-6.707860535106669,5.054449,5.9170313,97.69427,1677707026000,0.4777271,5.404841,1141831743032000,5.4825583,Bike
Fix,FLP,37.4245389,-122.1680695,12.456725490825196,5.0842204,6.276,95.140396,1677707028520,,,1141831743032000,2.5497096,Bike
Fix,FLP,37.4245364,-122.1680374,12.456725490825196,4.744587,7.523,80.28035,1677707029110,,,1141832333939730,2.5497096,Bike
Fix,GPS,37.4245343186,-122.1680193599,-6.128479864366786,4.9643207,6.096644,96.39018,1677707027000,0.49460214,5.368111,1141832743152000,5.5720897,Bike
Fix,FLP,37.4245353,-122.1680288,30.79690990783455,4.94346,7.319,95.54379,1677707029519,0.49460214,5.368111,1141832743152000,2.5597596,Bike
Fix,GPS,37.4245254714,-122.1679632673,-5.999563563925064,5.216388,6.1308765,99.668526,1677707028000,0.46020812,4.5360193,1141833743459000,5.6116505,Bike
Fix,FLP,37.4245278,-122.1679673,14.731410082962878,5.2137394,7.41,98.9744,1677707030519,0.46020812,4.5360193,1141833743459000,2.5697095,Bike
Fix,GPS,37.4245115482,-122.1678953314,-6.371116843223506,5.515881,6.035802,107.43284,1677707029000,0.4559257,4.314467,1141834743190000,5.622685,Bike
Fix,FLP,37.4245149,-122.1679005,14.731410082962878,5.512854,7.479,106.937836,1677707031520,0.4559257,4.314467,1141834743190000,2.5797095,Bike
Fix,GPS,37.4244924515,-122.1678279753,-5.860773035093888,5.3735085,5.9181266,108.49176,1677707030000,0.43069127,4.058516,1141835743120000,5.689117,Bike
Fix,FLP,37.4244955,-122.1678328,14.731410082962878,5.374775,7.284,107.991615,1677707032520,0.43069127,4.058516,1141835743120000,2.5896895,Bike
Fix,GPS,37.4244788213,-122.167776343,-5.951608697753567,5.1422257,5.740523,111.72909,1677707031000,0.40180376,4.2444096,1141836743142000,5.7636805,Bike
Fix,FLP,37.4244794,-122.1677758,-7.465589352948825,5.143958,6.858,110.97744,1677707033520,0.40180376,4.2444096,1141836743142000,2.5997095,Bike
Fix,GPS,37.4244631452,-122.1677248378,-5.7295697959896925,5.0962405,5.7798095,108.933365,1677707032000,0.4298369,4.75073,1141837743188000,5.7879305,Bike
Fix,FLP,37.424463,-122.1677235,-7.465589352948825,5.096567,6.962,108.02554,1677707034520,0.4298369,4.75073,1141837743188000,2.6096895,Bike
Fix,GPS,37.4244487306,-122.167672372,-5.867126052061744,5.104258,5.8713474,110.298416,1677707033000,0.47737545,5.3129997,1141838743178000,5.8583126,Bike
Fix,FLP,37.4244487,-122.167671,-7.465589352948825,5.104136,5.912,109.979164,1677707035520,0.47737545,5.3129997,1141838743178000,2.6196995,Bike
Fix,GPS,37.4244346781,-122.1676185949,-5.385002187939942,5.006924,5.890058,109.03508,1677707034000,0.4739612,5.407595,1141839743198000,5.9479713,Bike
Fix,FLP,37.4244341,-122.1676179,-4.998277044660387,5.007929,5.84,109.010414,1677707036519,0.4739612,5.407595,1141839743198000,2.6297095,Bike
Fix,GPS,37.424418714,-122.1675610402,-5.081730957826058,4.9743013,6.0252037,109.68381,1677707035000,0.46554044,5.2447953,1141840743169000,6.034808,Bike
Fix,FLP,37.4244188,-122.1675627,4.0,5.0504327,6.786,108.62483,1677707037519,,,1141840743169000,2.6396894,Bike
Fix,FLP,37.4244215,-122.167543,4.0,4.903337,7.572,39.55317,1677707038059,,,1141841282000000,2.6396894,Bike
Fix,GPS,37.4243989967,-122.1674966083,-4.949502043558278,5.419217,5.976309,110.36243,1677707036000,0.50018364,5.0497746,1141841743330000,6.056994,Bike
Fix,FLP,37.4244105,-122.1675059,13.860943635902084,5.3616695,7.611,109.10011,1677707038520,0.50018364,5.0497746,1141841743330000,2.6497295,Bike
Fix,GPS,37.4243797976,-122.1674315234,-5.04855061857515,5.867201,5.948644,110.94052,1677707037000,0.5370313,5.072033,1141842743234000,6.083318,Bike
Fix,FLP,37.4243854,-122.1674379,15.69659723856908,5.860625,7.639,109.99115,1677707039519,0.5370313,5.072033,1141842743234000,2.6596994,Bike
Fix,GPS,37.4243597204,-122.1673658668,-5.119819740370831,6.274847,6.073335,110.59547,1677707038000,0.57123417,5.088556,1141843743284000,6.212978,Bike
Fix,FLP,37.4243627,-122.1673696,13.860943635902084,6.268702,7.673,110.00096,1677707040519,0.57123417,5.088556,1141843743284000,2.6697094,Bike
Fix,GPS,37.4243392435,-122.1672913155,-5.526132990530001,6.37468,6.0846453,110.33508,1677707039000,0.5843007,5.239514,1141844743292000,6.257465,Bike
Fix,FLP,37.4243408,-122.1672957,13.80110875316304,6.373129,7.706,110.00011,1677707041519,0.5843007,5.239514,1141844743292000,2.6796994,Bike
Fix,GPS,37.4243217688,-122.1672181517,-5.934484983856792,6.367903,6.0994244,106.662544,1677707040000,0.61375064,5.7064376,1141845743315000,6.302468,Bike
Fix,FLP,37.4243216,-122.1672219,-1.1999999284744265,6.367955,6.947,106.07368,1677707042519,0.61375064,5.7064376,1141845743315000,2.6896994,Bike
Fix,GPS,37.4243051727,-122.1671427136,-6.10109444879303,6.2818265,6.1232796,107.236244,1677707041000,0.542389,5.14167,1141846743286000,6.2516246,Bike
Fix,FLP,37.4243054,-122.1671465,-3.637273704798229,6.2830887,6.05,106.98626,1677707043519,0.542389,5.14167,1141846743286000,2.6997194,Bike
Fix,GPS,37.4242996026,-122.1670745153,-5.639235961464388,6.1018963,6.23365,106.940735,1677707042000,0.52946925,5.1330914,1141847743319000,6.192849,Bike
Fix,FLP,37.4242954,-122.1670761,-3.980734663935422,6.1043005,6.122,106.01321,1677707044520,0.52946925,5.1330914,1141847743319000,2.7096994,Bike
Fix,GPS,37.4242918746,-122.1670137826,-5.738610851929865,5.7248473,6.053282,107.54284,1677707043000,0.5131658,5.2470894,1141848743414000,6.12498,Bike
Fix,FLP,37.4242875,-122.1670122,-3.637273704798229,5.7294755,6.118,106.986,1677707045520,0.5131658,5.2470894,1141848743414000,2.7196994,Bike
Fix,GPS,37.4242785872,-122.1669577899,-5.859095310820971,5.678192,5.9098263,113.12428,1677707044000,0.47166133,4.687676,1141849743342000,6.042455,Bike
Fix,FLP,37.4242763,-122.166955,-0.6000000238418579,5.6783886,6.083,112.937805,1677707046520,0.47166133,4.687676,1141849743342000,2.7297094,Bike
Fix,GPS,37.4242533811,-122.1669033546,-5.74293220769673,5.9806075,5.8066,123.58867,1677707045000,0.44681862,4.104493,1141850743370000,5.918351,Bike
Fix,FLP,37.4242545,-122.1669006,-0.6000000238418579,5.977187,6.025,122.91547,1677707047519,0.44681862,4.104493,1141850743370000,2.7397096,Bike
Fix,GPS,37.4242160262,-122.16685065,-5.140441660339087,5.919578,5.8388147,134.87361,1677707046000,0.46672177,4.2316747,1141851743383000,5.8829947,Bike
Fix,FLP,37.4242194,-122.1668481,-0.6000000238418579,5.919103,5.968,133.89317,1677707048520,0.46672177,4.2316747,1141851743383000,2.7497096,Bike
Fix,GPS,37.4241705501,-122.166806111,-4.566202828511378,5.7399874,6.0480833,145.48993,1677707047000,0.48667368,4.3895006,1141852743398000,6.0067554,Bike
Fix,FLP,37.4241752,-122.1668037,-0.6000000238418579,5.740367,5.931,144.88676,1677707049520,0.48667368,4.3895006,1141852743398000,2.7596996,Bike
Fix,GPS,37.4241225774,-122.1667722798,-4.856900930822835,5.7393465,6.3463087,153.81895,1677707048000,0.4978474,4.38707,1141853743399000,6.146943,Bike
Fix,FLP,37.4241268,-122.1667699,-0.6000000238418579,5.738299,6.0,152.91971,1677707050520,0.4978474,4.38707,1141853743399000,2.7697096,Bike
Fix,GPS,37.4240774904,-122.1667441674,-4.860635455777267,5.3483586,6.656469,151.37392,1677707049000,0.46241704,4.7472982,1141854743409000,6.2983017,Bike
Fix,FLP,37.4240789,-122.1667425,-0.6000000238418579,5.3521833,6.139,151.02063,1677707051519,0.46241704,4.7472982,1141854743409000,2.7797096,Bike
Fix,GPS,37.4240158353,-122.1667155798,-5.905881849913772,5.59226,6.251179,147.51399,1677707050000,0.43916866,4.47148,1141855743514000,6.280368,Bike
Fix,FLP,37.4240239,-122.1667146,-0.6000000238418579,5.590054,6.228,147.03534,1677707052520,0.43916866,4.47148,1141855743514000,2.7897096,Bike
Fix,GPS,37.4239608514,-122.1666779124,-6.233780551443111,5.529786,6.1048737,152.51286,1677707051000,0.43372062,4.514412,1141856743604000,6.2283487,Bike
Fix,FLP,37.4239689,-122.1666788,6.899926044684818,5.5302324,6.281,151.95557,1677707053519,0.43372062,4.514412,1141856743604000,2.7997196,Bike
Fix,GPS,37.4239113006,-122.1666482342,-6.8146747198604,5.55592,6.0718403,156.26244,1677707052000,0.40052435,3.9563632,1141857743489000,6.205047,Bike
Fix,FLP,37.4239165,-122.1666486,1.8298699683285484,5.555615,6.286,155.9714,1677707054519,0.40052435,3.9563632,1141857743489000,2.8097196,Bike
Fix,GPS,37.4238635106,-122.166614232,-6.769544797720341,5.603799,6.1098347,147.70183,1677707053000,0.45614997,4.4425836,1141858743504000,6.285774,Bike
Fix,FLP,37.4238664,-122.1666176,9.290164675418795,5.602888,6.238,147.08223,1677707055520,0.45614997,4.4425836,1141858743504000,2.8197095,Bike
Fix,GPS,37.4238269927,-122.1665719709,-7.110755150283115,5.190637,6.199176,140.76457,1677707054000,0.44197384,4.5717196,1141859743533000,6.35229,Bike
Fix,FLP,37.4238259,-122.1665764,4.0,5.193927,6.147,140.06586,1677707056519,0.44197384,4.5717196,1141859743533000,2.8296995,Bike
Fix,GPS,37.4237930915,-122.1665254984,-8.540642571160424,5.4313645,6.2735615,134.8931,1677707055000,0.46288994,10.0,1141860743496000,6.3558455,Bike
