Fix,Provider,LatitudeDegrees,LongitudeDegrees,AltitudeMeters,SpeedMps,AccuracyMeters,BearingDegrees,UnixTimeMillis,SpeedAccuracyMps,BearingAccuracyDegrees,elapsedRealtimeNanos,VerticalAccuracyMeters,TransitType
Fix,FLP,37.4214638,-122.1586908,-7.999999523162842,0.22211356,10.297,335.32382,1676501273206,,,99637590621041,1.4832386,Bike
Fix,FLP,37.4214652,-122.1586916,-7.999999523162842,0.21847178,10.441,331.8676,1676501274724,,,99639109702463,1.5171838,Bike
Fix,FLP,37.4214651,-122.1586915,-7.999999523162842,0.14612275,10.429,308.28116,1676501275738,,,99640122428598,1.5171838,Bike
Fix,FLP,37.4214651,-122.1586914,-7.999999523162842,0.15436691,10.451,306.44925,1676501276244,,,99640628793649,1.5299038,Bike
Fix,FLP,37.4214655,-122.1586919,-7.999999523162842,0.16643266,10.52,304.2657,1676501277257,,,99641641527780,1.5299038,Bike
Fix,NLP,37.4215738,-122.1586367,-7.999999523162842,,14.854,,1676501278798,,,99643182000000,1.8140852,Bike
Fix,FLP,37.4214678,-122.1586914,-10.819194258659422,0.08721548,10.637,,1676501278775,,,99643160620614,1.6262991,Bike
Fix,GPS,37.421470298,-122.1585990119,4.388616013641928,0.0,19.122778,,1676501277589,0.90051204,,99643966225813,12.8323965,Bike
Fix,FLP,37.4214765,-122.1586864,-7.999999523162842,0.09404703,10.494,,1676501279282,,,99643667009652,1.6730431,Bike
Fix,FLP,37.4214822,-122.1586826,-7.999999523162842,0.07291197,10.363,,1676501279788,,,99644173381601,1.6730431,Bike
Fix,FLP,37.4214868,-122.1586797,-7.999999523162842,0.063630804,10.302,,1676501280802,,,99645186127267,1.5565894,Bike
Fix,FLP,37.4214898,-122.1586777,-7.999999523162842,0.05152719,10.26,,1676501281308,,,99645692500497,1.5565894,Bike
Fix,GPS,37.4214288831,-122.1587117333,-4.532857940245585,0.0,21.342438,,1676501279745,0.9259457,,99645988928370,14.722964,Bike
Fix,FLP,37.4214936,-122.1586751,-10.552014734828546,0.032294124,10.235,,1676501281900,,,99646284761303,1.5801523,Bike
Fix,GPS,37.4214441607,-122.158704709,-4.177072162649127,0.0,45.932995,,1676501280684,0.94950074,,99646978422674,32.268787,Bike
Fix,FLP,37.421495,-122.1586741,-7.999999523162842,0.025647152,10.226,,1676501282443,,,99646827292309,1.6093576,Bike
Fix,GPS,37.4214993859,-122.1588127349,-4.905658536839262,0.0,11.682553,,1676501281360,0.91813874,,99647989108343,20.627565,Bike
Fix,FLP,37.4214975,-122.1586725,-4.799999713897705,0.014019875,10.322,,1676501283528,,,99647912388805,1.6193576,Bike
Fix,NLP,37.4215931,-122.1586329,-8.40000057220459,,13.09,,1676501283777,,,99648161000000,1.1620826,Bike
Fix,GPS,37.4214962359,-122.1588210954,-9.729777125047017,0.0,14.243547,,1676501282360,0.48498717,,99648989066962,20.462517,Bike
Fix,FLP,37.4215069,-122.1586676,-5.66755572221799,0.050712403,10.362,,1676501284612,,,99648997471752,1.5216384,Bike
Fix,FLP,37.4215129,-122.1586644,-5.66755572221799,0.027494833,10.349,,1676501285155,,,99649540012829,1.5216384,Bike
Fix,GPS,37.4214944577,-122.1587992436,-8.74421512599154,0.0,12.97225,,1676501283360,0.52528226,,99649976298163,18.20525,Bike
Fix,FLP,37.4215166,-122.1586621,-8.40000057220459,0.023943003,10.302,,1676501285698,,,99650082550853,1.4566981,Bike
Fix,FLP,37.4215195,-122.1586605,-8.40000057220459,0.018597843,10.291,,1676501286241,,,99650625093090,1.5168064,Bike
Fix,GPS,37.4214940648,-122.1587666432,-11.788528974358796,0.0,10.772526,,1676501285000,0.49597028,,99651562233000,15.742372,Bike
Fix,FLP,37.4215234,-122.1586587,-5.048460721681579,0.009865597,10.244,,1676501287326,,,99651710171703,1.5745239,Bike
Fix,GPS,37.4214869351,-122.1587699478,-12.469206406664394,0.0,10.307995,,1676501286000,20.0,,99652562257000,14.806536,Bike
Fix,FLP,37.421525,-122.1586589,-3.595810046718966,0.010950233,10.074,,1676501287868,,,99652252709728,1.5856122,Bike
Fix,FLP,37.4215259,-122.1586596,-3.595810046718966,0.010119254,9.921,,1676501288410,,,99652795247997,1.5856122,Bike
Fix,NLP,37.4215813,-122.1586483,-7.999999523162842,,15.017,,1676501288840,,,99653225000000,1.4009165,Bike
Fix,FLP,37.4215263,-122.1586603,-3.385523991152219,0.008733141,9.787,,1676501288953,,,99653337784923,1.5224313,Bike
Fix,GPS,37.4214863846,-122.1587736362,-14.294604178683256,0.0,9.885028,,1676501287000,20.0,,99653562289000,13.896516,Bike
Fix,FLP,37.4215299,-122.1586606,-3.507349002118758,0.017885547,9.726,,1676501289495,,,99653880321605,1.5246551,Bike
Fix,FLP,37.4215327,-122.1586603,-3.507349002118758,0.02462424,9.639,,1676501290038,,,99654422855052,1.5246551,Bike
Fix,GPS,37.4214912788,-122.1587791026,-14.571428351438373,1.0935999,9.496008,307.2267,1676501288000,0.37063366,18.789343,99654562419000,13.304576,Bike
Fix,FLP,37.4215371,-122.1586607,-3.507349002118758,0.39865074,9.495,337.55032,1676501290580,,,99654965393566,1.5360533,Bike
Fix,FLP,37.4215403,-122.1586619,-3.507349002118758,0.64810866,9.434,334.30228,1676501291122,,,99655507928905,1.5360533,Bike
Fix,GPS,37.4215042683,-122.1587729323,-16.259692851929422,1.2744935,8.898601,308.41028,1676501289000,0.37836322,16.187986,99655562290000,12.610067,Bike
Fix,GPS,37.4215175996,-122.1587765771,-17.993349136166227,1.1165845,8.369778,310.26218,1676501290000,0.39318648,19.343138,99656562427000,12.015347,Bike
Fix,FLP,37.4215477,-122.1586657,10.861400340659692,0.9377775,9.336,342.53876,1676501292208,,,99656592997692,1.5574965,Bike
Fix,FLP,37.4215516,-122.1586677,10.861400340659692,0.9761584,9.387,352.82764,1676501292778,,,99657162000000,1.5574965,Bike
Fix,GPS,37.4215269096,-122.1587806507,-18.998838951997676,0.3929267,7.860114,310.26218,1676501291000,0.36173764,119.055595,99657562340000,11.238304,Bike
Fix,FLP,37.4215532,-122.1586683,-2.585782609540466,1.0158064,9.488,4.2370896,1676501293294,,,99657678064037,1.5674165,Bike
Fix,NLP,37.4216422,-122.1587126,-8.5,,36.293,,1676501293880,,,99658265000000,1.0,Bike
Fix,FLP,37.4215572,-122.1586686,-7.999999523162842,0.73391616,9.527,11.849653,1676501293835,,,99658220600048,1.2020973,Bike
Fix,GPS,37.4215295314,-122.1587775815,-20.203153502858807,0.6010732,7.5828595,303.60892,1676501292000,0.35667086,32.779385,99658562337000,10.721649,Bike
Fix,FLP,37.4215602,-122.158669,-7.999999523162842,0.73301893,9.595,11.612,1676501294357,,,99658742000000,1.2020973,Bike
Fix,GPS,37.4215361048,-122.1587767819,-21.255144303902394,1.2866001,9.401052,322.8763,1676501293000,0.4146598,13.694386,99659562424000,10.3400955,Bike
Fix,FLP,37.4215645,-122.1586699,-7.999999523162842,0.6517877,10.054,23.365572,1676501294921,,,99659305659618,1.2431695,Bike
Fix,FLP,37.4215683,-122.1586695,-7.999999523162842,0.9001459,10.267,25.465017,1676501295464,,,99659848190807,1.2431695,Bike
Fix,GPS,37.4215484608,-122.1587838816,-22.049051757492457,2.5152655,8.390199,315.80637,1676501294000,0.418169,10.0,99660562341000,9.918588,Bike
Fix,FLP,37.4215707,-122.1586695,-3.8496639080529818,1.0220486,10.602,22.277262,1676501296006,,,99660390721447,1.2521796,Bike
Fix,FLP,37.421578,-122.1586696,-3.8496639080529818,1.5393883,10.852,12.607166,1676501296549,,,99660933251598,1.2521796,Bike
Fix,GPS,37.4215663026,-122.1588058201,-22.952017551001425,3.92846,12.327019,310.49353,1676501295000,0.47816232,10.0,99661562599000,9.434295,Bike
Fix,FLP,37.4215809,-122.1586716,10.503980201742792,1.8208131,11.071,7.0041723,1676501297091,,,99661475781139,1.2650584,Bike
Fix,FLP,37.4215919,-122.158674,10.503980201742792,2.4139657,11.317,1.0259699,1676501297633,,,99662018310497,1.2650584,Bike
Fix,GPS,37.4215887665,-122.1588386916,-23.5903726765978,4.1891184,11.812656,308.24905,1676501296000,0.43732864,10.0,99662562439000,9.002598,Bike
Fix,FLP,37.4215961,-122.1586775,19.38407361232596,2.737937,11.536,356.67557,1676501298175,,,99662560842052,1.2760584,Bike
Fix,NLP,37.4217012,-122.1589852,-8.5,,21.514,,1676501298474,,,99662859000000,1.4317087,Bike
Fix,FLP,37.4216084,-122.158694,16.332263489337237,2.9787245,11.945,351.66394,1676501298712,,,99663097815380,1.2270089,Bike
Fix,GPS,37.4216133145,-122.1588751691,-23.88019759157679,4.4459476,11.81707,310.6148,1676501297000,0.4984664,10.0,99663562478000,8.696998,Bike
Fix,FLP,37.4216152,-122.1587059,19.38407361232596,2.9786375,12.295,349.59796,1676501299260,,,99663645884167,1.234999,Bike
Fix,GPS,37.4216613281,-122.1589299894,-22.418586230297255,4.552816,6.5926485,309.45047,1676501298000,0.39022672,10.0,99664562442000,8.355348,Bike
Fix,FLP,37.4216356,-122.1587471,18.77909995299315,3.2818801,13.493,329.30554,1676501300345,,,99664730951366,1.2449689,Bike
Fix,FLP,37.4216633,-122.1588393,18.77909995299315,4.067223,14.138,313.6458,1676501300888,,,99665273478527,1.2449689,Bike
Fix,GPS,37.4217087323,-122.1589816875,-20.7712731502026,4.752066,6.1465406,307.89313,1676501299000,0.38210922,10.0,99665562459000,7.934325,Bike
Fix,FLP,37.4216958,-122.1589252,12.843729750864007,4.6003056,13.701,308.91104,1676501301974,,,99666358531689,1.2549989,Bike
Fix,GPS,37.4217466778,-122.1590351638,-19.85743103126227,4.774734,5.8443017,305.57803,1676501300000,0.35942253,10.0,99666562451000,7.633566,Bike
Fix,FLP,37.4217276,-122.158994,18.77909995299315,4.926624,13.262,307.3387,1676501302516,,,99666901058300,1.264959,Bike
Fix,GPS,37.4217824313,-122.1590886889,-19.115743629663783,4.966759,5.5567245,305.30954,1676501301000,0.38699433,10.0,99667562463000,7.297462,Bike
Fix,FLP,37.4217383,-122.1590163,18.93122672298702,5.011416,12.977,307.36847,1676501303058,,,99667443583690,1.275039,Bike
Fix,NLP,37.4217765,-122.1591363,-8.300000190734863,,17.703,,1676501303506,,,99667891000000,1.0,Bike
Fix,FLP,37.4217651,-122.1590647,10.305399835250393,5.2071204,12.316,307.53384,1676501303602,,,99667986109020,1.2209132,Bike
Fix,GPS,37.4218161694,-122.159142079,-18.53270751940818,5.1781297,5.3642797,306.52832,1676501302000,0.39716172,10.0,99668562472000,7.0320044,Bike
Fix,FLP,37.4217926,-122.1591078,-0.4155718432975135,5.2824383,11.682,306.65698,1676501304177,0.39716172,10.0,99668562472000,1.2288831,Bike
Fix,GPS,37.4218511194,-122.1591924077,-18.53465069583645,5.54497,5.2963142,305.32642,1676501303000,0.40945572,10.0,99669562470000,6.8446865,Bike
Fix,FLP,37.4218345,-122.1591725,2.417630465211438,5.506089,9.94,305.61636,1676501305177,0.40945572,10.0,99669562470000,1.2389032,Bike
Fix,GPS,37.4218858488,-122.159251838,-17.616969703872368,5.282595,5.171225,311.50534,1676501304000,0.35843423,10.0,99670562506000,6.6356874,Bike
Fix,FLP,37.4218741,-122.1592355,11.785239657938988,5.360832,8.409,309.44385,1676501306178,0.35843423,10.0,99670562506000,1.2489735,Bike
Fix,GPS,37.4219190776,-122.1592995825,-17.31979910637235,5.1384907,5.103292,311.5986,1676501305000,0.39614823,10.0,99671562774000,6.448944,Bike
Fix,FLP,37.4219114,-122.1592899,11.785239657938988,5.2146587,7.23,310.5899,1676501307178,0.39614823,10.0,99671562774000,1.2591362,Bike
Fix,GPS,37.4219505073,-122.1593458961,-17.35040674632,4.7087097,5.0879884,315.18353,1676501306000,0.40258968,10.0,99672562492000,6.323167,Bike
Fix,FLP,37.4219442,-122.1593387,4.71008698838515,5.2322254,6.669,310.5892,1676501308178,,,99672562492000,1.2691462,Bike
Fix,FLP,37.4219668,-122.1593822,4.71008698838515,4.3996916,6.956,299.4658,1676501309284,,,99673669049450,1.2691462,Bike
Fix,GPS,37.4219895274,-122.1593818179,-16.92356097512865,4.7784595,4.9903,318.82565,1676501307000,0.31773055,10.0,99673562617000,6.240425,Bike
Fix,GPS,37.4220246558,-122.1594190352,-16.55898947239156,4.907064,4.870987,313.50143,1676501308000,0.29563463,10.0,99674562566000,6.0808077,Bike
Fix,FLP,37.4219851,-122.1594128,1.5653940343013917,3.8447506,8.026,292.38174,1676501310369,,,99674754095165,1.2891562,Bike
Fix,GPS,37.422062348,-122.1594605047,-15.942702206867288,5.2510777,4.7720957,313.2783,1676501309000,0.34341344,10.0,99675562769000,5.9848056,Bike
Fix,FLP,37.4220247,-122.159451,1.5653940343013917,4.1344395,8.471,304.8932,1676501310912,,,99675296618114,1.2891562,Bike
Fix,FLP,37.4220448,-122.1594569,-5.155861161696173,5.01538,8.101,311.63913,1676501311178,0.34341344,10.0,99675562769000,1.2991362,Bike
Fix,GPS,37.4220967945,-122.159506171,-15.569810424482164,5.395855,4.786269,314.3319,1676501310000,0.4218204,10.0,99676562701000,5.937851,Bike
Fix,FLP,37.4220893,-122.1595039,9.73703997778214,5.3871756,7.8,313.94992,1676501312177,0.4218204,10.0,99676562701000,1.3091362,Bike
Fix,GPS,37.4221348135,-122.1595449261,-16.065875137326127,5.7557063,5.0869274,321.7825,1676501311000,0.37172568,10.0,99677562703000,5.9129663,Bike
Fix,FLP,37.422131,-122.1595458,13.117586384923214,5.748239,7.761,320.84158,1676501313178,0.37172568,10.0,99677562703000,1.4188005,Bike
Fix,GPS,37.4221837396,-122.1595863439,-15.871033550066423,5.980764,5.175734,323.10837,1676501312000,0.37452072,10.0,99678562874000,5.898079,Bike
Fix,FLP,37.4221796,-122.1595865,6.865431470343566,5.9760194,7.199,322.95383,1676501314177,0.37452072,10.0,99678562874000,1.3291862,Bike
Fix,GPS,37.4222262752,-122.1596255576,-15.831341840051406,5.627832,5.5291524,320.2264,1676501313000,0.43262875,10.0,99679562681000,5.996287,Bike
Fix,FLP,37.4222249,-122.1596262,11.694040394687647,5.635765,6.079,320.07538,1676501315177,0.43262875,10.0,99679562681000,1.3391562,Bike
Fix,GPS,37.4222663201,-122.1596675109,-15.602943622989054,5.387954,5.755325,319.0376,1676501314000,0.44581854,10.0,99680562789000,6.017572,Bike
Fix,FLP,37.4222654,-122.1596674,11.878973259356265,5.3938403,5.903,319.02322,1676501316177,0.44581854,10.0,99680562789000,1.3491461,Bike
Fix,GPS,37.4223044595,-122.1597087341,-15.149420520938085,5.57948,5.9910655,317.76453,1676501315000,0.42681143,10.0,99681562648000,6.092017,Bike
Fix,FLP,37.4223035,-122.1597083,1.7634205942548888,5.574487,5.387,317.0532,1676501317178,0.42681143,10.0,99681562648000,1.4588006,Bike
Fix,GPS,37.4223466878,-122.1597513942,-14.997797860745582,5.927247,6.155734,318.82077,1676501316000,0.4459186,10.0,99682562756000,6.146547,Bike
Fix,FLP,37.4223442,-122.1597514,7.665534746698341,5.9174767,5.721,317.98233,1676501318178,0.4459186,10.0,99682562756000,1.3681462,Bike
Fix,GPS,37.4223846113,-122.159797703,-14.933745587687127,5.788724,6.3058825,317.93256,1676501317000,0.4688557,4.3256583,99683562682000,6.2367373,Bike
Fix,FLP,37.4223843,-122.1597971,-12.589200158741464,5.789968,5.818,317.00958,1676501319177,0.4688557,4.3256583,99683562682000,1.3791462,Bike
Fix,GPS,37.4224252027,-122.1598426147,-14.534046222765362,5.5785055,6.459421,321.1392,1676501318000,0.5737099,5.504992,99684562682000,6.3388205,Bike
Fix,FLP,37.422424,-122.1598423,-20.12705555251526,5.581313,6.133,320.94083,1676501320178,0.5737099,5.504992,99684562682000,1.3891462,Bike
Fix,GPS,37.422464577,-122.1598852914,-15.619203363358915,5.2961807,5.9239182,316.72433,1676501319000,0.09663452,1.0,99685562882000,5.9701533,Bike
Fix,FLP,37.422464,-122.1598842,-15.491113248358786,5.296294,6.167,316.0022,1676501321177,0.09663452,1.0,99685562882000,1.3991362,Bike
Fix,GPS,37.4225050772,-122.1599275637,-15.514982948115923,5.1040816,5.412485,316.54056,1676501320000,0.0776146,1.0,99686563196000,5.773494,Bike
Fix,FLP,37.4225028,-122.159927,-13.610265989473056,5.104146,6.051,316.0,1676501322179,0.0776146,1.0,99686563196000,1.5088605,Bike
Fix,GPS,37.4225378297,-122.1599573017,-16.410645825873708,4.8955894,5.138964,320.85736,1676501321000,0.07527216,1.0,99687562870000,5.6109915,Bike
Fix,FLP,37.4225372,-122.1599605,-12.106714198993686,4.895653,5.848,319.9987,1676501323177,0.07527216,1.0,99687562870000,1.4181361,Bike
Fix,GPS,37.4225760255,-122.159999043,-16.17192976760103,5.2966924,4.889219,320.78156,1676501322000,0.08543846,1.0,99688562769000,5.41522,Bike
Fix,FLP,37.4225626,-122.1599845,-10.923370260824967,5.295274,5.443,320.0002,1676501324178,0.08543846,1.0,99688562769000,1.4281561,Bike
Fix,NLP,37.422508,-122.159987,-7.700000286102295,,18.715,,1676501324414,,,99688798000000,1.1073494,Bike
Fix,FLP,37.4225723,-122.1599949,-10.923370260824967,5.2953105,5.756,320.00018,1676501324414,0.08543846,1.0,99688798000000,1.1999422,Bike
Fix,GPS,37.4226131247,-122.1600388629,-15.842755791450225,5.324063,5.3151884,318.7961,1676501323000,0.36867586,3.8774984,99689562807000,5.372352,Bike
Fix,FLP,37.4226082,-122.1600336,-8.300000190734863,5.3252406,5.613,318.01294,1676501325178,0.36867586,3.8774984,99689562807000,1.1949736,Bike
Fix,GPS,37.4226550419,-122.1600791641,-16.061313604982562,5.2769794,5.493225,321.00598,1676501324000,0.37579563,4.01453,99690562803000,5.358518,Bike
Fix,FLP,37.422651,-122.1600773,-7.700000286102295,5.2772765,5.599,320.98026,1676501326177,0.37579563,4.01453,99690562803000,1.2025021,Bike
Fix,GPS,37.4226954518,-122.160120178,-16.39231479497637,5.5219088,5.486961,320.58484,1676501325000,0.39969912,4.0737424,99691562882000,5.363473,Bike
Fix,FLP,37.4226928,-122.1601184,15.878566231198626,5.5201097,5.551,320.00696,1676501327177,0.39969912,4.0737424,99691562882000,1.1924045,Bike
Fix,GPS,37.4227305671,-122.1601626738,-16.37668005143632,5.4048376,5.568995,317.33295,1676501326000,0.44247794,4.5682616,99692562962000,5.4525547,Bike
Fix,FLP,37.4227307,-122.1601612,10.066805615614925,5.4058228,5.622,317.0276,1676501328178,0.44247794,4.5682616,99692562962000,1.2113446,Bike
Fix,GPS,37.4227643521,-122.1602063691,-16.373881943449266,5.376137,5.6729946,315.7682,1676501327000,0.43793437,4.527371,99693562860000,5.559005,Bike
Fix,FLP,37.4227651,-122.1602052,9.369298079070616,5.376371,5.914,315.01776,1676501329178,0.43793437,4.527371,99693562860000,1.2213446,Bike
Fix,NLP,37.4227073,-122.1602161,-7.700000286102295,,27.475,,1676501329512,,,99693896000000,1.1180964,Bike
Fix,FLP,37.4227735,-122.1602163,9.369298079070616,5.374484,6.256,315.01627,1676501329512,0.43793437,4.527371,99693896000000,1.1680069,Bike
Fix,GPS,37.4227992116,-122.1602540977,-16.20269489111524,5.685331,5.7118716,312.16895,1676501328000,0.45901015,4.4724827,99694562878000,5.667667,Bike
Fix,FLP,37.4227981,-122.1602511,7.839744486691814,5.6831617,6.322,312.02457,1676501330178,0.45901015,4.4724827,99694562878000,1.1750069,Bike
Fix,GPS,37.4228336568,-122.1602982368,-16.37769608263913,5.4750557,5.6411934,316.8872,1676501329000,0.41720197,4.2316175,99695562887000,5.736462,Bike
Fix,FLP,37.4228332,-122.1602984,2.3290627025577706,5.476607,6.347,315.96722,1676501331178,0.41720197,4.2316175,99695562887000,1.1841837,Bike
Fix,GPS,37.4228715636,-122.1603397577,-16.47337423598341,5.538724,5.6180716,321.9913,1676501330000,0.42203182,4.169969,99696563622000,5.810784,Bike
Fix,FLP,37.4228706,-122.1603404,-7.700000286102295,5.5380235,6.369,320.9601,1676501332178,0.42203182,4.169969,99696563622000,1.1941837,Bike
Fix,GPS,37.4229139724,-122.160380371,-16.22984822136251,5.4753184,5.622882,322.40863,1676501331000,0.42731515,4.2761464,99697563086000,5.897324,Bike
Fix,FLP,37.4229123,-122.1603802,-10.850100566124723,5.4758387,6.378,321.9915,1676501333178,0.42731515,4.2761464,99697563086000,1.2037534,Bike
Fix,GPS,37.4229549117,-122.1604262474,-15.376226286800431,5.093971,5.4494615,322.23016,1676501332000,0.39241123,4.212743,99698562921000,5.915051,Bike
Fix,FLP,37.4229536,-122.1604235,-17.200477389485684,5.0966635,6.341,322.00015,1676501334177,0.39241123,4.212743,99698562921000,1.2143407,Bike
Fix,GPS,37.4229959459,-122.1604672664,-14.727907303476051,4.659353,5.40942,320.40765,1676501333000,0.4010916,4.721446,99699563253000,5.870206,Bike
Fix,FLP,37.4229938,-122.1604645,-16.69098668964689,4.662567,5.548,320.0162,1676501335179,0.4010916,4.721446,99699563253000,1.2243307,Bike
Fix,GPS,37.423034674,-122.1605049835,-14.276645471562022,4.5000715,5.3596625,319.30914,1676501334000,0.39243016,4.831131,99700563076000,5.851392,Bike
Fix,FLP,37.4230198,-122.1604912,-13.596016718230132,4.5077996,5.468,319.04974,1676501336179,0.39243016,4.831131,99700563076000,1.2343206,Bike
Fix,GPS,37.423069418,-122.1605430625,-13.913440627480623,4.4898033,5.3240504,319.88947,1676501335000,0.3937543,4.8958836,99701563110000,5.8642883,Bike
Fix,FLP,37.4230527,-122.1605253,-11.658558591968728,4.4950047,5.417,319.00015,1676501337179,0.3937543,4.8958836,99701563110000,1.2443407,Bike
Fix,GPS,37.423103503,-122.1605793174,-13.535341823704776,4.4517155,5.3091445,323.31598,1676501336000,0.39428145,4.941,99702563000000,5.8888745,Bike
Fix,FLP,37.4230959,-122.1605716,-11.035042160125483,4.451981,5.405,322.971,1676501338179,0.39428145,4.941,99702563000000,1.2543207,Bike
Fix,GPS,37.4231397594,-122.1606106989,-13.050520388762983,4.24554,5.37445,322.3757,1676501337000,0.40230507,5.2600584,99703563139000,5.9890747,Bike
Fix,FLP,37.4231265,-122.1605997,-12.18098346457856,4.254587,5.362,322.04605,1676501339178,0.40230507,5.2600584,99703563139000,1.2637534,Bike
Fix,GPS,37.4231768389,-122.1606447782,-12.980617563802678,4.1347218,5.24059,316.99585,1676501338000,0.3859858,5.1620126,99704563138000,6.0398316,Bike
Fix,FLP,37.4231693,-122.1606389,-11.52769469393658,4.135643,5.352,316.05844,1676501340178,0.3859858,5.1620126,99704563138000,1.2737634,Bike
Fix,NLP,37.4228512,-122.1605904,,,600.0,,1676501340466,,,99704851000000,,Bike
Fix,FLP,37.4231778,-122.1606473,-11.52769469393658,4.134611,5.473,316.00284,1676501340466,0.3859858,5.1620126,99704851000000,1.2737634,Bike
Fix,GPS,37.4232075719,-122.1606808588,-13.159673025655856,4.107532,5.2163234,308.2902,1676501339000,0.40734836,5.500947,99705563170000,6.0331564,Bike
Fix,FLP,37.4231825,-122.160659,-12.835232135277153,3.1457243,5.938,243.03409,1676501341225,,,99705609796459,1.2837434,Bike
Fix,FLP,37.4231893,-122.1606809,-12.835232135277153,3.6166039,6.186,283.24536,1676501341768,,,99706152312999,1.2837434,Bike
Fix,GPS,37.4232228194,-122.1607166078,-13.721613212800596,3.3625364,5.123648,292.44183,1676501340000,0.35388708,5.961907,99706563229000,5.986172,Bike
Fix,FLP,37.4231984,-122.1606929,-12.835232135277153,3.9956975,6.494,284.80917,1676501342310,,,99706694824108,1.2937534,Bike
Fix,GPS,37.4232278615,-122.1607505699,-14.015836060716074,2.8890274,4.9935536,260.81546,1676501341000,0.3553487,7.3964624,99707562998000,5.935454,Bike
Fix,FLP,37.4232193,-122.1607316,-10.674250707713256,3.487966,6.91,282.2256,1676501342853,,,99707237337719,1.3043207,Bike
Fix,FLP,37.4232224,-122.1607464,-10.674250707713256,2.9652715,7.133,265.41522,1676501343395,,,99707779851513,1.3043207,Bike
Fix,GPS,37.4232101421,-122.160781153,-14.246699794230992,2.9035318,5.18742,230.4027,1676501342000,0.4534185,9.0167,99708563155000,6.0253057,Bike
Fix,FLP,37.4232213,-122.160773,-4.47522761438664,2.898787,7.53,267.075,1676501343901,,,99708286197521,1.3143407,Bike
Fix,FLP,37.4232137,-122.1607857,-4.47522761438664,2.7954454,7.855,233.21931,1676501344479,,,99708864880138,1.3143407,Bike
Fix,GPS,37.4231736622,-122.1608126714,-14.025717756269808,3.8633986,5.340957,214.10501,1676501343000,0.38472268,5.595674,99709563161000,6.1487956,Bike
Fix,FLP,37.4231993,-122.1607995,8.999039685361872,2.8856292,8.205,217.1788,1676501345022,,,99709407386059,1.3243307,Bike
Fix,FLP,37.423181,-122.1608116,8.999039685361872,3.6123903,8.682,210.94478,1676501345565,,,99709949911632,1.3243307,Bike
Fix,NLP,37.4227472,-122.1607779,-6.599999904632568,,24.461,,1676501346172,,,99710557000000,2.1146348,Bike
Fix,FLP,37.4231586,-122.1608254,16.548728750363715,3.8378782,8.904,206.60268,1676501346107,,,99710492425304,1.163286,Bike
Fix,GPS,37.4231257169,-122.1608403558,-13.31100112539576,4.1392083,5.395427,201.70457,1676501344000,0.36496377,5.310161,99710563041000,6.289567,Bike
Fix,FLP,37.42313,-122.1608389,16.548728750363715,4.1055565,8.983,202.53595,1676501346658,,,99711042000000,1.164496,Bike
Fix,GPS,37.4230771962,-122.1608557032,-12.767131504962894,4.0010557,5.4139028,205.98994,1676501345000,0.36583573,5.3979816,99711563207000,6.316296,Bike
Fix,FLP,37.423104,-122.1608513,17.059659527231446,4.1467648,9.024,202.98682,1676501347192,,,99711577445934,1.2588992,Bike
Fix,GPS,37.4230323388,-122.1608760785,-12.12050799454113,3.974476,5.305273,209.24089,1676501346000,0.35007495,5.215287,99712563200000,6.304515,Bike
Fix,FLP,37.4230612,-122.16087,17.059659527231446,4.0521884,9.194,202.53601,1676501348277,,,99712662494457,1.2691416,Bike
Fix,GPS,37.4229910273,-122.1608965884,-11.016144847940124,4.08458,5.2762427,213.27643,1676501347000,0.35182413,5.0221167,99713563148000,6.2860847,Bike
Fix,FLP,37.4230212,-122.1608888,13.465238091638255,3.9722528,9.358,206.97557,1676501348820,,,99713205011059,1.279489,Bike
Fix,FLP,37.4230043,-122.1608972,13.465238091638255,4.0454297,9.439,210.58897,1676501349362,,,99713747516186,1.279489,Bike
Fix,GPS,37.4229533693,-122.1609265274,-10.279719337252285,4.3377542,5.1923895,218.00194,1676501348000,0.3536388,4.6401873,99714563190000,6.255425,Bike
Fix,FLP,37.4229768,-122.160916,14.479388384107123,4.0706387,9.451,215.23462,1676501349906,,,99714290044811,1.2908561,Bike
Fix,FLP,37.4229605,-122.160928,14.479388384107123,4.2533293,9.417,217.81818,1676501350448,,,99714832564159,1.2908561,Bike
Fix,GPS,37.4229166852,-122.160954049,-9.391320647140416,4.2721715,5.037261,216.68242,1676501349000,0.34548104,4.616122,99715563399000,6.190684,Bike
Fix,FLP,37.4229335,-122.1609526,14.479388384107123,4.3197517,9.408,219.59122,1676501350990,,,99715375078808,1.2908561,Bike
Fix,FLP,37.4228956,-122.1609832,9.028430929486651,4.306704,9.289,214.68327,1676501352075,,,99716460112194,1.3008561,Bike
Fix,GPS,37.4228837019,-122.1609815724,-8.210221848469628,4.0740376,5.2003,216.39215,1676501350000,0.3801809,5.289136,99716563317000,6.208369,Bike
Fix,FLP,37.4228701,-122.1609997,10.88758361206814,4.11694,9.16,213.31583,1676501352617,,,99717002625804,1.3108361,Bike
Fix,GPS,37.4228537323,-122.1610084383,-6.821595091500502,3.9150023,5.472445,220.23907,1676501351000,0.42266122,6.0342836,99717563223000,6.3378944,Bike
Fix,FLP,37.4228602,-122.161006,-2.985328749083081,4.1088443,9.107,211.17413,1676501353161,,,99717545145153,1.2358036,Bike
Fix,FLP,37.4228394,-122.1610242,-2.985328749083081,3.9457004,9.083,217.34474,1676501353703,,,99718087661754,1.2358036,Bike
Fix,GPS,37.4228275993,-122.1610370413,-6.211658905137407,3.7725081,5.7131104,223.76726,1676501352000,0.39946508,5.8953986,99718563586000,6.48157,Bike
Fix,FLP,37.422829,-122.1610356,-6.599999904632568,3.9340136,9.089,218.68005,1676501354245,,,99718630178112,1.2458236,Bike
Fix,GPS,37.4228021367,-122.1610606211,-5.870897873502905,3.4940827,5.9081817,222.46991,1676501353000,0.40474933,6.480147,99719563315000,6.5832953,Bike
Fix,FLP,37.4228067,-122.1610612,-6.599999904632568,3.788019,9.093,220.25624,1676501354788,,,99719172691234,1.2557937,Bike
Fix,FLP,37.4227982,-122.1610671,-6.599999904632568,3.5787618,9.141,220.6802,1676501355331,,,99719715210522,1.2557937,Bike
Fix,GPS,37.4227741765,-122.1610817926,-5.2893231923478,3.2879858,5.9433455,222.87325,1676501354000,0.441698,7.3767347,99720563295000,6.6393843,Bike
Fix,FLP,37.422782,-122.1610822,-6.599999904632568,3.5110407,9.193,218.33888,1676501355872,,,99720257714855,1.2657937,Bike
Fix,GPS,37.422751966,-122.1611049168,-5.428704010565514,2.9953175,6.007432,232.17862,1676501355000,0.36615133,6.686849,99721563259000,6.628978,Bike
Fix,FLP,37.4227583,-122.1611066,-7.700000286102295,3.3222103,9.315,229.96095,1676501356958,,,99721342755260,1.2757837,Bike
Fix,FLP,37.4227478,-122.1611219,-7.700000286102295,3.0618753,9.637,236.38055,1676501357501,,,99721885273998,1.2757837,Bike
Fix,GPS,37.4227400104,-122.1611374994,-5.778212711415081,2.860234,5.959324,260.7845,1676501356000,0.36519215,7.08441,99722563298000,6.644385,Bike
Fix,FLP,37.4227419,-122.1611357,-6.599999904632568,3.0219572,9.808,250.04738,1676501358042,,,99722427789379,1.2858436,Bike
Fix,FLP,37.4227382,-122.1611555,-6.599999904632568,2.8589287,9.896,267.90387,1676501358586,,,99722970304821,1.2858436,Bike
Fix,GPS,37.4227477935,-122.1611907255,-5.854391606045373,3.043022,5.729678,287.30698,1676501357000,0.3947266,7.848377,99723563306000,6.571635,Bike
Fix,FLP,37.4227404,-122.1611657,-4.5421362622643855,2.799209,9.942,283.35315,1676501359128,,,99723512820141,1.3808461,Bike
Fix,FLP,37.422747,-122.1611924,-4.5421362622643855,2.9758167,9.925,294.16318,1676501359670,,,99724055334911,1.3808461,Bike
Fix,GPS,37.4227661391,-122.1612350039,-5.769434446422459,3.1220932,5.7158,308.48932,1676501358000,0.39408463,7.0705786,99724563337000,6.5618052,Bike
Fix,FLP,37.422755,-122.1612117,-6.599999904632568,3.0175688,9.927,302.4311,1676501360213,,,99724597849987,1.3908961,Bike
Fix,FLP,37.4227726,-122.1612429,-6.599999904632568,3.106436,9.918,310.67566,1676501360756,,,99725140364818,1.3908961,Bike
Fix,GPS,37.4227955466,-122.1612687072,-5.911727249957749,3.4070783,5.6983705,324.11987,1676501359000,0.3812752,6.1479025,99725563323000,6.571054,Bike
Fix,FLP,37.4227907,-122.161265,-10.765171017844132,3.354401,9.891,322.18292,1676501361297,,,99725682876903,1.4008461,Bike
Fix,GPS,37.4228256548,-122.1612898896,-6.213865182302722,2.4117227,5.8228045,329.87473,1676501360000,0.39639178,8.950296,99726563431000,6.581242,Bike
Fix,FLP,37.4228079,-122.1612805,-10.765171017844132,3.4153345,9.845,326.4052,1676501361840,,,99726225394115,1.4108361,Bike
Fix,GPS,37.4228478784,-122.1613056737,-6.0375230497601,1.2833569,5.973214,341.00693,1676501361000,0.3799941,15.8748045,99727563363000,6.5859604,Bike
Fix,FLP,37.422837,-122.161302,-6.599999904632568,2.5205872,9.819,329.34882,1676501362926,,,99727310422680,1.4208461,Bike
Fix,FLP,37.4228467,-122.1613096,-6.599999904632568,1.4551343,9.844,340.64417,1676501363468,,,99727852936596,1.4208461,Bike
Fix,GPS,37.422855747,-122.1613118112,-6.26882416142286,1.2494184,6.072254,321.65063,1676501362000,0.35640225,15.747052,99728563579000,6.528572,Bike
Fix,FLP,37.4228567,-122.1613148,-6.599999904632568,1.3069785,9.807,341.58826,1676501364011,,,99728395450695,1.4308561,Bike
Fix,FLP,37.4228628,-122.1613173,-6.599999904632568,1.2528558,9.859,325.35876,1676501364552,,,99728937964123,1.4308561,Bike
Fix,FLP,37.4228703,-122.1613235,-6.599999904632568,1.2510661,9.986,324.7446,1676501365095,,,99729480466198,1.4308561,Bike
Fix,GPS,37.4228614224,-122.1613228589,-6.698798097040219,2.0611649,5.9503627,310.08817,1676501363000,0.33389592,9.022331,99729563377000,6.4606385,Bike
Fix,FLP,37.4228738,-122.1613316,-6.599999904632568,1.9284652,10.075,308.38736,1676501365638,,,99730022988170,1.4413861,Bike
Fix,GPS,37.4228783548,-122.1613585129,-6.756516420191587,3.2330792,5.460936,316.13797,1676501364000,0.290186,5.0061164,99730563413000,6.303922,Bike
Fix,FLP,37.4228771,-122.1613413,-9.8337766924651,2.0361824,10.159,310.47964,1676501366180,,,99730565508190,1.4508461,Bike
Fix,FLP,37.422887,-122.1613611,-9.8337766924651,2.950342,10.152,317.3325,1676501366724,,,99731108017650,1.4508461,Bike
Fix,GPS,37.4229004468,-122.1613973794,-7.916514419968277,3.5231767,5.338029,308.80417,1676501365000,0.30012143,4.667978,99731563390000,6.1930437,Bike
Fix,FLP,37.4228917,-122.1613683,-0.9852148640167756,3.114346,10.113,314.4647,1676501367266,,,99731650531261,1.4608461,Bike
Fix,GPS,37.4229184522,-122.161437124,-8.89212045587318,3.6734467,5.3167777,297.85413,1676501366000,0.31874704,4.8044124,99732563431000,6.1378226,Bike
Fix,FLP,37.4229102,-122.1614021,13.183751582677807,3.4848306,10.056,301.0316,1676501367809,,,99732193044323,1.3857937,Bike
Fix,FLP,37.422919,-122.1614273,13.183751582677807,3.6578617,9.981,296.36847,1676501368350,,,99732735557567,1.3857937,Bike
Fix,GPS,37.4229288198,-122.161479406,-8.976298828657043,3.4668102,5.6140676,276.99115,1676501367000,0.33142883,4.947468,99733563444000,6.14796,Bike
Fix,FLP,37.4229263,-122.1614523,14.267250671238166,3.701814,9.931,288.8448,1676501368893,,,99733278070385,1.3957937,Bike
Fix,FLP,37.4229312,-122.1614807,14.267250671238166,3.507586,9.805,277.98685,1676501369436,,,99733820583446,1.3957937,Bike
Fix,GPS,37.4229270992,-122.1615250581,-9.01047289063085,3.512011,5.621985,269.86685,1676501368000,0.33797747,5.3299327,99734563555000,6.1229057,Bike
Fix,FLP,37.4229325,-122.1615048,21.51526452306171,3.4733655,9.711,271.93277,1676501369979,,,99734363095531,1.4057937,Bike
Fix,FLP,37.4229306,-122.1615295,21.51526452306171,3.5089567,9.652,271.40897,1676501370510,,,99734895310436,1.4057937,Bike
Fix,GPS,37.4229245871,-122.1615738304,-8.468880445878096,3.7455637,5.7155075,285.4818,1676501369000,0.31992462,4.8635836,99735563517000,6.1336226,Bike
Fix,FLP,37.4229306,-122.161554,21.928682428718297,3.4966104,9.61,277.20926,1676501371064,,,99735448120617,1.4157937,Bike
Fix,FLP,37.4229305,-122.1615771,21.928682428718297,3.6673055,9.566,282.45462,1676501371587,,,99735972000000,1.4157937,Bike
Fix,GPS,37.4229323171,-122.1616283523,-7.539904429916861,3.9813352,5.6395497,291.15576,1676501370000,0.29740095,4.0348883,99736563485000,6.105014,Bike
Fix,FLP,37.4229339,-122.1616061,-12.070337177778557,3.7255125,9.578,284.5842,1676501372149,,,99736533145092,1.4257736,Bike
Fix,GPS,37.4229413416,-122.1616670908,-8.152313521763944,3.7483695,5.6353693,278.77103,1676501371000,0.3155408,4.2366047,99737563659000,6.1074424,Bike
Fix,FLP,37.4229418,-122.1616559,-14.476945987378926,3.965941,9.682,281.75153,1676501373234,,,99737618169018,1.4357836,Bike
Fix,GPS,37.4229427519,-122.1617176183,-7.717079365970653,4.404518,5.6292224,269.6816,1676501372000,0.3301632,4.027005,99738563501000,6.062282,Bike
Fix,FLP,37.4229453,-122.161694,-1.1587456130119378,3.7880156,9.8,276.5893,1676501373776,,,99738160683910,1.5308361,Bike
Fix,FLP,37.4229454,-122.1617104,-1.1587456130119378,4.234195,9.735,272.7905,1676501374364,,,99738749000000,1.5308361,Bike
Fix,GPS,37.4229419181,-122.161778015,-7.238964159869463,4.652616,5.6501713,279.70273,1676501373000,0.35372034,4.183821,99739563634000,6.0516353,Bike
Fix,FLP,37.4229463,-122.1617509,-1.0175940496109348,4.3834624,9.696,274.30838,1676501374970,,,99739354206371,1.5408361,Bike
Fix,NLP,37.4234009,-122.1628094,-5.599999904632568,,54.734,,1676501374530,,,99738914000000,3.8800259,Bike
Fix,FLP,37.4229461,-122.1617991,-1.0175940496109348,4.5776644,9.647,280.6712,1676501375500,,,99739885000000,1.4887887,Bike
Fix,GPS,37.4229521518,-122.1618391082,-6.6670638523591,4.996124,5.7409034,289.1001,1676501374000,0.34415758,3.7020812,99740563562000,6.087133,Bike
Fix,FLP,37.4229506,-122.1618292,7.462399430068977,4.5645003,9.582,288.48016,1676501376054,,,99740439229565,1.4988186,Bike
Fix,GPS,37.4229671605,-122.1619040327,-6.189094108066376,4.810445,5.6137767,286.27542,1676501375000,0.35138208,3.883464,99741563570000,6.138756,Bike
Fix,FLP,37.422961,-122.1618815,7.462399430068977,4.988074,9.566,280.2796,1676501377140,,,99741524252270,1.4988186,Bike
Fix,FLP,37.4229683,-122.1619344,5.009600734406156,4.8155518,9.548,281.3142,1676501377682,,,99742066763195,1.5087987,Bike
Fix,GPS,37.4229816214,-122.1619635573,-6.012788647522212,4.9345856,5.3278027,284.38315,1676501376000,0.3440408,3.823028,99742563552000,6.107658,Bike
Fix,FLP,37.4229705,-122.1619415,-2.689506880304989,4.8109717,9.55,282.87445,1676501378225,,,99742609274486,1.4118861,Bike
Fix,FLP,37.4229836,-122.1619885,-2.689506880304989,4.904612,9.418,285.41238,1676501378767,,,99743151785656,1.4118861,Bike
Fix,GPS,37.4229962631,-122.1620191704,-6.301589854176742,4.926572,5.293616,286.0494,1676501377000,0.35971525,4.074544,99743563589000,6.106713,Bike
Fix,FLP,37.4229979,-122.1620402,14.105339781625538,4.951304,9.417,285.3219,1676501379842,,,99744226000000,1.4218761,Bike
Fix,GPS,37.4230119767,-122.1620779559,-6.7721509062657805,4.943909,5.3047895,286.93793,1676501378000,0.34412807,3.8531156,99744563642000,6.0788207,Bike
Fix,FLP,37.4230106,-122.1620874,11.598931641017144,4.9458685,9.396,285.14734,1676501380395,,,99744779319896,1.4319061,Bike
Fix,GPS,37.4230224452,-122.1621325832,-7.39805673767999,4.719725,5.3118734,287.8155,1676501379000,0.35754868,4.2018147,99745563653000,6.0271153,Bike
Fix,FLP,37.4230159,-122.1621121,4.434480928227728,4.954197,9.403,284.35858,1676501380937,,,99745321828869,1.4419161,Bike
Fix,FLP,37.4230216,-122.1621353,4.434480928227728,4.783518,9.374,285.4514,1676501381479,,,99745864339672,1.4419161,Bike
Fix,GPS,37.4230320442,-122.1621854438,-7.360815456584051,4.5764728,5.368766,288.6142,1676501380000,0.38802773,4.5630946,99746563663000,6.0451527,Bike
Fix,FLP,37.4230294,-122.1621709,11.383595613835269,4.7323246,9.355,285.63834,1676501382022,,,99746406850109,1.4519361,Bike
Fix,FLP,37.4230426,-122.162222,11.383595613835269,4.591415,9.329,288.47202,1676501383107,,,99747491867931,1.4519361,Bike
Fix,GPS,37.4230399732,-122.162239064,-6.566296818977292,4.4689384,5.383958,287.1067,1676501381000,0.40684074,4.880708,99747563625000,6.091677,Bike
Fix,FLP,37.4230501,-122.1622614,11.383595613835269,4.4908094,9.242,287.23166,1676501383650,,,99748034381298,1.461876,Bike
Fix,GPS,37.4230466025,-122.1622920494,-6.283114974618763,4.6313257,5.5236783,283.77176,1676501382000,0.41224498,4.835121,99748563682000,6.1597433,Bike
Fix,FLP,37.4230527,-122.1622787,13.36337364711546,4.483056,9.234,286.90433,1676501384191,,,99748576891613,1.471896,Bike
Fix,FLP,37.4230557,-122.1623116,13.36337364711546,4.62038,9.287,283.76544,1676501384735,,,99749119405407,1.471896,Bike
Fix,GPS,37.4230546075,-122.1623435099,-6.557539942255083,4.710226,5.5551386,287.18542,1676501383000,0.4084393,4.7933373,99749563804000,6.211687,Bike
Fix,FLP,37.423058,-122.1623384,13.04005085511809,4.6347013,9.384,282.9997,1676501385277,,,99749661911938,1.4818861,Bike
Fix,GPS,37.4230670867,-122.1623978141,-6.583644603660906,4.938965,5.5496864,288.37372,1676501384000,0.39297944,4.330866,99750563823000,6.2565618,Bike
Fix,FLP,37.4230637,-122.1623809,5.293297223730114,4.667391,9.531,284.74564,1676501385820,,,99750204421886,1.3717657,Bike
Fix,FLP,37.4230676,-122.1623965,5.293297223730114,4.8278837,9.492,286.67892,1676501386369,,,99750753000000,1.3717657,Bike
Fix,FLP,37.4230776,-122.1624369,5.293297223730114,4.892164,9.51,289.14758,1676501386904,,,99751289444530,1.3717657,Bike
Fix,GPS,37.4230816958,-122.1624590084,-6.434655498520462,5.1124277,5.5737114,289.94846,1676501385000,0.39569005,4.1783853,99751563711000,6.3289084,Bike
Fix,FLP,37.42308,-122.1624492,11.420955151709926,5.1042156,9.18,289.0239,1676501387178,0.39569005,4.1783853,99751563711000,1.3818557,Bike
Fix,GPS,37.423099139,-122.1625266405,-6.798486732372897,5.3326073,5.3704762,287.85318,1676501386000,0.37952277,3.9060786,99752563712000,6.377104,Bike
Fix,FLP,37.4230977,-122.1625186,16.905122742963123,5.3310814,8.751,287.01257,1676501388178,0.37952277,3.9060786,99752563712000,1.3917657,Bike
Fix,GPS,37.4231179397,-122.1625985886,-6.412005031691731,5.450383,5.210771,287.2111,1676501387000,0.3453805,3.528006,99753563750000,6.3054805,Bike
Fix,FLP,37.4231158,-122.1625912,7.229013318518895,5.449759,8.349,287.00015,1676501389179,0.3453805,3.528006,99753563750000,1.4017557,Bike
Fix,GPS,37.4231336594,-122.1626620349,-6.538063835448004,5.5007,5.2111044,287.8264,1676501388000,0.35076398,3.5539794,99754563801000,6.2061315,Bike
Fix,FLP,37.4231325,-122.1626581,17.112983929067887,5.500426,7.831,287.00006,1676501390179,0.35076398,3.5539794,99754563801000,1.4117657,Bike
Fix,GPS,37.4231496947,-122.1627273516,-6.32679268481815,5.4738655,5.186489,287.54898,1676501389000,0.34878308,3.553338,99755563751000,6.138163,Bike
Fix,FLP,37.4231488,-122.1627242,17.112983929067887,5.4740357,6.935,286.99997,1676501391179,0.34878308,3.553338,99755563751000,1.4217757,Bike
Fix,GPS,37.4231648525,-122.1627892764,-5.884302190025804,5.2668505,5.0810604,289.85352,1676501390000,0.3581686,3.7992074,99756563910000,6.041905,Bike
Fix,FLP,37.4231644,-122.1627874,6.855304066121633,5.268107,5.211,288.98767,1676501392179,0.3581686,3.7992074,99756563910000,1.4317657,Bike
Fix,GPS,37.4231794772,-122.1628375222,-5.2127233426834,5.2336764,5.0323467,290.74045,1676501391000,0.35461056,3.7774563,99757563805000,5.9663124,Bike
Fix,FLP,37.4231796,-122.1628395,4.897206287677051,5.2338705,5.144,289.99417,1676501393179,0.35461056,3.7774563,99757563805000,1.561876,Bike
Fix,GPS,37.4231985949,-122.1628914893,-5.370455846212229,5.4095397,4.9224687,289.68585,1676501392000,0.33133265,3.4496355,99758563809000,5.8621597,Bike
Fix,FLP,37.4231977,-122.1628927,9.15556976344206,5.4086165,5.086,289.00504,1676501394179,0.33133265,3.4496355,99758563809000,1.5718861,Bike
Fix,GPS,37.4232133937,-122.162944974,-5.999315713570217,5.244727,4.9982967,284.19473,1676501393000,0.3354258,3.6284761,99759563835000,5.8284125,Bike
Fix,FLP,37.4232134,-122.1629468,7.488227480175524,5.245475,5.043,284.0271,1676501395178,0.3354258,3.6284761,99759563835000,1.581886,Bike
Fix,GPS,37.4232246009,-122.1630034998,-6.640409993628474,5.228453,5.0215,283.90036,1676501394000,0.35024604,3.771969,99760563821000,5.8186088,Bike
Fix,FLP,37.4232247,-122.1630038,0.512458001255041,5.228542,5.011,283.00583,1676501396179,0.35024604,3.771969,99760563821000,1.5918761,Bike
Fix,GPS,37.4232253502,-122.1630589005,-6.559157974845117,5.0467362,5.009972,277.10486,1676501395000,0.3677989,4.0891414,99761563973000,5.823184,Bike
Fix,FLP,37.4232286,-122.1630597,11.461622622920338,5.047695,4.996,277.03802,1676501397179,0.3677989,4.0891414,99761563973000,1.601896,Bike
Fix,GPS,37.4232257006,-122.1631161814,-6.5480716127123735,4.896011,5.0675344,276.73676,1676501396000,0.34562376,3.909023,99762563840000,5.807848,Bike
Fix,FLP,37.4232284,-122.1631163,8.990948132260677,4.89686,5.004,276.0054,1676501398178,0.34562376,3.909023,99762563840000,1.6118861,Bike
Fix,NLP,37.4232728,-122.1631205,-5.599999904632568,,20.0,,1676501399108,,,99763493000000,1.1943301,Bike
Fix,FLP,37.4232296,-122.1631432,3.4367206435238917,3.696651,7.878,232.25606,1676501399109,,,99763493000000,1.3624941,Bike
Fix,GPS,37.4232264076,-122.163175223,-6.437112091564864,4.8669086,5.0239034,279.7253,1676501397000,0.36095327,4.178561,99763563863000,5.7736716,Bike
Fix,FLP,37.4232106,-122.1631661,-1.1329438903650484,4.41115,12.106,257.74094,1676501399653,,,99764038411938,1.3634942,Bike
Fix,GPS,37.4232302673,-122.1632337587,-6.164534562063424,5.163621,5.050725,282.7499,1676501398000,0.36747625,4.0208526,99764563876000,5.7283826,Bike
Fix,FLP,37.4232226,-122.1632076,3.4367206435238917,5.1330833,12.112,281.76715,1676501400179,0.36747625,4.0208526,99764563876000,1.3778605,Bike
Fix,GPS,37.4232400406,-122.1632942444,-6.174023880610088,5.397291,5.0844135,285.3953,1676501399000,0.3742201,4.0665584,99765564162000,5.728781,Bike
Fix,FLP,37.4232373,-122.1632843,14.431744417354032,5.395524,12.119,284.97858,1676501401180,0.3742201,4.0665584,99765564162000,1.388993,Bike
Fix,GPS,37.4232514358,-122.1633533061,-6.5158721355169975,5.2228813,5.0799017,287.56464,1676501400000,0.37711805,4.2474265,99766563945000,5.695817,Bike
Fix,FLP,37.4232509,-122.16335,-3.309624055971007,5.2240424,11.415,286.9854,1676501402178,0.37711805,4.2474265,99766563945000,1.3935041,Bike
Fix,GPS,37.4232653335,-122.1634087673,-6.801585379621124,5.0208225,5.102822,291.86215,1676501401000,0.39471674,4.6661763,99767564175000,5.6965475,Bike
Fix,FLP,37.4232651,-122.1634081,-3.309624055971007,5.02221,12.13,290.96774,1676501403180,0.39471674,4.6661763,99767564175000,1.3872287,Bike
Fix,GPS,37.4232839028,-122.1634637219,-6.654243662582929,5.3496537,5.2133555,293.56247,1676501402000,0.42050365,4.6163864,99768563956000,5.736768,Bike
Fix,FLP,37.423283,-122.1634629,0.4775430116832311,5.346844,8.457,292.98315,1676501404179,0.42050365,4.6163864,99768563956000,1.3972387,Bike
Fix,NLP,37.423323,-122.1631958,-5.599999904632568,,45.6,,1676501404057,,,99768441000000,4.608277,Bike
Fix,GPS,37.4233022553,-122.1635238262,-6.40495856252471,5.4678693,5.2461047,290.252,1676501403000,0.40995345,4.4262824,99769564079000,5.7320714,Bike
Fix,FLP,37.4233031,-122.1635245,4.395499751667593,5.4669795,5.156,290.02164,1676501405180,0.40995345,4.4262824,99769564079000,2.3834193,Bike
Fix,GPS,37.4233215287,-122.1635875212,-6.451253731093922,5.3988423,5.318617,286.43658,1676501404000,0.38589424,4.2986927,99770564242000,5.740291,Bike
Fix,FLP,37.4233209,-122.1635859,-3.635850149346254,5.3993106,5.195,286.0313,1676501406180,0.38589424,4.2986927,99770564242000,2.5772593,Bike
Fix,GPS,37.4233278012,-122.1636533052,-5.995684344620515,5.442106,5.2778096,282.9081,1676501405000,0.35104313,3.712974,99771564027000,5.72595,Bike
Fix,FLP,37.42333,-122.1636504,-3.635850149346254,5.441795,5.228,282.02332,1676501407179,0.35104313,3.712974,99771564027000,2.1110835,Bike
Fix,GPS,37.4233273708,-122.1637184656,-5.8501064677423535,5.1284223,5.090729,287.3779,1676501406000,0.3353064,3.7063458,99772564010000,5.668604,Bike
Fix,FLP,37.4233315,-122.163716,9.878423299719906,5.1300006,5.209,286.9719,1676501408179,0.3353064,3.7063458,99772564010000,2.1210735,Bike
Fix,GPS,37.4233385607,-122.1637818846,-5.854720823745831,4.923064,4.9890738,291.4093,1676501407000,0.32573852,3.692721,99773563988000,5.6474886,Bike
Fix,FLP,37.4233406,-122.1637786,1.840346666045136,4.9240675,5.184,290.97934,1676501409179,0.32573852,3.692721,99773563988000,2.1310935,Bike
Fix,GPS,37.4233532381,-122.1638380001,-5.687280945559968,5.0453672,4.9654536,289.73068,1676501408000,0.33353823,3.625035,99774564022000,5.6062894,Bike
Fix,FLP,37.4233543,-122.1638357,6.672909462763279,5.0447097,5.148,289.00958,1676501410179,0.33353823,3.625035,99774564022000,1.9635731,Bike
Fix,FLP,37.4233603,-122.1638613,6.672909462763279,0.7804985,5.344,173.09482,1676501410680,,,99775064902111,1.9635731,Bike
Fix,GPS,37.4233665609,-122.1638968476,-5.355315210219803,5.553015,4.981531,284.31366,1676501409000,0.36336073,3.6780632,99775564077000,5.634579,Bike
Fix,FLP,37.4233639,-122.1638834,13.299518949590706,5.479326,5.299,283.92688,1676501411180,0.36336073,3.6780632,99775564077000,1.9735831,Bike
Fix,GPS,37.4233775164,-122.1639583297,-4.962744047114225,5.269922,4.951913,282.60822,1676501410000,0.3438402,3.4949787,99776564164000,5.6261597,Bike
Fix,FLP,37.4233769,-122.1639534,10.778150766600495,5.2710752,5.249,282.00964,1676501412180,0.3438402,3.4949787,99776564164000,1.9835831,Bike
Fix,GPS,37.4233871337,-122.1640132058,-5.262487865558653,5.059187,4.967555,282.47647,1676501411000,0.34162953,3.5921876,99777564144000,5.6326647,Bike
Fix,FLP,37.423387,-122.1640127,3.8963540798814975,5.060352,5.232,281.99973,1676501413180,0.34162953,3.5921876,99777564144000,1.9935931,Bike
Fix,GPS,37.4233982738,-122.1640658122,-5.559949417681301,5.265776,5.011553,284.55157,1676501412000,0.36447272,3.7769938,99778564349000,5.6653013,Bike
Fix,FLP,37.4233977,-122.1640668,5.896151656788653,5.26449,5.235,283.98917,1676501414179,0.36447272,3.7769938,99778564349000,2.0035832,Bike
Fix,GPS,37.4234098309,-122.1641255822,-5.016168805778033,5.421948,5.03187,283.782,1676501413000,0.36760587,3.683378,99779564350000,5.6653275,Bike
Fix,FLP,37.4234096,-122.1641253,13.993837980492742,5.4209332,5.245,283.00583,1676501415179,0.36760587,3.683378,99779564350000,2.0135832,Bike
Fix,GPS,37.423422434,-122.1641824697,-5.361984018074025,5.4193945,5.1126604,287.41223,1676501414000,0.37276265,3.7206209,99780564353000,5.723581,Bike
Fix,FLP,37.4234218,-122.1641834,3.682732788454288,5.4193773,5.015,286.97614,1676501416179,0.37276265,3.7206209,99780564353000,2.0235832,Bike
Fix,GPS,37.4234369481,-122.1642414362,-5.514536425597434,5.397777,5.1533566,288.80148,1676501415000,0.3636433,3.6850374,99781564202000,5.826326,Bike
Fix,FLP,37.4234366,-122.1642416,3.682732788454288,5.3979173,5.055,287.99402,1676501417180,0.3636433,3.6850374,99781564202000,2.0335932,Bike
Fix,GPS,37.4234524382,-122.1643054829,-5.522580420210125,5.5433435,5.1744485,288.15634,1676501416000,0.35390365,3.5208483,99782564182000,5.913624,Bike
Fix,FLP,37.4234521,-122.1643036,11.802619237331228,5.5425,5.096,288.0001,1676501418179,0.35390365,3.5208483,99782564182000,2.0435832,Bike
Fix,GPS,37.4234706507,-122.164375674,-5.416707184553205,5.306897,5.271802,290.01398,1676501417000,0.35669643,3.645359,99783564448000,5.9716825,Bike
Fix,FLP,37.4234696,-122.1643715,10.802469054276138,5.308324,5.148,289.988,1676501419179,0.35669643,3.645359,99783564448000,2.0535731,Bike
Fix,GPS,37.423487369,-122.1644441676,-4.725855266213169,5.4649124,5.3444743,288.81073,1676501418000,0.37096468,3.755182,99784564244000,6.0283394,Bike
Fix,FLP,37.4234869,-122.1644386,7.939471441497311,5.4638925,5.181,288.01202,1676501420180,0.37096468,3.755182,99784564244000,2.2410636,Bike
Fix,GPS,37.4235010518,-122.16451383,-3.676843717704037,5.621644,5.3083153,283.9463,1676501419000,0.38920236,3.8243694,99785564346000,6.036141,Bike
Fix,FLP,37.4235014,-122.1645083,15.930123683037522,5.62036,5.227,283.03284,1676501421180,0.38920236,3.8243694,99785564346000,2.2510836,Bike
Fix,GPS,37.4235124188,-122.1645768678,-3.5180411854028035,5.362095,5.323467,284.42868,1676501420000,0.38125485,3.891742,99786564552000,6.0640497,Bike
Fix,FLP,37.4235126,-122.1645747,15.930123683037522,5.3638797,5.284,283.99316,1676501422179,0.38125485,3.891742,99786564552000,2.2610936,Bike
Fix,GPS,37.4235220885,-122.1646328373,-3.900956857143251,5.142965,5.470238,285.53815,1676501421000,0.38525665,4.005296,99787564223000,6.186451,Bike
Fix,FLP,37.4235229,-122.1646331,2.6238178465701125,5.144505,5.343,284.99292,1676501423180,0.38525665,4.005296,99787564223000,2.2710936,Bike
Fix,GPS,37.4235316835,-122.1646881522,-3.503369043221238,5.1870627,5.505155,287.20984,1676501422000,0.39198792,4.055364,99788564400000,6.308044,Bike
Fix,FLP,37.4235328,-122.1646886,11.573091028125503,5.186768,5.37,286.98703,1676501424179,0.39198792,4.055364,99788564400000,2.2810836,Bike
Fix,GPS,37.4235446011,-122.164742947,-4.327384785785244,5.1080036,5.3325353,290.23572,1676501423000,0.36915287,3.8913782,99789564282000,6.349462,Bike
Fix,FLP,37.4235452,-122.1647435,14.176803073001786,5.1085,5.387,289.98187,1676501425180,0.36915287,3.8913782,99789564282000,2.2910936,Bike
Fix,GPS,37.4235603966,-122.1648010797,-4.720892478651884,4.8497887,5.266735,291.73602,1676501424000,0.35305887,3.9127238,99790564268000,6.3781877,Bike
Fix,FLP,37.4235606,-122.1648,11.573091028125503,4.8512964,5.367,290.99368,1676501426179,0.35305887,3.9127238,99790564268000,2.3010836,Bike
Fix,GPS,37.423575703,-122.1648584279,-5.098188814771115,4.746336,5.214956,290.04016,1676501425000,0.36126542,4.181408,99791564290000,6.3066072,Bike
Fix,FLP,37.4235693,-122.1648325,4.939227459966048,4.7998056,5.332,290.5307,1676501427179,0.36126542,4.181408,99791564290000,2.3110836,Bike
Fix,NLP,37.422266,-122.1651311,-1.6999999284744265,,52.763,,1676501427156,,,99791541000000,9.521729,Bike
Fix,GPS,37.4235891317,-122.164912004,-5.499571799901855,4.4867153,5.217999,287.62274,1676501426000,0.34684917,4.3778625,99792564394000,6.30824,Bike
Fix,FLP,37.423583,-122.1648856,-11.549423493182124,4.6122804,5.271,288.5392,1676501428180,0.34684917,4.3778625,99792564394000,2.2832541,Bike
Fix,GPS,37.4236015976,-122.1649610387,-5.573166816197739,4.237247,5.2137494,284.8355,1676501427000,0.35132015,4.8873854,99793564280000,6.2962956,Bike
Fix,FLP,37.4235996,-122.1649513,-5.599999904632568,4.239436,5.266,284.03088,1676501429179,0.35132015,4.8873854,99793564280000,5.8160586,Bike
Fix,GPS,37.4236087177,-122.1650124666,-5.095535285108224,3.8519576,5.332136,281.5922,1676501428000,0.36350176,5.522324,99794564366000,6.2645392,Bike
Fix,FLP,37.4236087,-122.1650074,-5.599999904632568,3.8543978,5.242,281.0219,1676501430180,0.36350176,5.522324,99794564366000,5.8260584,Bike
Fix,GPS,37.4236122191,-122.1650581947,-4.101293513838204,3.4614377,5.4065537,282.48514,1676501429000,0.34683207,5.6354647,99795564336000,6.233874,Bike
Fix,FLP,37.4236112,-122.1650357,-3.5822386635908003,3.525262,5.269,281.81976,1676501431180,0.34683207,5.6354647,99795564336000,5.3569274,Bike
Fix,GPS,37.4236126389,-122.1650998301,-4.154513323632164,3.8804386,5.423968,280.2282,1676501430000,0.35744256,5.017396,99796564360000,6.214234,Bike
Fix,FLP,37.4236159,-122.1650693,-1.6999999284744265,3.3853238,5.711,310.89023,1676501432254,,,99796638694836,5.366957,Bike
Fix,NLP,37.4234517,-122.1654208,5.300000190734863,,35.787,,1676501432132,,,99796517000000,13.341861,Bike
Fix,FLP,37.4236254,-122.1651092,0.1284010473085928,3.3927252,7.014,313.47974,1676501432797,,,99797181203808,5.5823145,Bike
Fix,GPS,37.4236131563,-122.1651490186,-4.489007264009498,3.9495513,5.4003797,274.46564,1676501431000,0.3621482,4.9209576,99797564584000,6.1943207,Bike
Fix,FLP,37.4236191,-122.1651594,-1.6999999284744265,3.916891,7.859,275.3601,1676501433882,,,99798266224620,5.588334,Bike
Fix,GPS,37.4236093393,-122.1651942016,-4.144145123001975,4.4205575,5.3911543,271.99173,1676501432000,0.38928846,4.6659126,99798564652000,6.201538,Bike
Fix,FLP,37.4236102,-122.165213,15.505826279294908,4.366229,8.053,274.0061,1676501434967,,,99799351240429,5.638219,Bike
Fix,GPS,37.423609044,-122.1652472057,-3.702468433918336,5.004234,5.45168,277.1799,1676501433000,0.441515,4.8040357,99799564447000,6.229024,Bike
Fix,FLP,37.4236084,-122.1652566,15.505826279294908,4.8876247,8.323,277.55734,1676501435509,,,99799893749828,5.854011,Bike
Fix,GPS,37.4236143264,-122.1653039453,-2.951818375500527,5.2970333,5.639017,282.33524,1676501434000,0.4513966,4.9726524,99800564447000,6.3050623,Bike
Fix,FLP,37.423613,-122.1652906,15.69135872453286,5.289712,8.888,281.9516,1676501436179,0.4513966,4.9726524,99800564447000,5.8640113,Bike
Fix,GPS,37.4236221889,-122.1653747828,-3.902856298087919,5.1559763,5.6157866,280.44543,1676501435000,0.47346023,5.4608006,99801564439000,6.3806934,Bike
Fix,NLP,37.4235296,-122.1654634,5.900000095367432,,17.359,,1676501437169,,,99801553000000,5.8634787,Bike
Fix,FLP,37.4236224,-122.1653654,10.9792853744531,5.1575155,8.421,280.02255,1676501437179,0.47346023,5.4608006,99801564439000,5.874001,Bike
Fix,GPS,37.4236275468,-122.165442042,-4.479129998621909,4.9856615,5.6964993,283.26315,1676501436000,0.43603685,5.0726056,99802564709000,6.483553,Bike
Fix,FLP,37.4236287,-122.1654361,5.900000095367432,4.9871497,7.639,282.97174,1676501438180,0.43603685,5.0726056,99802564709000,5.754687,Bike
Fix,GPS,37.4236361067,-122.1655039434,-4.330854096585291,5.108844,5.57863,283.62842,1676501437000,0.44628987,5.1039586,99803564489000,6.5049834,Bike
Fix,FLP,37.4236371,-122.1654993,13.963935474835507,5.107743,7.242,282.99933,1676501439179,0.44628987,5.1039586,99803564489000,5.796665,Bike
Fix,GPS,37.4236463837,-122.1655675485,-4.452514775860806,5.337191,5.6521153,283.3844,1676501438000,0.4575887,4.960245,99804564506000,6.549742,Bike
Fix,FLP,37.4236468,-122.1655632,16.275356280514565,5.334971,5.997,282.99973,1676501440180,0.4575887,4.960245,99804564506000,5.8185368,Bike
Fix,GPS,37.4236538111,-122.1656363152,-4.221531683486572,5.3017516,5.589833,281.52664,1676501439000,0.43508855,4.7655234,99805564825000,6.539342,Bike
Fix,FLP,37.4236551,-122.1656313,8.920035186758483,5.302083,5.624,281.01807,1676501441180,0.43508855,4.7655234,99805564825000,5.816665,Bike
Fix,GPS,37.4236604553,-122.1657016279,-4.457765755503905,4.973168,5.5681925,279.6312,1676501440000,0.41548216,4.9766426,99806564479000,6.5250006,Bike
Fix,FLP,37.4236618,-122.1656975,5.300000190734863,4.9758916,5.617,279.01895,1676501442179,0.41548216,4.9766426,99806564479000,5.826665,Bike
Fix,GPS,37.423666154,-122.165764985,-5.128292990471265,4.7953444,5.57686,279.53412,1676501441000,0.40862808,5.1627965,99807564595000,6.509812,Bike
Fix,FLP,37.423666,-122.1657582,13.496152419582115,5.0013175,6.253,278.96033,1676501443180,,,99807564595000,5.836685,Bike
Fix,GPS,37.4236719766,-122.1658287089,-4.9094794745775605,5.176066,5.556299,279.05222,1676501442000,0.39557484,4.7482247,99808564588000,6.4825125,Bike
Fix,FLP,37.4236693,-122.1657939,13.771852409736285,4.6552143,7.604,286.8825,1676501444238,,,99808623613658,5.846665,Bike
Fix,GPS,37.4236795439,-122.1658959112,-4.740462963031047,5.035049,5.5195875,281.2807,1676501443000,0.39273876,4.7604046,99809564732000,6.3922443,Bike
Fix,FLP,37.4236795,-122.1658755,11.55687735056334,5.0333586,8.47,281.08682,1676501445179,0.39273876,4.7604046,99809564732000,5.856655,Bike
Fix,GPS,37.4236901082,-122.1659578023,-4.985660874103684,5.108121,5.553229,282.3117,1676501444000,0.40767702,4.8221827,99810564571000,6.2890825,Bike
Fix,FLP,37.4236894,-122.1659485,11.55687735056334,5.1075864,8.106,281.99197,1676501446180,0.40767702,4.8221827,99810564571000,5.8666654,Bike
Fix,GPS,37.4236936266,-122.1660169443,-4.690782580444859,5.164136,5.426185,280.52557,1676501445000,0.3863851,4.3379827,99811564628000,6.2450414,Bike
Fix,FLP,37.4236954,-122.1660128,18.67513777726287,5.163747,8.445,280.01392,1676501447180,0.3863851,4.3379827,99811564628000,5.339474,Bike
Fix,GPS,37.4236956341,-122.1660748296,-3.5761457847778564,5.148659,5.407473,281.20447,1676501446000,0.3654386,3.9766297,99812564683000,6.206864,Bike
Fix,FLP,37.4236983,-122.1660733,12.006311741739346,5.1487594,7.869,280.9937,1676501448180,0.3654386,3.9766297,99812564683000,5.349474,Bike
Fix,GPS,37.423703102,-122.1661323089,-2.533894513142396,5.109234,5.4958134,284.08337,1676501447000,0.4191486,4.761611,99813564943000,6.2243786,Bike
Fix,FLP,37.4237045,-122.1661317,5.900000095367432,5.109494,6.867,283.97406,1676501449180,0.4191486,4.761611,99813564943000,5.359464,Bike
Fix,GPS,37.423713689,-122.1661928641,-1.8606197593813896,5.382918,5.5521746,284.1403,1676501448000,0.48331037,5.361068,99814564664000,6.26641,Bike
Fix,FLP,37.4237144,-122.1661911,8.338571471155554,5.3798947,5.492,283.99896,1676501450179,0.48331037,5.361068,99814564664000,5.369464,Bike
Fix,GPS,37.4237265621,-122.1662587353,-1.5947969100964126,5.411302,5.500264,280.82074,1676501449000,0.4076813,4.51731,99815564653000,6.2145743,Bike
Fix,FLP,37.4237264,-122.1662557,10.898222992050052,5.411032,5.476,280.0338,1676501451179,0.4076813,4.51731,99815564653000,5.379464,Bike
Fix,GPS,37.4237420833,-122.1663169408,-2.284306087934457,5.208366,5.5174627,281.10428,1676501450000,0.40447435,4.6134777,99816564986000,6.218353,Bike
Fix,FLP,37.4237396,-122.1663166,5.900000095367432,5.2099366,5.494,280.99225,1676501452180,0.40447435,4.6134777,99816564986000,5.389474,Bike
Fix,GPS,37.4237568752,-122.1663752888,-3.130670852819455,5.170865,5.5077653,282.57602,1676501451000,0.39226222,4.4581037,99817564705000,6.215694,Bike
Fix,FLP,37.4237539,-122.166375,10.898222992050052,5.171148,5.514,281.99265,1676501453180,0.39226222,4.4581037,99817564705000,5.399474,Bike
Fix,GPS,37.4237698876,-122.1664374092,-3.584399542565095,5.0488544,5.5964417,282.51797,1676501452000,0.39518297,4.7483478,99818564677000,6.2555385,Bike
Fix,FLP,37.4237676,-122.1664356,15.66905406222122,5.0497866,5.528,282.0004,1676501454179,0.39518297,4.7483478,99818564677000,5.4094644,Bike
Fix,GPS,37.4237803676,-122.166492053,-3.1249285143205725,5.4232388,5.5595036,278.83618,1676501453000,0.37249112,4.041103,99819564692000,6.2583175,Bike
Fix,FLP,37.4237792,-122.1664919,5.900000095367432,5.4207153,5.536,278.0257,1676501455179,0.37249112,4.041103,99819564692000,5.419464,Bike
Fix,GPS,37.4237873933,-122.1665512841,-3.4571493012990016,5.232972,5.6172595,277.88144,1676501454000,0.39177987,4.510256,99820564705000,6.2775326,Bike
Fix,FLP,37.4237869,-122.1665518,-7.284172596403089,5.2343426,5.559,277.00876,1676501456179,0.39177987,4.510256,99820564705000,5.4294643,Bike
Fix,GPS,37.4237976718,-122.1666014909,-3.8802956323267432,4.6561027,5.622802,279.78818,1676501455000,0.37500626,4.8492846,99821564745000,6.3124146,Bike
Fix,FLP,37.4237959,-122.1666048,15.66905406222122,4.65992,5.57,278.9846,1676501457179,0.37500626,4.8492846,99821564745000,5.439464,Bike
Fix,GPS,37.4238124758,-122.1666554794,-4.448910893347243,4.338627,5.7640142,281.39835,1676501456000,0.38757166,5.1402483,99822564896000,6.3378096,Bike
Fix,FLP,37.4238083,-122.1666534,14.109394420289108,4.3414226,5.63,280.9814,1676501458179,0.38757166,5.1402483,99822564896000,5.4494643,Bike
Fix,NLP,37.4238188,-122.1664721,-0.1999998986721038,,41.506,,1676501458091,,,99822476000000,4.1244593,Bike
Fix,GPS,37.4238299131,-122.1667089951,-4.960871796587095,4.073439,5.9900813,295.74588,1676501457000,0.41782662,5.7985063,99823565079000,6.381976,Bike
Fix,FLP,37.4238235,-122.1667015,-0.1999998986721038,4.0757246,5.713,294.77734,1676501459181,0.41782662,5.7985063,99823565079000,3.718818,Bike
Fix,GPS,37.4238559382,-122.1667523999,-4.604892120783631,4.1411567,6.1065626,309.1977,1676501458000,0.4891394,6.592398,99824564805000,6.4137745,Bike
Fix,FLP,37.4238447,-122.1667397,-0.1999998986721038,4.1337585,5.804,308.42395,1676501460179,0.4891394,6.592398,99824564805000,4.1987805,Bike
Fix,GPS,37.4238922463,-122.1667910871,-3.641750503333738,4.103621,6.2213545,319.96545,1676501459000,0.43187433,5.852991,99825564822000,6.4276714,Bike
Fix,FLP,37.4238807,-122.1667834,-6.626427895005577,4.103402,5.895,318.86423,1676501461179,0.43187433,5.852991,99825564822000,4.802502,Bike
Fix,GPS,37.4239350351,-122.1668164926,-3.408672411837204,4.199615,6.271332,324.23682,1676501460000,0.43179786,5.702134,99826564837000,6.4551086,Bike
