Fix,Provider,LatitudeDegrees,LongitudeDegrees,AltitudeMeters,SpeedMps,AccuracyMeters,BearingDegrees,UnixTimeMillis,SpeedAccuracyMps,BearingAccuracyDegrees,elapsedRealtimeNanos,VerticalAccuracyMeters,TransitType
Fix,GPS,37.4214505256,-122.1587298992,-21.046286809837184,0.0,6.0402455,,1675788680003,0.69445795,,4143190903006877,20.684221,Bike
Fix,FLP,37.4216937,-122.1589746,-8.600000381469727,2.2935565,33.808,302.70193,1675788680287,,,4143190903006877,1.7519987,Bike
Fix,NLP,37.4215673,-122.1586036,-8.700000762939453,,15.49,,1675788681061,,,4143191676000000,1.0469826,Bike
Fix,FLP,37.4216661,-122.1589157,-8.700000762939453,0.18395825,35.924,359.62262,1675788680827,,,4143191442100366,1.6352607,Bike
Fix,GPS,37.4214568951,-122.1587242916,-16.18692676447982,0.0,8.779755,,1675788681003,0.7443248,,4143191903301799,13.373339,Bike
Fix,FLP,37.4215827,-122.1588234,-8.700000762939453,0.45665112,33.989,179.80092,1675788681369,,,4143191984624658,1.6376607,Bike
Fix,GPS,37.4214594439,-122.1587154107,-12.605413717374752,0.0,20.263903,,1675788682001,0.6277138,,4143192948376100,24.488811,Bike
Fix,FLP,37.4215449,-122.1587727,-8.700000762939453,0.018656565,31.839,,1675788681912,,,4143192527150231,1.6484977,Bike
Fix,GPS,37.4214968153,-122.1586526971,1.400744751114232,0.0,16.08275,,1675788683001,0.36093402,,4143193911325075,16.791954,Bike
Fix,FLP,37.4215254,-122.1587469,-8.700000762939453,0.04039217,29.373,,1675788682996,,,4143193612203698,1.6581755,Bike
Fix,GPS,37.4215094951,-122.1586432412,0.6685547061115428,0.0,11.794509,,1675788684001,0.35828128,,4143194926809410,13.237075,Bike
Fix,FLP,37.4215139,-122.1587309,-8.700000762939453,0.044030424,26.211,,1675788684082,,,4143194697261132,1.6670312,Bike
Fix,GPS,37.4215083583,-122.1586440859,-1.0397489945237588,0.0,9.8965225,,1675788685000,0.41014606,,4143195897287682,11.327892,Bike
Fix,FLP,37.4215059,-122.1587201,-8.700000762939453,0.039352532,23.358,,1675788685166,,,4143195782320641,1.6772637,Bike
Fix,NLP,37.4215914,-122.1585902,-8.90000057220459,,14.051,,1675788686049,,,4143196665000000,1.5779592,Bike
Fix,FLP,37.4215003,-122.1587127,-8.90000057220459,0.031475198,17.778,,1675788685709,,,4143196324851464,1.6124465,Bike
Fix,FLP,37.421506,-122.1586979,-8.90000057220459,0.053745557,11.792,,1675788686252,,,4143196867382714,1.6124465,Bike
Fix,GPS,37.4215039901,-122.1586459041,-1.831605197943111,0.0,9.189207,,1675788686000,0.40569627,,4143196868117000,10.463183,Bike
Fix,FLP,37.421513,-122.1586791,-8.90000057220459,0.03489567,11.581,,1675788687337,,,4143197952446496,1.6154265,Bike
Fix,GPS,37.4215040606,-122.1586459067,-2.068150711362436,0.0,9.080081,,1675788687000,0.5194596,,4143197868257000,10.001181,Bike
Fix,FLP,37.4215169,-122.1586681,-8.90000057220459,0.019584991,11.458,,1675788687879,,,4143198494982812,1.6268451,Bike
Fix,GPS,37.4215024176,-122.1586465703,-1.6816718332889684,0.0,9.113464,,1675788688000,0.6032823,,4143198868142000,9.632019,Bike
Fix,FLP,37.421518,-122.1586648,-8.90000057220459,0.016707184,11.416,,1675788688422,,,4143199037512414,1.635764,Bike
Fix,GPS,37.4215008728,-122.1586489208,-1.782411908362392,0.0,9.272695,,1675788689000,0.65246564,,4143199868358000,9.513586,Bike
Fix,FLP,37.4215189,-122.1586617,-10.769653301729534,0.0041677137,11.288,,1675788688964,,,4143199580046105,1.6409706,Bike
Fix,FLP,37.4215193,-122.1586593,-10.769653301729534,0.008348729,11.099,,1675788690050,,,4143200665114648,1.6409706,Bike
Fix,GPS,37.4215003399,-122.1586519965,-1.7087235487751324,0.0,9.474588,,1675788690000,0.6699032,,4143200868236000,9.413238,Bike
Fix,FLP,37.4215194,-122.1586567,-8.90000057220459,0.00863249,10.988,,1675788690592,,,4143201207648827,1.657375,Bike
Fix,NLP,37.4215862,-122.1585685,-8.5,,14.956,,1675788691203,,,4143201818000000,1.1304905,Bike
Fix,FLP,37.4215193,-122.158656,-8.5,0.007842549,10.889,,1675788691134,,,4143201750181176,1.5773302,Bike
Fix,GPS,37.4215006627,-122.1586542434,-1.2259537652946184,0.0,9.568104,,1675788691000,20.0,,4143201868210000,9.364341,Bike
Fix,GPS,37.42150153,-122.1586540608,-1.1568564625895932,0.0,37.253105,,1675788692000,1.585683,,4143202868265000,9.439925,Bike
Fix,FLP,37.4215227,-122.1586498,-8.5,0.022924546,10.648,,1675788692220,,,4143202835255089,1.6037321,Bike
Fix,GPS,37.4215018856,-122.1586536945,-1.4103057044801293,0.0,10.509663,,1675788693000,20.0,,4143203868292000,9.526039,Bike
Fix,FLP,37.4215254,-122.158645,-8.5,0.032098837,10.51,,1675788693305,,,4143203920319482,1.5290554,Bike
Fix,GPS,37.4215037897,-122.1586545165,-1.4261964870802175,0.0,10.400599,,1675788694000,0.82963943,,4143204868512000,9.620734,Bike
Fix,FLP,37.4215273,-122.1586412,-8.5,0.033197094,10.46,,1675788694390,,,4143205005385217,1.5373362,Bike
Fix,GPS,37.4215052193,-122.1586584741,-1.574297738863159,0.0,10.106965,,1675788695000,20.0,,4143205868293000,9.671152,Bike
Fix,FLP,37.4215287,-122.1586382,-10.895298155595183,0.029942907,10.463,,1675788694932,,,4143205547917138,1.5896007,Bike
Fix,NLP,37.4215893,-122.1585643,-8.5,,15.961,,1675788696287,,,4143206902000000,1.4271681,Bike
Fix,FLP,37.4215291,-122.1586368,-10.895298155595183,0.020305112,10.46,,1675788696017,,,4143206632979699,1.539846,Bike
Fix,GPS,37.4215078485,-122.1586603807,-1.6854823615880128,0.0,10.186817,,1675788696000,0.7539035,,4143206868283000,9.742038,Bike
Fix,GPS,37.4215083588,-122.1586621845,-1.830791659162576,0.0,10.28076,,1675788697000,0.79025793,,4143207868264000,9.729939,Bike
Fix,FLP,37.4215333,-122.1586313,-10.696275843287154,0.040544588,10.501,,1675788697103,,,4143207718039635,1.5488398,Bike
Fix,GPS,37.4215118354,-122.1586657912,-1.6449851493872127,0.0,10.297913,,1675788698000,0.66067225,,4143208868327000,9.774651,Bike
Fix,FLP,37.4215365,-122.1586272,-8.5,0.08074587,10.656,,1675788698187,,,4143208803099206,1.5894469,Bike
Fix,GPS,37.4215122296,-122.1586676177,-0.8744149136736562,0.0,10.017725,,1675788699000,0.6471757,,4143209868370000,9.186837,Bike
Fix,FLP,37.4215385,-122.1586253,-8.5,0.043201573,10.646,,1675788699273,,,4143209888156335,1.5702965,Bike
Fix,GPS,37.4215109823,-122.1586666358,-1.0668314051166632,0.0,9.929481,,1675788700000,0.6185779,,4143210868347000,8.882003,Bike
Fix,FLP,37.42154,-122.1586244,-8.5,0.026299745,10.662,,1675788700358,,,4143210973211511,1.5717529,Bike
Fix,NLP,37.421589,-122.1585714,-8.5,,15.673,,1675788701256,,,4143211872000000,1.8976353,Bike
Fix,FLP,37.4215407,-122.1586247,-8.5,0.012195376,10.612,,1675788700900,,,4143211515748803,1.5501351,Bike
Fix,GPS,37.4215005945,-122.1586721939,-1.025377277686096,0.0,9.677965,,1675788701000,0.5794042,,4143211868326000,8.626701,Bike
Fix,GPS,37.4215005714,-122.1586703056,-1.0440842508757855,0.0,9.519647,,1675788702000,0.6118636,,4143212868403000,8.463183,Bike
Fix,FLP,37.421544,-122.1586229,-10.489207251780911,0.010591349,10.42,,1675788701985,,,4143212600790368,1.5684453,Bike
Fix,GPS,37.4215068038,-122.1586661672,-0.7866055438203307,0.0,9.409744,,1675788703000,0.6481203,,4143213868405000,8.384687,Bike
Fix,FLP,37.4215458,-122.158622,-11.929472457166142,0.007925195,10.228,,1675788703070,,,4143213685840722,1.5369128,Bike
Fix,GPS,37.421514436,-122.1586622913,-0.8897363360406858,0.0,9.576143,,1675788704000,20.0,,4143214868441000,8.390524,Bike
Fix,FLP,37.4215468,-122.1586222,-10.963597626026129,0.0038149483,10.04,,1675788704155,,,4143214770889061,1.6034383,Bike
Fix,FLP,37.4215475,-122.1586227,-10.963597626026129,0.001544074,9.94,,1675788704694,,,4143215309000000,1.6034383,Bike
Fix,GPS,37.4215225918,-122.1586608346,-0.8659910275156748,0.0,9.65081,,1675788705000,0.60712856,,4143215868464000,8.389862,Bike
Fix,FLP,37.4215481,-122.1586232,-8.5,0.0016178858,9.765,,1675788705240,,,4143215855938378,1.5510845,Bike
Fix,NLP,37.4215758,-122.158591,-8.90000057220459,,12.71,,1675788706273,,,4143216889000000,1.9009802,Bike
Fix,FLP,37.4215486,-122.1586242,-8.90000057220459,0.004091598,9.521,,1675788706325,,,4143216940978966,1.5469843,Bike
Fix,GPS,37.421525993,-122.1586614775,-0.1700296951835229,0.0,9.740108,,1675788706000,0.63606024,,4143216868455000,8.343898,Bike
Fix,GPS,37.4215277108,-122.1586604575,0.504740747808346,0.0,9.824595,,1675788707000,0.680557,,4143217868534000,8.298848,Bike
Fix,FLP,37.4215516,-122.1586241,-8.90000057220459,0.0033750895,9.323,,1675788707410,,,4143218026021081,1.5666969,Bike
Fix,GPS,37.4215281591,-122.1586609133,1.476382912553705,0.0,9.943379,,1675788708000,0.7630424,,4143218868490000,8.185891,Bike
Fix,FLP,37.4215534,-122.1586239,-10.657027390464378,0.005138809,9.14,,1675788707953,,,4143218568541283,1.5488166,Bike
Fix,GPS,37.4215266667,-122.1586603271,1.2440620823339767,0.0,9.928778,,1675788709000,0.59516543,,4143219868515000,7.929495,Bike
Fix,FLP,37.4215547,-122.1586242,-8.90000057220459,0.0051514213,8.99,,1675788709038,,,4143219653580407,1.6344633,Bike
Fix,GPS,37.4215255348,-122.1586651046,1.4471312570762562,0.0,9.963266,,1675788710000,0.66254467,,4143220868585000,7.748248,Bike
Fix,FLP,37.4215475,-122.1586348,-8.90000057220459,0.07251856,9.003,,1675788710253,0.66254467,,4143220868585000,1.5904927,Bike
Fix,NLP,37.4215715,-122.1585712,-7.099999904632568,,15.098,,1675788711325,,,4143221941000000,1.8972491,Bike
Fix,FLP,37.4215469,-122.158636,-8.90000057220459,0.0776339,18.576,,1675788711325,0.66254467,,4143221941000000,1.5602174,Bike
Fix,GPS,37.4215255688,-122.1586669259,1.960707139019001,0.0,10.022774,,1675788711000,0.5751645,,4143221868823000,7.6248918,Bike
Fix,GPS,37.4215231555,-122.1586713954,2.423274729405175,0.0,9.925035,,1675788712000,0.5702506,,4143222868544000,7.4872184,Bike
Fix,FLP,37.4215354,-122.1586537,-8.90000057220459,0.34751332,17.96,234.14682,1675788712253,0.5702506,,4143222868544000,1.5536083,Bike
Fix,GPS,37.4215236609,-122.1586726785,2.6523677021884504,0.0,9.855188,,1675788713000,0.5638821,,4143223868552000,7.438309,Bike
Fix,FLP,37.4215298,-122.1586632,-8.90000057220459,0.48168913,18.216,233.82527,1675788713252,0.5638821,,4143223868552000,1.565881,Bike
Fix,GPS,37.4215252966,-122.1586752342,2.9981741814924816,0.0,9.715652,,1675788714000,0.5294329,,4143224868888000,7.302507,Bike
Fix,FLP,37.4215264,-122.1586708,-8.90000057220459,0.54194623,18.434,236.0068,1675788714253,0.5294329,,4143224868888000,1.5849684,Bike
Fix,GPS,37.4215291439,-122.1586780655,3.443675125892289,0.0,9.670958,,1675788715000,0.5177901,,4143225868609000,7.189377,Bike
Fix,FLP,37.4215261,-122.1586769,-8.90000057220459,0.5285199,18.385,242.3504,1675788715253,0.5177901,,4143225868609000,1.6306123,Bike
Fix,NLP,37.4215893,-122.1585743,-8.90000057220459,,13.083,,1675788716309,,,4143226924000000,2.835765,Bike
Fix,FLP,37.4215239,-122.1586824,-8.90000057220459,0.52526766,25.652,242.55006,1675788716309,0.5177901,,4143226924000000,1.8450738,Bike
Fix,GPS,37.4215278044,-122.1586799506,3.702155997325411,0.0,9.728507,,1675788716000,0.5663336,,4143226868932000,7.1743073,Bike
Fix,GPS,37.4215261511,-122.1586847189,4.103431697228354,0.0,9.650461,,1675788717000,20.0,,4143227868633000,7.1625595,Bike
Fix,FLP,37.4215247,-122.1586857,-8.90000057220459,0.465852,17.988,247.96631,1675788717253,20.0,,4143227868633000,1.8300852,Bike
Fix,GPS,37.4215249471,-122.1586882096,4.361169102604761,0.0,9.493914,,1675788718000,0.5182027,,4143228868632000,6.673029,Bike
Fix,FLP,37.421524,-122.1586894,-8.90000057220459,0.43794385,17.927,249.3357,1675788718253,0.5182027,,4143228868632000,1.7636831,Bike
Fix,GPS,37.4215249656,-122.158687979,4.453323625798907,0.0,9.594696,,1675788719000,0.55696654,,4143229868664000,6.6227837,Bike
Fix,FLP,37.4215241,-122.1586904,-8.90000057220459,0.35866556,15.832,250.62497,1675788719253,0.55696654,,4143229868664000,1.7660998,Bike
Fix,GPS,37.4215240419,-122.1586874725,4.495539893429499,0.0,9.673523,,1675788720000,0.5661963,,4143230868688000,6.542152,Bike
Fix,FLP,37.421524,-122.1586904,-11.019884723503909,0.2689412,15.125,250.01294,1675788720253,0.5661963,,4143230868688000,1.7403816,Bike
Fix,FLP,37.4215366,-122.158672,-11.019884723503909,0.1159837,14.475,39.090866,1675788720952,,,4143231567000000,1.7403816,Bike
Fix,GPS,37.4215234182,-122.1586873053,4.493419988673738,0.0,9.754191,,1675788721000,0.6218876,,4143231869009000,6.4616394,Bike
Fix,NLP,37.4215861,-122.1585883,-8.5,,15.254,,1675788721333,,,4143231948000000,1.6565143,Bike
Fix,FLP,37.421557,-122.1586439,-11.78173392477862,0.11701245,9.137,48.048454,1675788721515,,,4143232131405663,1.6916543,Bike
Fix,FLP,37.4215611,-122.1586389,-11.78173392477862,0.15480544,9.017,47.393436,1675788722057,,,4143232673918908,1.6916543,Bike
Fix,GPS,37.4215229811,-122.1586881431,4.704758977588738,0.0,9.772227,,1675788722000,0.5729592,,4143232868727000,6.404862,Bike
Fix,GPS,37.4215228849,-122.1586881202,4.692269112016707,0.0,9.910225,,1675788723000,0.64599353,,4143233868763000,6.3495936,Bike
Fix,FLP,37.4215663,-122.1586316,-8.5,0.090648584,8.863,,1675788723143,,,4143233758938439,1.6742743,Bike
Fix,GPS,37.4215227733,-122.1586882113,4.80688236786805,0.0,9.764851,,1675788724000,0.58143383,,4143234869059000,6.267967,Bike
Fix,FLP,37.4215676,-122.1586275,-8.5,0.0618517,8.695,,1675788724227,,,4143234843956750,1.6628637,Bike
Fix,GPS,37.4215225762,-122.1586882053,4.917442882203556,0.0,9.699511,,1675788725000,0.6293583,,4143235868867000,6.176078,Bike
Fix,FLP,37.4215679,-122.1586247,-7.099999904632568,0.043047253,8.475,,1675788725313,,,4143235928974877,1.7216448,Bike
Fix,FLP,37.4215678,-122.1586238,-7.099999904632568,0.024446392,8.311,,1675788725856,,,4143236471480431,1.7216448,Bike
Fix,GPS,37.4215228447,-122.1586883062,4.932452350396448,0.0,9.575147,,1675788726000,0.63853085,,4143236868929000,6.0939565,Bike
Fix,FLP,37.4215675,-122.1586232,-7.099999904632568,0.013145748,8.293,,1675788726398,,,4143237013991357,1.7316447,Bike
Fix,NLP,37.421589,-122.1585873,-8.5,,14.298,,1675788726384,,,4143236999000000,1.2164052,Bike
Fix,GPS,37.4215230145,-122.1586883765,4.844006741969191,0.0,9.3740835,,1675788727000,0.56855905,,4143237868848000,6.018329,Bike
Fix,FLP,37.4215669,-122.1586231,-8.5,0.0017476943,8.158,,1675788726941,,,4143237556498132,1.6062335,Bike
Fix,GPS,37.421523269,-122.1586886547,4.603478369990461,0.0,9.224096,,1675788728000,0.57727265,,4143238868769000,5.9223533,Bike
Fix,FLP,37.421566,-122.1586238,-8.5,0.004927394,8.123,,1675788728025,,,4143238641515038,1.6190385,Bike
Fix,GPS,37.4215233682,-122.1586886028,4.549633129824532,0.0,9.2658615,,1675788729000,0.6365174,,4143239869125000,5.8702703,Bike
Fix,FLP,37.4215648,-122.1586249,-8.90000057220459,0.009047525,8.103,,1675788729110,,,4143239726529748,1.6491195,Bike
Fix,FLP,37.4215635,-122.1586263,-8.90000057220459,0.012379066,8.101,,1675788729654,,,4143240269036523,1.6491195,Bike
Fix,GPS,37.4215234516,-122.1586888903,4.169852211107022,0.0,9.110057,,1675788730000,0.621351,,4143240868817000,5.744934,Bike
Fix,FLP,37.4215625,-122.1586271,-8.5,0.012582665,8.109,,1675788730196,,,4143240811540490,1.6744074,Bike
Fix,FLP,37.4215611,-122.1586284,-8.5,0.00499014,8.131,,1675788730738,,,4143241354050561,1.6744074,Bike
Fix,GPS,37.4215232638,-122.1586892146,4.019396317391244,0.0,9.026766,,1675788731000,0.60683805,,4143241869021000,5.7153745,Bike
Fix,NLP,37.4215566,-122.1586319,-8.100000381469727,,14.793,,1675788731409,,,4143242024000000,1.1548501,Bike
Fix,FLP,37.4215605,-122.1586288,-8.5,0.0027525048,8.171,,1675788731281,,,4143241896556847,1.6844174,Bike
Fix,FLP,37.4215593,-122.1586298,-8.100000381469727,0.0037924245,8.195,,1675788731824,,,4143242439063134,1.4203818,Bike
Fix,GPS,37.4215232449,-122.1586900829,3.9948573155635447,0.0,8.99104,,1675788732000,0.58151734,,4143242868850000,5.704538,Bike
Fix,FLP,37.4215589,-122.15863,-8.100000381469727,0.0051548705,8.189,,1675788732366,,,4143242981569237,1.4305315,Bike
Fix,GPS,37.4215237258,-122.1586906583,3.8568338260549537,0.0,9.015884,,1675788733000,0.61302495,,4143243868845000,5.6570444,Bike
Fix,FLP,37.4215582,-122.1586305,-8.100000381469727,0.0053926483,8.188,,1675788732909,,,4143243524074974,1.549802,Bike
Fix,GPS,37.4215241379,-122.1586909046,3.7430136436268246,0.0,9.107963,,1675788734000,0.5647294,,4143244868876000,5.6600647,Bike
Fix,FLP,37.421557,-122.1586311,-8.100000381469727,0.0057216603,8.182,,1675788733993,,,4143244609086632,1.4122857,Bike
Fix,FLP,37.4215559,-122.1586319,-8.100000381469727,0.0066263145,8.186,,1675788734536,,,4143245151589379,1.4122857,Bike
Fix,GPS,37.4215248503,-122.158691601,3.55732035922426,0.0,9.191828,,1675788735000,0.56868607,,4143245869128000,5.6689506,Bike
Fix,FLP,37.4215552,-122.1586323,-8.100000381469727,0.005453667,8.183,,1675788735079,,,4143245694097375,1.5708327,Bike
Fix,FLP,37.4215545,-122.158633,-8.100000381469727,0.0053045694,8.178,,1675788735621,,,4143246236602502,1.5708327,Bike
Fix,FLP,37.4215538,-122.1586335,-8.100000381469727,0.005292514,8.174,,1675788736163,,,4143246779107323,1.5708327,Bike
Fix,GPS,37.4215262419,-122.1586923179,3.498944917677481,0.0,9.267651,,1675788736000,0.54426235,,4143246868947000,5.6129327,Bike
Fix,NLP,37.4215811,-122.1586004,-8.100000381469727,,13.679,,1675788736430,,,4143247045000000,1.2902787,Bike
Fix,FLP,37.4215536,-122.1586328,-5.317907320846516,0.0014431846,8.094,,1675788737254,,,4143247869000000,1.5089229,Bike
Fix,GPS,37.4215266229,-122.1586924924,3.4354535845036582,0.0,9.080032,,1675788737000,0.51354086,,4143247869072000,5.5508995,Bike
Fix,FLP,37.4215542,-122.1586316,-8.100000381469727,0.0023425722,7.983,,1675788737790,,,4143248406620690,1.5142393,Bike
Fix,GPS,37.4215265868,-122.1586925305,3.3676974839820284,0.0,9.087157,,1675788738000,0.5530433,,4143248868926000,5.4947915,Bike
Fix,FLP,37.4215541,-122.1586316,-8.5,0.001215754,7.947,,1675788738334,,,4143248949125878,1.3966357,Bike
Fix,GPS,37.4215267631,-122.1586928696,3.3037572233004395,0.0,9.237723,,1675788739000,0.6095839,,4143249868996000,5.461744,Bike
Fix,FLP,37.4215537,-122.1586323,-10.882181696909171,0.001965453,7.91,,1675788739419,,,4143250034133935,1.5127771,Bike
Fix,GPS,37.4215262556,-122.1586933404,3.115264911056718,0.0,9.45315,,1675788740000,0.76611775,,4143250868977000,5.417609,Bike
Fix,FLP,37.4215528,-122.1586334,-11.32141636388127,0.004260923,7.87,,1675788739960,,,4143250576638145,1.5512611,Bike
Fix,FLP,37.4215522,-122.1586343,-11.32141636388127,0.003396064,7.736,,1675788741045,,,4143251661645959,1.5512611,Bike
Fix,GPS,37.4215273188,-122.1586941554,2.93569886322127,0.0,9.6482525,,1675788741000,0.6996699,,4143251869016000,5.434827,Bike
Fix,NLP,37.4215781,-122.1586098,-8.100000381469727,,15.148,,1675788741443,,,4143252058000000,1.0074735,Bike
Fix,GPS,37.4215303214,-122.1586956879,2.847854732087425,0.0,9.848761,,1675788742000,20.0,,4143252869005000,5.445735,Bike
Fix,FLP,37.4215526,-122.1586343,-3.502193357972402,0.002297326,7.729,,1675788742131,,,4143252746652000,1.4396607,Bike
Fix,FLP,37.4215532,-122.1586339,-3.502193357972402,0.0037501163,7.74,,1675788742674,,,4143253289155724,1.4396607,Bike
Fix,GPS,37.4215417124,-122.1587152499,2.6449625664495384,0.0,9.803431,,1675788743000,20.0,,4143253868980000,5.4602423,Bike
Fix,FLP,37.4215535,-122.1586335,-4.706326497986055,0.0035327931,7.77,,1675788743216,,,4143253831658837,1.4893943,Bike
Fix,GPS,37.4215528788,-122.1587293443,2.5129229053618847,1.9693851,9.852941,324.53223,1675788744000,0.4576235,11.954484,4143254869145000,5.5151114,Bike
Fix,FLP,37.4215538,-122.1586332,-5.541171928424873,0.0018389127,7.86,,1675788744301,,,4143254916664941,1.481642,Bike
Fix,FLP,37.421553,-122.1586325,-5.541171928424873,0.44263625,7.924,142.92792,1675788744844,,,4143255459167686,1.481642,Bike
Fix,GPS,37.4215760143,-122.1587314315,2.2319184097123497,1.5435914,9.416198,336.7901,1675788745000,0.39379087,12.425969,4143255869213000,5.5666423,Bike
Fix,FLP,37.421551,-122.1586317,16.4020957798227,0.821042,8.018,155.8281,1675788745386,,,4143256001670556,1.495555,Bike
Fix,FLP,37.4215515,-122.1586392,16.4020957798227,0.09743739,8.756,,1675788745929,,,4143256544172996,1.495555,Bike
Fix,GPS,37.4215917003,-122.1587379077,1.5457618146963144,1.5636964,9.113625,343.4236,1675788746000,0.4905177,13.310425,4143256869045000,5.6038175,Bike
Fix,NLP,37.421642,-122.158671,-8.90000057220459,,21.05,,1675788746455,,,4143257070000000,1.0,Bike
Fix,FLP,37.421561,-122.1586575,-8.90000057220459,0.84087014,10.268,336.24643,1675788746438,,,4143257053082786,1.403357,Bike
Fix,FLP,37.4215744,-122.1586734,-8.90000057220459,0.90755117,10.653,334.23737,1675788747014,,,4143257629178307,1.403357,Bike
Fix,GPS,37.4216113332,-122.1587590542,1.5362512552302,2.889783,8.687025,328.42325,1675788747000,0.49035904,10.0,4143257869068000,5.630866,Bike
Fix,FLP,37.421595,-122.1587017,-5.541171928424873,1.7043751,11.672,322.79297,1675788748099,,,4143258714182763,1.4444304,Bike
Fix,GPS,37.4216426826,-122.1587903674,0.6522869326820069,4.0014796,7.6336403,314.86658,1675788748000,0.35011616,10.0,4143258869062000,5.5598474,Bike
Fix,FLP,37.4216209,-122.1587457,10.661268846648213,2.6636233,12.715,309.9078,1675788749184,,,4143259799187157,1.4749036,Bike
Fix,GPS,37.4216777437,-122.1588262674,0.2994767722800729,4.7501264,6.7449007,311.373,1675788749000,0.3771831,10.0,4143259869329000,5.456642,Bike
Fix,FLP,37.42165,-122.158794,2.394197245082026,3.4231856,13.41,306.58817,1675788749726,,,4143260341689354,1.4586611,Bike
Fix,GPS,37.4217151461,-122.1588728768,-0.2853842143611741,4.7028604,6.38128,311.39206,1675788750000,0.39344662,10.0,4143260869088000,5.4700575,Bike
Fix,FLP,37.4216572,-122.1588042,17.894971168399408,3.7036316,13.261,306.01913,1675788750269,,,4143260884191308,1.4688432,Bike
Fix,FLP,37.4216829,-122.1588402,17.894971168399408,4.0077796,13.481,307.6212,1675788750811,,,4143261426693261,1.4688432,Bike
Fix,GPS,37.4217524171,-122.1589188459,-0.0979049327407172,5.069416,6.179326,312.41257,1675788751000,0.38138035,10.0,4143261869413000,5.4611745,Bike
Fix,FLP,37.4216952,-122.1588556,18.661022797589283,4.19668,12.665,308.59537,1675788751354,,,4143261969195213,1.4559331,Bike
Fix,GPS,37.4217877308,-122.1589658214,-0.028327193988657,5.3014283,6.057668,308.15222,1675788752000,0.36227956,10.0,4143262869254000,5.4969177,Bike
Fix,FLP,37.421754,-122.1589304,-2.236511823618585,5.209924,11.813,308.50272,1675788752254,0.36227956,10.0,4143262869254000,1.4659331,Bike
Fix,GPS,37.4218202284,-122.1590187322,-0.2540027878992951,5.0833807,5.9400177,305.85095,1675788753000,0.3736676,10.0,4143263869220000,5.544496,Bike
Fix,FLP,37.4217987,-122.1589949,6.705119424606991,5.1599917,10.912,306.2853,1675788753253,0.3736676,10.0,4143263869220000,1.5014434,Bike
Fix,GPS,37.4218459679,-122.1590667454,-0.8719182739037421,4.8043785,5.8747826,308.0877,1675788754000,0.3412701,10.0,4143264869272000,5.5715446,Bike
Fix,FLP,37.4218318,-122.159051,15.112755361383378,5.179342,10.25,306.54037,1675788754253,,,4143264869272000,1.5154866,Bike
Fix,FLP,37.4218423,-122.1590924,15.112755361383378,3.688073,9.162,267.8653,1675788754799,,,4143265414082909,1.5154866,Bike
Fix,GPS,37.4218792932,-122.1591235172,0.1970231301125457,5.1335707,5.685528,311.16577,1675788755000,0.35356966,10.0,4143265869160000,5.5436964,Bike
Fix,FLP,37.4218375,-122.1590911,8.158700861413408,3.642686,8.971,245.3015,1675788755341,,,4143265956586143,1.5276167,Bike
Fix,FLP,37.4218359,-122.1591312,8.158700861413408,3.3675416,8.753,243.85434,1675788756403,,,4143267018000000,1.5276167,Bike
Fix,GPS,37.4219114625,-122.159173941,0.4611674614057268,5.2734585,5.5717626,307.30807,1675788756000,0.31687906,10.0,4143266869334000,5.463701,Bike
Fix,GPS,37.421942198,-122.1592280675,0.8844887196537676,5.364852,5.43141,308.1493,1675788757000,0.37204176,10.0,4143267869220000,5.359792,Bike
Fix,FLP,37.4219148,-122.1592118,14.681235956405729,5.021662,7.85,303.56732,1675788757253,0.37204176,10.0,4143267869220000,1.5476167,Bike
Fix,GPS,37.4219698605,-122.1592757001,0.677798330787661,5.1300216,5.4856763,311.9244,1675788758000,0.39411688,10.0,4143268869207000,5.313149,Bike
Fix,FLP,37.4219536,-122.1592658,14.681235956405729,5.1006765,7.793,308.93958,1675788758254,0.39411688,10.0,4143268869207000,1.5576167,Bike
Fix,GPS,37.4220026463,-122.159321521,1.1435213166646296,5.0113964,5.0686646,317.18735,1675788759000,0.07811307,10.0,4143269869226000,4.9683657,Bike
Fix,FLP,37.4219958,-122.1593178,6.355612169851412,5.01349,7.706,316.85446,1675788759254,0.07811307,10.0,4143269869226000,1.5465556,Bike
Fix,GPS,37.422036233,-122.1593604447,1.0290446878072577,4.9904904,4.9484215,321.92337,1675788760000,0.3337721,10.0,4143270869288000,4.819626,Bike
Fix,FLP,37.4220338,-122.1593592,0.0558803703186754,4.9919333,6.719,320.9136,1675788760254,0.3337721,10.0,4143270869288000,1.5581844,Bike
Fix,GPS,37.4220726577,-122.159397245,0.8558746398710368,5.211144,5.2893744,318.09943,1675788761000,0.37566325,10.0,4143271869658000,4.763906,Bike
Fix,FLP,37.4220713,-122.1593964,6.355612169851412,5.2058754,6.14,318.06668,1675788761254,0.37566325,10.0,4143271869658000,1.5682044,Bike
Fix,GPS,37.4221086701,-122.1594395668,0.9168754226252755,5.2425003,4.8822923,313.43854,1675788762000,0.30815515,10.0,4143272869330000,4.703446,Bike
Fix,FLP,37.4221079,-122.1594385,-6.085299112345069,5.2419677,5.134,313.10742,1675788762253,0.30815515,10.0,4143272869330000,1.6151465,Bike
Fix,GPS,37.422140516,-122.1594829866,0.8180425704811572,5.1578054,4.887837,316.41858,1675788763000,0.33262837,10.0,4143273869341000,4.664206,Bike
Fix,FLP,37.4221404,-122.1594826,9.801740475011158,5.1596313,5.015,315.93698,1675788763254,0.33262837,10.0,4143273869341000,1.6251465,Bike
Fix,GPS,37.422176533,-122.1595248794,0.3997010527775892,5.1485524,5.202861,317.7657,1675788764000,0.31414104,10.0,4143274869365000,4.7065783,Bike
Fix,FLP,37.4221756,-122.1595243,18.104254221021748,5.1489534,5.042,316.97778,1675788764254,0.31414104,10.0,4143274869365000,1.6130351,Bike
Fix,GPS,37.422210558,-122.1595638931,0.2081433621954506,5.1844287,5.500891,317.36926,1675788765000,0.43163398,10.0,4143275869680000,4.7810526,Bike
Fix,FLP,37.4222102,-122.159564,4.552907994553323,5.1836314,5.152,317.00015,1675788765254,0.43163398,10.0,4143275869680000,1.6230451,Bike
Fix,GPS,37.4222469725,-122.1596076584,0.2387713431352986,5.721309,5.668332,316.26883,1675788766000,0.38822457,10.0,4143276869385000,4.8265142,Bike
Fix,FLP,37.422246,-122.1596064,2.898585429164015,5.7072663,5.238,316.02713,1675788766253,0.38822457,10.0,4143276869385000,1.6330351,Bike
Fix,GPS,37.4222869573,-122.1596549979,0.1281478637461456,5.7472687,6.0466075,318.76196,1675788767000,0.42267197,10.0,4143277869392000,4.900186,Bike
Fix,FLP,37.4222855,-122.1596536,12.538080459372653,5.746678,5.461,317.94754,1675788767254,0.42267197,10.0,4143277869392000,1.6430352,Bike
Fix,GPS,37.4223301479,-122.1597044922,0.1193484310110755,5.840667,6.1668854,320.69763,1675788768000,0.5274519,10.0,4143278869427000,4.994359,Bike
Fix,FLP,37.4223277,-122.1597016,10.552668677775486,5.8387575,5.717,319.9405,1675788768253,0.5274519,10.0,4143278869427000,1.6530452,Bike
Fix,GPS,37.4223723208,-122.1597474313,-0.0412968605355306,5.7324767,6.36065,318.1699,1675788769000,0.5500997,10.0,4143279869522000,5.0717993,Bike
Fix,FLP,37.4223705,-122.1597461,10.663284256199248,5.7354293,5.948,318.05722,1675788769254,0.5500997,10.0,4143279869522000,1.65381,Bike
Fix,GPS,37.422414514,-122.1597931475,-0.0002807523980507,5.8636894,6.5250006,318.66083,1675788770000,0.6035471,10.0,4143280869449000,5.1710343,Bike
Fix,FLP,37.4224122,-122.1597917,10.663284256199248,5.859899,6.044,318.0042,1675788770254,0.6035471,10.0,4143280869449000,1.66381,Bike
Fix,GPS,37.4224527859,-122.1598383428,-0.7677175612922347,6.2574487,6.710368,318.6335,1675788771000,0.43940556,10.0,4143281869641000,5.257351,Bike
Fix,FLP,37.4224523,-122.1598374,13.082122037694788,6.245229,6.362,318.00793,1675788771254,0.43940556,10.0,4143281869641000,1.67383,Bike
Fix,GPS,37.4224981786,-122.159888686,-0.4350639368626758,6.191325,6.790222,319.56427,1675788772000,0.40212527,10.0,4143282869563000,5.3197627,Bike
Fix,FLP,37.4224964,-122.159887,13.082122037694788,6.1934557,6.51,318.96786,1675788772254,0.40212527,10.0,4143282869563000,1.68381,Bike
Fix,GPS,37.4225447517,-122.1599369414,0.0021617815556596,6.1223936,6.830394,321.33176,1675788773000,0.37823012,10.0,4143283869399000,5.389098,Bike
Fix,FLP,37.4225421,-122.1599353,9.249592503311362,6.125519,6.563,320.9356,1675788773254,0.37823012,10.0,4143283869399000,1.7163804,Bike
Fix,GPS,37.4225895693,-122.1599834552,0.0144450964842664,5.854401,6.884431,318.696,1675788774000,0.43815482,10.0,4143284869610000,5.4580383,Bike
Fix,FLP,37.4225876,-122.1599816,18.34145073865541,5.861386,6.747,318.08154,1675788774254,0.43815482,10.0,4143284869610000,1.7263703,Bike
Fix,GPS,37.4226295108,-122.160030978,-0.3907704637775927,6.1557865,6.969751,315.06625,1675788775000,0.4203088,10.0,4143285869431000,5.4893637,Bike
Fix,FLP,37.4226283,-122.1600289,11.520884623582615,6.146867,6.784,315.088,1675788775254,0.4203088,10.0,4143285869431000,1.7430367,Bike
Fix,GPS,37.4226653173,-122.1600791364,-0.0707818247531058,5.879587,7.1914434,313.47748,1675788776000,0.3626624,10.0,4143286869463000,5.5949974,Bike
Fix,FLP,37.4226662,-122.1600786,11.520884623582615,5.8869205,6.895,313.06165,1675788776254,0.3626624,10.0,4143286869463000,1.7530367,Bike
Fix,GPS,37.4226992437,-122.1601292517,0.0114016007474884,5.82071,7.0469847,314.03445,1675788777000,0.3588924,10.0,4143287869546000,5.650915,Bike
Fix,FLP,37.4227006,-122.1601285,-3.194393436763164,5.822328,6.952,313.97415,1675788777253,0.3588924,10.0,4143287869546000,1.7630467,Bike
Fix,GPS,37.4227400629,-122.1601785172,-0.109884318210303,5.619426,6.9594593,318.93597,1675788778000,0.42179385,10.0,4143288869658000,5.666854,Bike
Fix,FLP,37.4227388,-122.1601774,0.2721743179613582,5.6251683,7.01,317.8876,1675788778254,0.42179385,10.0,4143288869658000,1.7730167,Bike
Fix,GPS,37.4227731629,-122.160217776,-0.3188395680459339,5.799787,6.7293863,317.70972,1675788779000,0.42068228,3.9711099,4143289869679000,5.6831317,Bike
Fix,FLP,37.4227745,-122.1602188,-13.400769164284284,5.798375,6.979,317.00665,1675788779253,0.42068228,3.9711099,4143289869679000,1.7724178,Bike
Fix,GPS,37.4228123489,-122.1602622112,-0.0950370525196932,5.970872,6.6648316,319.35315,1675788780000,0.51078254,4.5976987,4143290869681000,5.67208,Bike
Fix,FLP,37.4228125,-122.1602628,6.97506575401853,5.9688096,6.918,318.9775,1675788780254,0.51078254,4.5976987,4143290869681000,1.7824178,Bike
Fix,GPS,37.4228535719,-122.1603045557,-0.3256218679616769,5.96989,6.6047726,320.65704,1675788781000,0.55888754,5.008455,4143291869608000,5.699407,Bike
Fix,FLP,37.4228533,-122.1603056,4.074601310635302,5.9698396,6.801,319.98615,1675788781254,0.55888754,5.008455,4143291869608000,1.7714843,Bike
Fix,GPS,37.422892413,-122.160347085,-0.3488683540495073,5.998787,6.9109373,322.60983,1675788782000,0.59144175,5.1357756,4143292869826000,5.788092,Bike
Fix,FLP,37.4228933,-122.160348,14.19227446786836,5.998203,6.773,321.97015,1675788782253,0.59144175,5.1357756,4143292869826000,1.7664616,Bike
Fix,GPS,37.4229329631,-122.1603904974,-0.6410977006538849,6.107505,6.8605385,321.85153,1675788783000,0.6635598,5.7296977,4143293869635000,5.8854914,Bike
Fix,FLP,37.4229342,-122.1603902,3.636596824069642,6.105419,6.788,321.01736,1675788783254,0.6635598,5.7296977,4143293869635000,1.7764716,Bike
Fix,GPS,37.4229739389,-122.1604369995,-1.3086489024745531,5.8345447,6.846624,320.1408,1675788784000,0.55171764,5.220789,4143294869858000,5.923603,Bike
Fix,FLP,37.4229752,-122.1604356,2.9680544232332835,5.838235,6.777,320.01425,1675788784254,0.55171764,5.220789,4143294869858000,1.7864816,Bike
Fix,GPS,37.4230156667,-122.1604883035,-1.5015932429327807,5.9135528,6.657076,323.07806,1675788785000,0.49136236,4.5466294,4143295869955000,5.881881,Bike
Fix,FLP,37.4230156,-122.1604841,-12.435049800863538,5.912647,6.776,322.96765,1675788785254,0.49136236,4.5466294,4143295869955000,1.7954617,Bike
Fix,GPS,37.4230567903,-122.1605325221,-1.338244799997656,5.9118485,6.6233597,325.49323,1675788786000,0.48259303,4.435319,4143296869651000,5.8584056,Bike
Fix,FLP,37.4230573,-122.1605292,-8.90000057220459,5.911796,6.779,324.97864,1675788786254,0.48259303,4.435319,4143296869651000,1.8054917,Bike
Fix,GPS,37.4230975405,-122.1605722823,-1.8509570302011509,5.821093,6.393984,323.94687,1675788787000,0.4636945,4.31258,4143297869904000,5.8468313,Bike
Fix,FLP,37.4230988,-122.1605704,-12.435049800863538,5.8219585,6.676,323.01904,1675788787253,0.4636945,4.31258,4143297869904000,1.8421264,Bike
Fix,GPS,37.4231370642,-122.1606077121,-2.451164139569274,5.742037,6.13167,325.16492,1675788788000,0.44653648,4.232073,4143298869615000,5.7712765,Bike
Fix,FLP,37.4231385,-122.1606086,-8.90000057220459,5.742677,6.585,324.9822,1675788788254,0.44653648,4.232073,4143298869615000,1.8521801,Bike
Fix,GPS,37.4231779147,-122.1606452488,-2.9835099943695784,5.3402042,5.9893913,324.44946,1675788789000,0.45154712,4.565605,4143299869667000,5.721822,Bike
Fix,FLP,37.423179,-122.1606455,-8.90000057220459,5.3438783,6.44,324.01016,1675788789254,0.45154712,4.565605,4143299869667000,1.8621901,Bike
Fix,GPS,37.4232171628,-122.1606880041,-2.779082806594177,4.456906,5.903712,317.32095,1675788790000,0.39563215,4.8812475,4143300869684000,5.73272,Bike
Fix,FLP,37.4232174,-122.1606854,-8.90000057220459,4.4629593,6.283,317.05954,1675788790254,0.39563215,4.8812475,4143300869684000,1.87027,Bike
Fix,GPS,37.423239493,-122.1607272284,-2.4772141189077788,3.4928331,6.053381,298.62564,1675788791000,0.45884413,7.8426065,4143301869899000,5.782054,Bike
Fix,FLP,37.4232414,-122.160723,-8.90000057220459,3.502529,6.062,298.31512,1675788791254,0.45884413,7.8426065,4143301869899000,1.88028,Bike
Fix,GPS,37.4232421302,-122.1607677758,-2.5111023697294512,3.143798,6.0886154,284.4893,1675788792000,0.4997787,10.511453,4143302869720000,5.793585,Bike
Fix,FLP,37.4232465,-122.1607581,-8.90000057220459,3.1527224,6.064,284.558,1675788792254,0.4997787,10.511453,4143302869720000,1.89027,Bike
Fix,GPS,37.4232351433,-122.1608071152,-2.196710630136172,2.1509385,6.309427,246.89137,1675788793000,0.4539318,12.868493,4143303869794000,5.867591,Bike
Fix,FLP,37.4232424,-122.1607923,-5.201233529516955,2.1649964,6.053,248.31447,1675788793254,0.4539318,12.868493,4143303869794000,1.9151154,Bike
Fix,GPS,37.4232095484,-122.1608365698,-1.2048636341051568,2.809777,6.3255453,214.8759,1675788794000,0.44731262,8.202871,4143304869734000,5.9234004,Bike
Fix,FLP,37.4232239,-122.1608233,1.1458327760565652,2.7677827,6.13,214.98422,1675788794254,0.44731262,8.202871,4143304869734000,1.9251354,Bike
Fix,GPS,37.4231746815,-122.1608532796,-0.5528141066035841,3.4522936,6.4577537,215.4026,1675788795000,0.44265413,6.9382763,4143305869801000,5.9327164,Bike
Fix,FLP,37.423188,-122.1608484,5.50138071449436,3.4432395,6.192,214.99063,1675788795254,0.44265413,6.9382763,4143305869801000,1.9272954,Bike
Fix,GPS,37.4231283282,-122.1608788313,-0.3839491022771613,3.6209693,6.573265,215.87265,1675788796000,0.4723743,7.1244016,4143306870030000,5.967091,Bike
Fix,FLP,37.4231538,-122.1608678,5.50138071449436,3.530377,6.295,214.99774,1675788796255,0.4723743,7.1244016,4143306870030000,1.9452481,Bike
Fix,GPS,37.4230808488,-122.1609101702,0.3943446176784426,4.300047,6.440053,216.24734,1675788797000,0.44079646,5.583218,4143307869798000,5.9875684,Bike
Fix,FLP,37.4231276,-122.1608841,8.313643016496826,2.963455,6.704,196.59007,1675788797358,,,4143307973202782,1.9552382,Bike
Fix,FLP,37.4230997,-122.1608995,8.313643016496826,3.8651645,7.119,212.9414,1675788797900,,,4143308515702111,1.9552382,Bike
Fix,GPS,37.4230420442,-122.1609414672,0.569355264440041,4.810529,6.5296144,216.32202,1675788798000,0.46552423,5.2544565,4143308869812000,6.0449996,Bike
Fix,FLP,37.4230609,-122.1609328,16.456548974287358,4.625347,8.014,216.98466,1675788798443,,,4143309058201378,1.9498276,Bike
Fix,GPS,37.4229935161,-122.1609812837,0.7155441854507733,4.6924458,6.370063,217.33684,1675788799000,0.45719373,5.3426423,4143309870104000,6.1032715,Bike
Fix,FLP,37.4230423,-122.1609496,15.309072508877492,4.76111,8.603,219.00444,1675788798985,,,4143309600700340,1.9598076,Bike
Fix,FLP,37.4230153,-122.1609709,15.309072508877492,4.773032,9.028,218.07007,1675788799528,,,4143310143199303,1.9598076,Bike
Fix,GPS,37.4229441866,-122.1610237856,0.6242845584708498,4.431168,6.3130803,215.83748,1675788800000,0.44587153,5.5381756,4143310869833000,6.196796,Bike
Fix,FLP,37.4229908,-122.1609911,8.313643016496826,4.738576,9.464,218.46953,1675788800069,,,4143310685698632,1.9698076,Bike
Fix,FLP,37.4229657,-122.1610118,8.313643016496826,4.6041183,9.899,216.00893,1675788800621,,,4143311236000000,1.9698076,Bike
Fix,GPS,37.4229022373,-122.1610529517,1.1905390552470985,3.7801273,6.3387065,216.11034,1675788801000,0.44711027,6.4638567,4143311870120000,6.3053565,Bike
Fix,FLP,37.4229375,-122.1610341,-1.465815428815162,4.519416,10.352,211.93224,1675788801155,,,4143311770698998,1.9798377,Bike
Fix,FLP,37.4229032,-122.1610581,-1.465815428815162,3.9540935,10.805,213.81345,1675788801697,,,4143312313195214,1.9798377,Bike
Fix,GPS,37.4228721697,-122.1610746208,2.836225584573741,3.6534157,6.2555113,215.05455,1675788802000,0.4072345,6.082516,4143312870088000,6.3321786,Bike
Fix,FLP,37.4228961,-122.1610635,-5.195198634440359,3.866596,11.203,214.69331,1675788802239,,,4143312855693687,2.0118814,Bike
Fix,GPS,37.422839625,-122.1610968917,3.2652167297482046,3.5130308,6.085146,216.88158,1675788803000,0.405088,6.3573613,4143313870222000,6.366074,Bike
Fix,FLP,37.4228617,-122.1610895,-6.3085534941742765,3.694575,11.158,217.43921,1675788803325,,,4143313940690514,2.000116,Bike
Fix,GPS,37.4228095004,-122.1611208916,2.7074005791780427,3.3669283,6.149896,217.45766,1675788804000,0.40597472,6.6202397,4143314870050000,6.3936815,Bike
Fix,FLP,37.4228338,-122.1611098,-5.0211634342842615,3.5395758,11.13,216.1125,1675788803868,,,4143314483189049,2.010116,Bike
Fix,FLP,37.4228142,-122.1611228,-5.0211634342842615,3.4187276,11.067,217.05356,1675788804410,,,4143315025687890,2.010116,Bike
Fix,GPS,37.4227841168,-122.1611417904,1.898509372199053,3.1457288,6.1959677,227.13889,1675788805000,0.42444694,7.4468026,4143315870008000,6.4493065,Bike
Fix,FLP,37.4227992,-122.1611346,-1.627750113670757,3.380074,10.985,218.79793,1675788804953,,,4143315568185937,2.0202997,Bike
Fix,FLP,37.422791,-122.1611417,-1.627750113670757,3.230429,10.889,223.85162,1675788805480,,,4143316095000000,2.0202997,Bike
Fix,FLP,37.42278,-122.1611551,-1.627750113670757,3.178829,10.788,236.10588,1675788805990,,,4143316605000000,2.0202997,Bike
Fix,GPS,37.422767233,-122.1611645578,1.0258247522814743,2.254655,6.2682967,246.99327,1675788806000,0.3992354,10.288312,4143316869971000,6.436364,Bike
Fix,FLP,37.4227657,-122.1611764,4.547873046410629,2.360619,10.58,247.4198,1675788806558,,,4143317173874657,2.0303397,Bike
Fix,GPS,37.422765542,-122.1611925299,1.0207157371999562,2.206716,6.3561153,289.5959,1675788807000,0.38883996,10.273343,4143317869983000,6.3565884,Bike
Fix,FLP,37.4227637,-122.1611822,5.763396553499746,2.2346585,10.615,266.9604,1675788807123,,,4143317738178673,2.0402896,Bike
Fix,FLP,37.4227654,-122.1611978,5.763396553499746,2.15296,10.568,295.93307,1675788807665,,,4143318280676414,2.0402896,Bike
Fix,GPS,37.422779142,-122.1612201408,1.2463746148993444,2.9536195,6.4352946,322.2412,1675788808000,0.4445517,7.828837,4143318869947000,6.3234797,Bike
Fix,FLP,37.4227716,-122.1612094,3.779575103968156,2.1826668,10.579,311.29797,1675788808208,,,4143318823174218,2.0502996,Bike
Fix,FLP,37.4227829,-122.1612246,3.779575103968156,2.8222008,10.549,323.1362,1675788808749,,,4143319365672020,2.0502996,Bike
Fix,GPS,37.422808517,-122.1612449199,0.853916365317474,3.685635,6.4800982,324.4335,1675788809000,0.46403626,6.4796667,4143319870315000,6.3075047,Bike
Fix,FLP,37.4227906,-122.161232,6.19446095454569,2.920925,10.615,324.843,1675788809293,,,4143319908169334,2.0602896,Bike
Fix,FLP,37.422809,-122.161247,6.19446095454569,3.497509,10.748,323.05783,1675788809835,,,4143320450669457,2.0602896,Bike
Fix,GPS,37.4228444002,-122.1612776988,0.5007346816908498,4.5245337,6.42898,323.70447,1675788810000,0.45538303,5.3980093,4143320870246000,6.247343,Bike
Fix,FLP,37.4228228,-122.1612591,6.578207338394336,3.635726,10.9,321.54803,1675788810378,,,4143320993163902,2.0711434,Bike
Fix,GPS,37.4228845667,-122.1613166554,0.3646042989963904,4.6934276,6.2775006,318.61945,1675788811000,0.43575755,5.0894666,4143321870336000,6.167263,Bike
Fix,FLP,37.4228504,-122.1612861,-14.833568805995624,4.2624707,11.316,322.27618,1675788810919,,,4143321535660973,2.0811334,Bike
Fix,FLP,37.422865,-122.1612998,-14.833568805995624,4.5182605,11.206,320.0865,1675788811421,,,4143322037000000,2.0811334,Bike
Fix,GPS,37.4229188921,-122.1613573725,0.774875558417482,4.2064533,6.2886057,315.7204,1675788812000,0.45721364,5.9831023,4143322870039000,6.116983,Bike
Fix,FLP,37.4228935,-122.1613281,-14.122131331602093,4.673859,11.061,320.26007,1675788812005,,,4143322620654687,2.0931354,Bike
Fix,FLP,37.422915,-122.1613541,-14.122131331602093,4.3636427,11.124,314.16867,1675788812547,,,4143323163139244,2.0931354,Bike
Fix,FLP,37.4229285,-122.1613746,-14.122131331602093,4.2929587,11.2,304.3408,1675788813090,,,4143323705647607,2.0931354,Bike
Fix,GPS,37.4229445944,-122.1613955651,0.301590272799936,3.4114194,6.544577,309.6974,1675788813000,0.46399534,7.565909,4143323870366000,6.1504235,Bike
Fix,FLP,37.4229505,-122.161415,-10.804785580485756,3.5492413,11.195,295.67514,1675788814175,,,4143324790643212,2.1041453,Bike
Fix,GPS,37.4229609886,-122.1614336518,0.2172572279505925,3.1384418,6.707225,296.1272,1675788814000,0.49456245,9.28209,4143324870377000,6.211054,Bike
Fix,FLP,37.4229633,-122.1614466,-8.90000057220459,3.189393,11.109,296.14734,1675788814717,,,4143325333136375,2.1131353,Bike
Fix,GPS,37.4229700778,-122.1614811128,-1.4137658545198115,3.7223766,6.822961,284.8662,1675788815000,0.46025273,7.5187407,4143325870071000,6.22952,Bike
Fix,FLP,37.4229671,-122.1614556,2.426288029235863,3.148877,11.16,300.37613,1675788815260,,,4143325875632409,2.1231654,Bike
Fix,FLP,37.4229764,-122.1614834,2.426288029235863,3.6539695,11.041,291.83127,1675788815803,,,4143326418128075,2.1231654,Bike
Fix,GPS,37.4229752154,-122.1615371404,-0.8063252471595486,3.4794395,6.516379,294.3263,1675788816000,0.37316352,6.013918,4143326870414000,6.1663914,Bike
Fix,FLP,37.4229791,-122.1614957,-8.90000057220459,3.6952941,11.082,293.25082,1675788816345,,,4143326960624230,2.106964,Bike
Fix,FLP,37.4229856,-122.1615337,-8.90000057220459,3.5337994,11.379,292.91293,1675788816888,,,4143327503119225,2.106964,Bike
Fix,GPS,37.422986798,-122.1615953409,-1.830774243173108,3.7545166,6.238445,286.34253,1675788817000,0.3865425,5.8787384,4143327870123000,6.056249,Bike
Fix,FLP,37.4229909,-122.1615778,-14.28901298013308,3.7362814,11.459,286.7596,1675788817430,,,4143328045614342,2.1147335,Bike
Fix,FLP,37.4229927,-122.1616012,-14.28901298013308,3.766019,11.404,281.78754,1675788817973,,,4143328588109947,2.1147335,Bike
Fix,GPS,37.4229923899,-122.1616635949,-1.576424570891793,3.9006922,5.9022875,283.30597,1675788818000,0.39643383,5.7752304,4143328870131000,5.941243,Bike
Fix,FLP,37.4229981,-122.1616655,-14.28901298013308,3.8891528,11.257,281.81796,1675788819058,,,4143329673100182,2.1253333,Bike
Fix,GPS,37.4229959681,-122.1617263961,-1.6992456784192362,4.5767746,5.8347507,282.65622,1675788819000,0.39562362,4.8279886,4143329870327000,5.8725863,Bike
Fix,GPS,37.4230018991,-122.1617917792,-2.056650568503492,4.4465203,5.663107,291.27396,1675788820000,0.36538512,4.549222,4143330870390000,5.761244,Bike
Fix,FLP,37.4230067,-122.1617367,-8.90000057220459,4.3688827,11.136,294.52176,1675788820143,,,4143330758090233,2.1447234,Bike
Fix,FLP,37.4230163,-122.1618051,-8.90000057220459,4.5128136,10.888,285.20938,1675788821187,,,4143331802000000,2.1447234,Bike
Fix,GPS,37.4230155239,-122.1618568419,-2.889277259624374,4.9357777,5.7299633,285.81866,1675788821000,0.4248539,5.1404448,4143331871107000,5.73313,Bike
Fix,FLP,37.4230204,-122.1618627,1.7468928338263223,4.8669543,10.472,282.45755,1675788821769,,,4143332385573753,2.1547534,Bike
Fix,GPS,37.4230253691,-122.1619220942,-3.5747447985060896,5.396503,5.7264113,282.79895,1675788822000,0.41737843,4.5479426,4143332870331000,5.6824813,Bike
Fix,FLP,37.4230244,-122.161903,1.2818306838033635,5.386915,9.81,282.01492,1675788822254,0.41737843,4.5479426,4143332870331000,2.1872942,Bike
Fix,GPS,37.4230326832,-122.1619862582,-4.286988538932564,5.57289,5.7917576,290.47858,1675788823000,0.47707483,5.051971,4143333870504000,5.669782,Bike
Fix,FLP,37.4230334,-122.1619774,1.7468928338263223,5.570282,9.222,289.91257,1675788823254,0.47707483,5.051971,4143333870504000,2.1972642,Bike
Fix,GPS,37.4230453591,-122.1620534464,-4.4484683637193285,5.3996744,5.827918,286.89948,1675788824000,0.45921573,4.98674,4143334870438000,5.6457553,Bike
Fix,FLP,37.4230473,-122.1620472,6.732315119546371,5.401362,8.359,286.04123,1675788824255,0.45921573,4.98674,4143334870438000,2.2110643,Bike
Fix,GPS,37.423054331,-122.1621176921,-4.585966978788258,5.310241,5.6871796,285.36768,1675788825000,0.4392571,4.9225683,4143335870542000,5.5874248,Bike
Fix,FLP,37.4230566,-122.1621135,12.468028808335518,5.3111243,7.756,285.0099,1675788825254,0.4392571,4.9225683,4143335870542000,2.2210643,Bike
Fix,GPS,37.4230618581,-122.1621826393,-4.676869884982173,5.181632,5.5243216,287.2776,1675788826000,0.40558812,4.5875344,4143336870272000,5.524725,Bike
Fix,FLP,37.4230644,-122.1621788,6.5729921202739945,5.1826334,6.806,286.98315,1675788826255,0.40558812,4.5875344,4143336870272000,2.2465901,Bike
Fix,GPS,37.4230732917,-122.1622452695,-4.54752517442082,5.2213674,5.4872584,289.499,1675788827000,0.43877286,4.980779,4143337870574000,5.499558,Bike
Fix,FLP,37.4230749,-122.1622417,6.834872705163207,5.22098,5.663,288.98032,1675788827254,0.43877286,4.980779,4143337870574000,2.2565901,Bike
Fix,GPS,37.423083754,-122.1623055306,-4.06813551896532,5.098997,5.5669923,291.90103,1675788828000,0.43887094,4.9707065,4143338870286000,5.515443,Bike
Fix,FLP,37.4230861,-122.1623027,10.149370381113144,5.1000924,5.647,290.98053,1675788828254,0.43887094,4.9707065,4143338870286000,2.26665,Bike
Fix,GPS,37.4230979856,-122.1623657839,-4.071370614306835,5.1613455,5.6033096,293.23148,1675788829000,0.43121803,4.8308444,4143339870280000,5.523448,Bike
Fix,FLP,37.4230996,-122.1623625,6.834872705163207,5.160794,5.616,292.9818,1675788829255,0.43121803,4.8308444,4143339870280000,2.27664,Bike
Fix,GPS,37.423110897,-122.1624231748,-4.927245530129315,4.9867086,5.536965,294.28204,1675788830000,0.40688184,4.679966,4143340870324000,5.5169964,Bike
Fix,FLP,37.4231133,-122.1624208,3.313257925167917,4.988075,5.567,293.99133,1675788830255,0.40688184,4.679966,4143340870324000,2.28665,Bike
Fix,GPS,37.4231258689,-122.1624801142,-5.443389711069344,4.8558207,5.6010256,294.54028,1675788831000,0.43853799,5.101437,4143341870646000,5.5353403,Bike
Fix,FLP,37.4231298,-122.1624745,8.413378663831153,4.946207,6.427,294.07013,1675788831254,,,4143341870646000,2.29667,Bike
Fix,GPS,37.4231430339,-122.1625381066,-5.812953723675578,4.9001174,5.6581235,293.84186,1675788832000,0.4184555,4.8717446,4143342870332000,5.5616617,Bike
Fix,FLP,37.4231383,-122.1625093,7.252071881775606,4.7763715,7.408,301.43976,1675788832379,,,4143342995835839,2.2761981,Bike
Fix,FLP,37.4231568,-122.1625544,7.252071881775606,4.901838,9.197,300.22552,1675788832923,,,4143343538327111,2.2761981,Bike
Fix,GPS,37.4231611279,-122.1625959265,-6.364331523434168,4.8698554,5.5478077,293.9822,1675788833000,0.3945071,4.542258,4143343870370000,5.5207806,Bike
Fix,FLP,37.4231748,-122.162612,4.31526171193515,4.9052205,9.27,297.9868,1675788834008,,,4143344623310693,2.286168,Bike
Fix,GPS,37.4231773604,-122.1626539981,-6.3171397762737005,4.853457,5.536312,294.76617,1675788834000,0.40621886,4.7375565,4143344870322000,5.502791,Bike
Fix,FLP,37.4231852,-122.1626539,9.031171218988804,4.880848,9.614,296.10257,1675788834548,,,4143345164014977,2.296188,Bike
Fix,GPS,37.4231929878,-122.1627135552,-6.018419794789595,4.848673,5.6430836,291.64725,1675788835000,0.39755815,4.6070933,4143345870384000,5.5252337,Bike
Fix,FLP,37.4231939,-122.1626828,4.31526171193515,4.870148,9.951,295.66608,1675788835093,,,4143345708293359,2.306168,Bike
Fix,FLP,37.423209,-122.1627402,4.31526171193515,4.8831635,9.876,292.4995,1675788836177,,,4143346793275414,2.306168,Bike
Fix,GPS,37.4232065475,-122.1627726683,-5.9682802240385575,4.9225698,5.6657276,291.6271,1675788836000,0.40852693,4.7464585,4143346870361000,5.5729885,Bike
Fix,FLP,37.4232177,-122.1627876,3.779575103968156,4.916721,10.259,290.6996,1675788836720,,,4143347335754723,1.4227862,Bike
Fix,GPS,37.4232192356,-122.1628317975,-5.613642567964599,4.81932,5.712289,292.40674,1675788837000,0.42399305,4.9572167,4143347870455000,5.5869117,Bike
Fix,FLP,37.4232215,-122.1628073,4.492337018496002,4.9325294,9.937,290.27274,1675788837263,,,4143347878257347,1.4327514,Bike
Fix,GPS,37.4232319603,-122.1628910737,-5.330187408779927,5.002728,5.6793284,291.71768,1675788838000,0.39649832,4.487616,4143348870720000,5.5662527,Bike
Fix,FLP,37.4232348,-122.1628656,7.849232923290614,4.84109,9.692,291.72205,1675788838347,,,4143348963238854,1.4274296,Bike
Fix,FLP,37.4232449,-122.1629195,7.849232923290614,4.95377,9.799,291.15756,1675788838890,,,4143349505729821,1.4274296,Bike
Fix,GPS,37.4232426087,-122.1629472427,-6.152113950607519,4.904756,5.5444045,293.2381,1675788839000,0.39590535,4.567319,4143349870489000,5.544442,Bike
Fix,FLP,37.4232536,-122.1629674,8.673301334692368,4.925119,9.867,290.88815,1675788839975,,,4143350590713768,1.4259359,Bike
Fix,GPS,37.4232557462,-122.1630069837,-6.117301534488517,5.127819,5.540967,289.41272,1675788840000,0.40971622,4.568294,4143350870487000,5.5686946,Bike
Fix,FLP,37.4232564,-122.1629963,12.807709137755012,5.1247745,9.586,289.0219,1675788840255,0.40971622,4.568294,4143350870487000,1.4043067,Bike
Fix,GPS,37.4232660352,-122.1630729553,-5.969280574684757,5.1595726,5.4448657,289.63443,1675788841000,0.4297959,4.7206907,4143351870619000,5.5060625,Bike
Fix,FLP,37.4232679,-122.1630653,8.672500449003323,5.1593356,9.139,288.99966,1675788841255,0.4297959,4.7206907,4143351870619000,1.4089993,Bike
Fix,GPS,37.4232777714,-122.163135402,-5.978121277453563,5.195839,5.4539566,292.43314,1675788842000,0.41917685,4.587009,4143352870496000,5.5130734,Bike
Fix,FLP,37.4232796,-122.1631302,8.654365814249601,5.195528,8.504,291.9751,1675788842255,0.41917685,4.587009,4143352870496000,1.4045718,Bike
Fix,GPS,37.4232904868,-122.163201257,-5.618768661402441,5.272059,5.448365,291.82272,1675788843000,0.4447386,4.88078,4143353870510000,5.4862084,Bike
Fix,FLP,37.4232928,-122.1631956,10.80510252328368,5.2713857,7.969,291.0085,1675788843255,0.4447386,4.88078,4143353870510000,1.4027858,Bike
Fix,GPS,37.4233024837,-122.1632683601,-4.777243714779017,5.3934574,5.403084,290.54404,1675788844000,0.43839154,4.6844344,4143354870531000,5.4377637,Bike
Fix,FLP,37.423305,-122.1632625,10.80510252328368,5.392397,6.66,290.00833,1675788844254,0.43839154,4.6844344,4143354870531000,1.4026308,Bike
Fix,GPS,37.4233166918,-122.1633339017,-3.9973093032993616,5.4719872,5.433816,291.39362,1675788845000,0.45126882,4.8467216,4143355870596000,5.4470587,Bike
Fix,FLP,37.4233184,-122.163329,10.80510252328368,5.471241,5.436,290.98962,1675788845254,0.45126882,4.8467216,4143355870596000,1.4025409,Bike
Fix,GPS,37.4233302136,-122.1633982731,-3.777907350376616,5.4268546,5.528884,287.11414,1675788846000,0.45698115,4.9658713,4143356870577000,5.4423113,Bike
Fix,FLP,37.4233323,-122.1633943,13.231068714528677,5.427256,5.452,287.04102,1675788846255,0.45698115,4.9658713,4143356870577000,1.4250951,Bike
Fix,GPS,37.4233437746,-122.1634636366,-4.0959439959290656,5.5148935,5.5178514,286.52512,1675788847000,0.465327,5.049601,4143357870773000,5.4626937,Bike
Fix,FLP,37.4233448,-122.1634599,7.524050365909105,5.5140443,5.466,286.0107,1675788847255,0.465327,5.049601,4143357870773000,1.4280202,Bike
Fix,GPS,37.4233601867,-122.1635302757,-4.409840836869021,5.622337,5.605534,282.48834,1675788848000,0.46755865,4.973609,4143358870587000,5.457517,Bike
Fix,FLP,37.4233596,-122.1635266,7.33246816878794,5.6211944,5.498,282.04355,1675788848255,0.46755865,4.973609,4143358870587000,1.4365983,Bike
Fix,GPS,37.4233726173,-122.1635997961,-4.375121267313305,5.565214,5.659755,283.56003,1675788849000,0.4405219,4.7141833,4143359870889000,5.4710817,Bike
Fix,FLP,37.4233717,-122.1635958,8.546361357425738,5.565762,5.549,282.99066,1675788849254,0.4405219,4.7141833,4143359870889000,1.4366213,Bike
Fix,GPS,37.4233847471,-122.1636685145,-4.185246587479744,5.5880446,5.7075205,287.13364,1675788850000,0.42606434,4.464533,4143360870617000,5.4231052,Bike
Fix,FLP,37.4233841,-122.1636644,6.839908949767732,5.587745,5.604,286.96445,1675788850255,0.42606434,4.464533,4143360870617000,1.4417783,Bike
Fix,GPS,37.423387939,-122.1637355533,-3.965265629367525,5.6703787,5.647856,286.14127,1675788851000,0.40930602,4.0863767,4143361871044000,5.3732257,Bike
Fix,FLP,37.4233918,-122.1637318,7.31937317605842,5.669737,5.628,286.00687,1675788851256,0.40930602,4.0863767,4143361871044000,1.4431362,Bike
Fix,GPS,37.4233935164,-122.163803153,-3.6166607540146423,5.555278,5.3843484,285.85153,1675788852000,0.3850799,3.8479424,4143362870923000,5.2942424,Bike
Fix,FLP,37.4233977,-122.1637999,8.546361357425738,5.556076,5.601,285.00626,1675788852255,0.3850799,3.8479424,4143362870923000,1.4413782,Bike
Fix,GPS,37.4234021457,-122.1638691248,-3.7355194486330814,5.713456,5.426503,287.68713,1675788853000,0.39683756,3.9176497,4143363870652000,5.310246,Bike
Fix,FLP,37.4234051,-122.1638662,11.209981840056969,5.712285,5.565,286.98566,1675788853254,0.39683756,3.9176497,4143363870652000,1.4347202,Bike
Fix,GPS,37.4234118133,-122.1639339125,-3.9411988949223673,5.834375,5.356702,285.18735,1675788854000,0.40793943,3.9956896,4143364870673000,5.2854595,Bike
Fix,FLP,37.4234146,-122.1639319,12.737899340171609,5.8333936,5.53,285.01492,1675788854255,0.40793943,3.9956896,4143364870673000,1.4300288,Bike
Fix,GPS,37.4234178591,-122.1640050718,-3.661477543884404,5.538429,5.3524942,281.8699,1675788855000,0.4019109,4.100993,4143365870692000,5.288405,Bike
Fix,FLP,37.4234214,-122.1640019,9.750352919104133,5.540578,5.433,281.03094,1675788855255,0.4019109,4.100993,4143365870692000,1.4394644,Bike
Fix,GPS,37.4234224537,-122.1640765559,-3.093645234748143,5.730898,5.376173,280.85513,1675788856000,0.4076377,4.163897,4143366871276000,5.2841053,Bike
Fix,FLP,37.4234254,-122.1640721,9.750352919104133,5.7294292,5.379,280.00766,1675788856256,0.4076377,4.163897,4143366871276000,1.4398277,Bike
Fix,GPS,37.4234281962,-122.1641485394,-2.448196308873364,5.767795,5.2659287,281.1083,1675788857000,0.41594225,4.3428,4143367870728000,5.2385273,Bike
Fix,FLP,37.4234303,-122.1641443,10.193706817323388,5.767492,5.36,280.99072,1675788857255,0.41594225,4.3428,4143367870728000,1.4384863,Bike
Fix,GPS,37.4234405173,-122.1642125176,-2.699956801493432,5.6560664,5.4913235,286.85007,1675788858000,0.42513514,4.505328,4143368870761000,5.309291,Bike
Fix,FLP,37.4234404,-122.1642111,10.193706817323388,5.656767,5.368,285.95306,1675788858255,0.42513514,4.505328,4143368870761000,1.4292693,Bike
Fix,GPS,37.4234544039,-122.1642726953,-2.7376128146887813,5.603403,5.641422,285.95807,1675788859000,0.44465396,4.8156486,4143369870988000,5.345426,Bike
Fix,FLP,37.4234544,-122.1642727,10.193706817323388,5.6039243,5.425,285.01004,1675788859255,0.44465396,4.8156486,4143369870988000,1.424492,Bike
Fix,GPS,37.4234647113,-122.1643344549,-2.3663292769928064,5.530855,5.714969,285.84317,1675788860000,0.3819199,3.993524,4143370870735000,5.366214,Bike
Fix,FLP,37.4234657,-122.1643343,14.485869229853876,5.531359,5.497,284.99997,1675788860255,0.3819199,3.993524,4143370870735000,1.430226,Bike
Fix,GPS,37.4234786027,-122.1643957323,-2.71574319339469,5.5410194,5.620443,286.55573,1675788861000,0.397516,4.2419415,4143371871335000,5.3801293,Bike
Fix,FLP,37.4234786,-122.1643954,14.61894748749934,5.5409317,5.546,285.9921,1675788861256,0.397516,4.2419415,4143371871335000,1.4310325,Bike
Fix,GPS,37.4234914169,-122.1644637945,-2.2855948955349974,5.6580653,5.4667764,290.25204,1675788862000,0.44005814,4.5532613,4143372870797000,5.372104,Bike
Fix,FLP,37.4234917,-122.164461,14.61894748749934,5.656845,5.586,289.96255,1675788862254,0.44005814,4.5532613,4143372870797000,1.4270082,Bike
Fix,GPS,37.4235044149,-122.1645223154,-2.0275599747905337,5.3779335,5.32524,288.92007,1675788863000,0.409826,4.5342507,4143373870903000,5.300413,Bike
Fix,FLP,37.423506,-122.1645219,12.81853590378266,5.3801756,5.553,288.0176,1675788863254,0.409826,4.5342507,4143373870903000,1.4314741,Bike
Fix,GPS,37.4235152498,-122.1645787023,-1.5910563582060748,5.357788,5.351952,286.07153,1675788864000,0.4163087,4.658989,4143374870793000,5.280348,Bike
Fix,FLP,37.4235172,-122.1645791,8.058768374833917,5.357968,5.52,286.0177,1675788864255,0.4163087,4.658989,4143374870793000,1.4418558,Bike
Fix,GPS,37.4235304724,-122.1646343369,-1.7132610601171545,5.490146,5.4604845,285.37073,1675788865000,0.4267256,4.568559,4143375870959000,5.2670007,Bike
Fix,FLP,37.4235305,-122.1646354,12.172457046486995,5.4889917,5.444,285.00882,1675788865254,0.4267256,4.568559,4143375870959000,1.4281814,Bike
Fix,GPS,37.4235452056,-122.1646904961,-1.6522391222800386,5.4252486,5.503079,285.15918,1675788866000,0.43252194,4.640302,4143376871128000,5.268355,Bike
Fix,FLP,37.4235445,-122.1646923,12.81853590378266,5.4257984,5.454,285.00027,1675788866255,0.43252194,4.640302,4143376871128000,1.436633,Bike
Fix,GPS,37.4235549121,-122.1647469328,-1.3362561732532026,5.0394964,5.444914,287.5222,1675788867000,0.41424617,4.79488,4143377870843000,5.2503924,Bike
Fix,FLP,37.4235557,-122.1647485,10.262227221586429,5.0425906,5.417,286.98224,1675788867255,0.41424617,4.79488,4143377870843000,1.442383,Bike
Fix,GPS,37.4235661948,-122.1648051521,-1.3337724197738094,4.7609777,5.509218,289.4244,1675788868000,0.38453227,4.666411,4143378870907000,5.2412457,Bike
Fix,FLP,37.4235672,-122.1648045,10.262227221586429,4.7629313,5.453,288.9848,1675788868255,0.38453227,4.666411,4143378870907000,1.439039,Bike
Fix,GPS,37.423579415,-122.1648595241,-1.434750099064758,4.5138817,5.6791506,284.68942,1675788869000,0.42209062,5.435291,4143379870924000,5.2894874,Bike
Fix,FLP,37.4235763,-122.164844,12.494986341080292,4.5226865,5.517,284.20166,1675788869255,0.42209062,5.435291,4143379870924000,1.4325178,Bike
Fix,GPS,37.4235888054,-122.1649169429,-0.939435752615608,4.7174854,5.560134,283.8889,1675788870000,0.4274578,5.3360553,4143380870932000,5.252281,Bike
Fix,FLP,37.4235865,-122.1649002,13.975755315992645,4.712549,5.543,283.02438,1675788870254,0.4274578,5.3360553,4143380870932000,1.4208605,Bike
Fix,GPS,37.4235957106,-122.164977546,-0.4218247844796607,4.5476704,5.4512587,281.44562,1675788871000,0.425377,5.5836344,4143381871087000,5.264292,Bike
Fix,FLP,37.4235951,-122.1649624,16.98899869231353,4.550987,5.543,281.04175,1675788871256,0.425377,5.5836344,4143381871087000,1.4259051,Bike
Fix,GPS,37.4236065973,-122.1650332112,-0.1946505123414588,4.2304583,5.538219,281.87912,1675788872000,0.3945596,5.3155417,4143382870943000,5.2511396,Bike
Fix,FLP,37.4236044,-122.1650229,7.308292813439465,4.234347,5.548,281.00003,1675788872255,0.3945596,5.3155417,4143382870943000,1.4491595,Bike
Fix,GPS,37.423611329,-122.1650860563,0.0484879936298521,4.0890107,5.7529254,277.28436,1675788873000,0.42801908,5.9205174,4143383870968000,5.266901,Bike
Fix,FLP,37.4236098,-122.1650628,13.362078761149306,4.1630425,5.568,279.18857,1675788873254,0.42801908,5.9205174,4143383870968000,1.4272193,Bike
Fix,GPS,37.4236118535,-122.1651413018,0.5242409316979167,4.8449726,6.042261,271.6276,1675788874000,0.45939294,5.281626,4143384870953000,5.3210135,Bike
Fix,FLP,37.4236128,-122.1651133,8.851807339935746,4.7308183,5.623,271.7331,1675788874255,0.45939294,5.281626,4143384870953000,1.4268731,Bike
Fix,GPS,37.423610642,-122.1652027236,0.3076405991691782,4.726808,6.198096,276.8621,1675788875000,0.48476347,5.648498,4143385870998000,5.382809,Bike
Fix,FLP,37.4236126,-122.1651559,12.963683656684282,4.8900876,6.101,307.00735,1675788875354,,,4143385970075585,1.4202703,Bike
Fix,GPS,37.4236148496,-122.1652671619,0.3992927516450124,5.0018153,6.336155,280.55676,1675788876000,0.5060946,5.748054,4143386870984000,5.424444,Bike
Fix,FLP,37.4236311,-122.1651907,11.805594933520696,5.069753,6.918,298.8503,1675788875896,,,4143386512559899,1.4197936,Bike
Fix,FLP,37.423631,-122.1652249,11.805594933520696,5.109393,7.389,289.12372,1675788876439,,,4143387055050316,1.4197936,Bike
Fix,FLP,37.4236331,-122.1652723,11.805594933520696,5.0373178,8.028,284.25473,1675788876982,,,4143387597538902,1.4197936,Bike
