Fix,Provider,LatitudeDegrees,LongitudeDegrees,AltitudeMeters,SpeedMps,AccuracyMeters,BearingDegrees,UnixTimeMillis,SpeedAccuracyMps,BearingAccuracyDegrees,elapsedRealtimeNanos,VerticalAccuracyMeters,TransitType
Fix,FLP,37.4273731,-122.1724564,-2.900000095367432,,28.016,,1677716777379,,,1151580602000000,2.7005062,Bike
Fix,NLP,37.4273731,-122.1724564,-2.900000095367432,,28.016,,1677716777378,,,1151580602000000,2.7005062,Bike
Fix,GPS,37.4273931658,-122.1724619962,-12.178860361616971,0.0,19.411486,,1677716783895,0.7871245,,1151589850660088,26.058275,Bike
Fix,FLP,37.427392,-122.1724617,-7.318933837413278,0.19676313,19.411,347.52435,1677716786627,0.7871245,,1151589850660088,2.770652,Bike
Fix,NLP,37.4275921,-122.172349,-2.900000095367432,,42.319,,1677716787401,,,1151590624000000,2.256685,Bike
Fix,FLP,37.4273932,-122.172462,-8.966642533339748,0.19335423,21.731,347.52435,1677716787400,0.7871245,,1151590624000000,2.6595826,Bike
Fix,GPS,37.4274015691,-122.1724549401,-8.873390409686866,0.0,15.73413,,1677716784895,0.38516292,,1151590871446872,19.592672,Bike
Fix,FLP,37.4273987,-122.1724575,-8.966642533339748,0.56955624,19.732,21.19236,1677716787648,0.38516292,,1151590871446872,2.661373,Bike
Fix,GPS,37.427417236,-122.1724492396,-10.024680614210892,0.0,12.083311,,1677716785895,20.0,,1151591863714532,14.510022,Bike
Fix,FLP,37.4274147,-122.1724503,-8.405203127335557,1.3225462,17.819,20.03493,1677716788639,20.0,,1151591863714532,2.6696897,Bike
Fix,GPS,37.4274406938,-122.1724487917,-10.331262098643329,1.2151242,9.229942,52.977097,1677716787000,0.3631931,15.857152,1151592964125422,12.301567,Bike
Fix,FLP,37.4274355,-122.1724458,-13.120441406740206,1.2155098,16.101,51.84655,1677716789741,0.3631931,15.857152,1151592964125422,2.6859832,Bike
Fix,GPS,37.427465033,-122.1724434116,-10.48471833985554,1.6160849,7.698116,46.809875,1677716788000,0.36836088,12.244061,1151593971874161,10.763488,Bike
Fix,FLP,37.4274536,-122.1724415,-13.120441406740206,1.6097971,13.919,46.068542,1677716790748,0.36836088,12.244061,1151593971874161,2.6968198,Bike
Fix,GPS,37.4274803194,-122.1724319234,-9.864614690289612,1.9796108,7.089841,23.770195,1677716789000,0.3262369,10.0,1151594887317000,9.942476,Bike
Fix,FLP,37.4274725,-122.1724308,-10.75066066702197,1.9769018,12.159,23.107254,1677716791664,0.3262369,10.0,1151594887317000,2.706752,Bike
Fix,NLP,37.4275172,-122.1724328,-2.900000095367432,,38.718,,1677716792489,,,1151595712000000,3.1935105,Bike
Fix,FLP,37.4274831,-122.1724283,-12.693838153899469,1.9795332,10.024,22.999887,1677716792488,0.3262369,10.0,1151595712000000,2.6575787,Bike
Fix,GPS,37.4274992899,-122.1724258285,-8.771179879763167,2.2564793,6.288868,18.793308,1677716790000,0.36247906,10.0,1151595886981000,9.080981,Bike
Fix,FLP,37.4274918,-122.1724264,-12.693838153899469,2.249735,8.843,18.114828,1677716792662,0.36247906,10.0,1151595886981000,2.660539,Bike
Fix,GPS,37.4275203376,-122.1724127077,-7.98424894261323,2.6197383,5.7859917,24.160337,1677716791000,0.29473564,10.0,1151596887349000,8.286483,Bike
Fix,FLP,37.4275149,-122.1724165,-5.959625649091572,2.6139996,7.86,23.873884,1677716793664,0.29473564,10.0,1151596887349000,2.679949,Bike
Fix,GPS,37.4275396673,-122.172399957,-6.454781978832237,2.6379018,5.450444,24.768375,1677716792000,0.29205278,10.0,1151597887358000,7.5778246,Bike
Fix,FLP,37.4275385,-122.1724016,-4.991909859943817,2.637769,7.619,23.998505,1677716794663,0.29205278,10.0,1151597887358000,2.694229,Bike
Fix,GPS,37.427561988,-122.1723863212,-5.823796365606072,2.7331579,5.699417,22.768301,1677716793000,0.33202216,10.0,1151598887047000,7.2171206,Bike
Fix,FLP,37.4275588,-122.1723888,-2.900000095367432,2.7322412,6.887,22.028605,1677716795663,0.33202216,10.0,1151598887047000,2.7494962,Bike
Fix,GPS,37.4275851359,-122.1723720035,-5.3361487958101685,2.3832705,5.3912373,20.160318,1677716794000,0.3166527,10.0,1151599887091000,6.9531274,Bike
Fix,FLP,37.4275839,-122.1723739,-2.900000095367432,2.385267,6.657,20.02473,1677716796664,0.3166527,10.0,1151599887091000,2.7559652,Bike
Fix,NLP,37.4276897,-122.1724088,-1.6999999284744265,,39.218,,1677716797592,,,1151600815000000,4.0125685,Bike
Fix,FLP,37.4275973,-122.1723673,-1.6999999284744265,2.3824275,6.414,20.01906,1677716797591,0.3166527,10.0,1151600815000000,3.3072166,Bike
Fix,GPS,37.4276070414,-122.1723636581,-5.223445321988827,2.500854,5.3913603,10.022673,1677716795000,0.30296203,10.0,1151600887353000,6.7825565,Bike
Fix,FLP,37.4276035,-122.1723651,-1.6999999284744265,2.5006669,6.301,10.082432,1677716797664,0.30296203,10.0,1151600887353000,3.2185059,Bike
Fix,GPS,37.427633821,-122.1723590111,-5.366807386894084,2.743432,5.2605777,10.212489,1677716796000,0.33265078,10.0,1151601887066000,6.6977587,Bike
Fix,FLP,37.427631,-122.1723594,-1.6999999284744265,2.7420907,6.173,9.996342,1677716798663,0.33265078,10.0,1151601887066000,3.4320579,Bike
Fix,GPS,37.4276589589,-122.172355248,-4.950987959651891,2.9609873,5.2019954,12.382597,1677716797000,0.37296697,10.0,1151602887098000,6.5677524,Bike
Fix,FLP,37.4276578,-122.1723548,-2.900000095367432,2.959322,6.1,11.972719,1677716799663,0.37296697,10.0,1151602887098000,3.2329407,Bike
Fix,GPS,37.4276839623,-122.1723475579,-4.627596211487332,3.0963435,5.1450467,15.985199,1677716798000,0.33619717,10.0,1151603887491000,6.343011,Bike
Fix,FLP,37.4276839,-122.1723477,-6.216712325781259,3.0951588,6.224,14.958759,1677716800663,0.33619717,10.0,1151603887491000,3.0514326,Bike
Fix,GPS,37.4277130994,-122.1723367544,-4.286560200759846,3.2216978,7.7405252,17.352781,1677716799000,0.03845813,10.0,1151604887365000,5.963107,Bike
Fix,FLP,37.4277119,-122.1723377,-5.425023557977552,3.2210188,6.616,16.967888,1677716801664,0.03845813,10.0,1151604887365000,3.094169,Bike
Fix,GPS,37.4277411556,-122.1723384404,-3.760497375400609,2.947152,4.6358614,5.0898294,1677716800000,0.034009963,10.0,1151605887126000,5.661319,Bike
Fix,FLP,37.4277408,-122.1723353,-5.696919876924625,2.9479105,5.562,5.161028,1677716802663,0.034009963,10.0,1151605887126000,3.104169,Bike
Fix,GPS,37.4277749518,-122.1723360019,-3.372624580430076,3.1021585,4.169467,8.913999,1677716801000,0.03428573,10.0,1151606887414000,5.357899,Bike
Fix,FLP,37.4277725,-122.1723348,-2.900000095367432,3.1017983,5.378,7.9584737,1677716803663,0.03428573,10.0,1151606887414000,3.114169,Bike
Fix,FLP,37.4277794,-122.1723309,-2.900000095367432,3.0980396,5.579,9.250924,1677716803872,,,1151607095319724,3.114169,Bike
Fix,FLP,37.4277954,-122.172325,-2.900000095367432,3.087008,5.836,14.706747,1677716804452,,,1151607676053561,3.114169,Bike
Fix,GPS,37.4278059515,-122.1723230877,-2.8138658264599083,3.5119407,4.274165,18.414867,1677716802000,0.062322132,10.0,1151607887152000,5.0818095,Bike
Fix,GPS,37.4278357019,-122.1723106203,-2.7453675371350035,3.4195156,4.026104,23.086462,1677716803000,0.31049788,4.690754,1151608887438000,4.901036,Bike
Fix,FLP,37.4278245,-122.1723088,-2.900000095367432,3.4315684,6.116,23.87182,1677716805537,,,1151608761220248,3.1341689,Bike
Fix,GPS,37.4278661885,-122.1722959252,-2.9831538295403197,3.449814,4.0261784,22.159851,1677716804000,0.025869686,1.0,1151609887179000,4.6983385,Bike
Fix,FLP,37.427859,-122.1722928,-5.097512065230795,3.4286373,6.286,23.87213,1677716806623,,,1151609846386141,3.1441689,Bike
Fix,FLP,37.4278776,-122.1722844,-5.097512065230795,3.4473443,6.162,20.455381,1677716807164,,,1151610388968783,3.1441689,Bike
Fix,GPS,37.4278945371,-122.1722827436,-3.156463893573552,3.488376,4.0262527,19.374422,1677716805000,0.024503741,1.0,1151610887379000,4.522752,Bike
Fix,FLP,37.4278868,-122.1722808,-5.947893332459275,3.464358,6.384,18.509302,1677716807708,,,1151610931550814,3.1541889,Bike
Fix,GPS,37.4279257036,-122.1722731771,-2.888550574514733,3.500546,4.0263276,15.750437,1677716806000,0.026579948,1.0,1151611887488000,4.3702607,Bike
Fix,FLP,37.4279224,-122.1722668,-2.900000095367432,3.5002778,6.701,14.589961,1677716808792,,,1151612016715121,3.1641688,Bike
Fix,GPS,37.4279527772,-122.1722623362,-2.9634040336435974,3.4797852,4.508557,17.168602,1677716807000,0.024307193,1.0,1151612887276000,4.236433,Bike
Fix,FLP,37.4279481,-122.1722624,-2.900000095367432,3.4944332,6.702,13.154158,1677716809336,,,1151612559296969,3.1741588,Bike
Fix,GPS,37.42798284,-122.1722532605,-3.0625876446515274,3.4934893,4.026477,13.183767,1677716808000,0.020030104,1.0,1151613887256000,4.1298523,Bike
Fix,FLP,37.4279761,-122.1722478,-1.6999999284744265,3.4753966,6.817,16.950151,1677716810420,,,1151613644458895,3.1841688,Bike
Fix,FLP,37.427987,-122.1722454,-1.6999999284744265,3.4878554,6.678,14.054896,1677716810964,,,1151614187041354,3.1841688,Bike
Fix,GPS,37.4280137944,-122.1722440143,-3.029103008122704,3.4307065,4.0265517,18.583256,1677716809000,0.27964413,4.4475093,1151614887229000,4.0706086,Bike
Fix,FLP,37.4280012,-122.1722417,-1.6999999284744265,3.493489,6.636,13.791953,1677716811506,,,1151614729625399,3.1941988,Bike
Fix,FLP,37.4280332,-122.1722277,-1.6999999284744265,3.436091,6.595,17.748407,1677716812590,,,1151615814784518,3.1941988,Bike
Fix,GPS,37.4280440113,-122.1722321805,-2.959044865009275,3.7656357,4.0266266,16.247925,1677716810000,0.31152967,4.640065,1151615887287000,4.050014,Bike
Fix,FLP,37.4280504,-122.1722199,-1.6999999284744265,3.709526,6.553,15.999536,1677716813133,,,1151616357362276,3.2041688,Bike
Fix,GPS,37.4280765312,-122.1722220415,-3.1473514381512406,3.7979186,4.412289,13.101172,1677716811000,0.027585072,1.0,1151616887470000,3.9529426,Bike
Fix,FLP,37.4280685,-122.1722139,-5.842811857447186,3.76446,6.558,14.7092495,1677716813676,,,1151616899945590,3.2142189,Bike
Fix,FLP,37.428093,-122.1722062,-5.842811857447186,3.7949166,6.57,13.660489,1677716814218,,,1151617442526400,3.2142189,Bike
Fix,GPS,37.4281103499,-122.1722121149,-3.3012593133064816,3.7397792,4.265346,13.002528,1677716812000,0.06278422,1.0,1151617887563000,3.8831837,Bike
Fix,FLP,37.4281055,-122.1722027,-5.305651679758737,3.8076468,6.637,13.053412,1677716814762,,,1151617985106478,3.2241788,Bike
Fix,GPS,37.4281429349,-122.1721975728,-3.334327818381777,3.7819884,4.0268517,16.420397,1677716813000,0.03931193,1.0,1151618887281000,3.8163092,Bike
Fix,FLP,37.4281427,-122.1721916,-2.900000095367432,3.7401514,6.586,16.692516,1677716815846,,,1151619070266330,3.234159,Bike
Fix,GPS,37.4281773279,-122.1721848831,-3.196792501918988,3.590963,4.2654467,13.11703,1677716814000,0.29498658,4.334741,1151619887424000,3.8195205,Bike
Fix,FLP,37.4281646,-122.1721823,-2.900000095367432,3.766153,6.722,17.3607,1677716816388,,,1151619612838900,3.244169,Bike
Fix,FLP,37.4281798,-122.172177,-2.900000095367432,3.6272044,6.724,14.975165,1677716816908,,,1151620132385409,3.244169,Bike
Fix,FLP,37.4281973,-122.1721725,-2.900000095367432,3.6079552,6.688,12.120143,1677716817475,,,1151620698006442,3.244169,Bike
Fix,GPS,37.4282138578,-122.1721761832,-3.4341756384149207,4.0410457,4.265497,11.647582,1677716815000,0.049056306,1.0,1151620887645000,3.7442575,Bike
Fix,GPS,37.4282527125,-122.1721651443,-3.494743819223449,4.1082873,4.2756133,12.542593,1677716816000,0.029797517,1.0,1151621887493000,3.6876574,Bike
Fix,FLP,37.4282362,-122.1721617,-2.900000095367432,3.9892294,6.833,12.920502,1677716818560,,,1151621783166049,3.264179,Bike
Fix,FLP,37.4282768,-122.1721519,-2.900000095367432,4.09924,6.856,14.277534,1677716819604,,,1151622828000000,3.264179,Bike
Fix,GPS,37.4282877033,-122.1721533089,-3.5165285520641225,4.031007,4.2655983,13.757796,1677716817000,0.0231277,1.0,1151622887473000,3.6188605,Bike
Fix,GPS,37.4283218976,-122.1721384972,-3.5356281107407246,4.05816,4.2026095,16.367735,1677716818000,0.023905834,1.0,1151623887642000,3.5584927,Bike
Fix,FLP,37.4283187,-122.1721381,-1.6999999284744265,4.0360637,6.766,16.361937,1677716820730,,,1151623953484164,3.284179,Bike
Fix,FLP,37.4283371,-122.1721258,-1.6999999284744265,4.049071,6.72,17.05826,1677716821272,,,1151624496063510,3.284179,Bike
Fix,GPS,37.4283570047,-122.1721246209,-3.4153653358219835,4.018742,4.159574,16.985094,1677716819000,0.050673254,1.0,1151624887449000,3.5063508,Bike
Fix,FLP,37.4283496,-122.172119,-1.6999999284744265,4.064582,6.762,17.384064,1677716821815,,,1151625038644503,3.294169,Bike
Fix,FLP,37.4283784,-122.1721078,-1.6999999284744265,4.015062,6.906,16.938105,1677716822358,,,1151625581222018,3.294169,Bike
Fix,GPS,37.4283924874,-122.1721111845,-3.216767199358375,3.8516183,4.0273786,17.159782,1677716820000,0.29070303,4.0067134,1151625887716000,3.5338264,Bike
Fix,FLP,37.4283931,-122.1721005,-1.6999999284744265,3.886178,6.859,16.812092,1677716822899,,,1151626123801058,3.3031788,Bike
Fix,GPS,37.428427004,-122.172098768,-3.078632827766497,3.513271,4.027454,18.13617,1677716821000,0.30974808,4.892615,1151626887719000,3.5928016,Bike
Fix,FLP,37.4284107,-122.1720928,-1.6999999284744265,3.865459,6.808,16.506044,1677716823443,,,1151626666377169,3.3131988,Bike
Fix,GPS,37.4284604412,-122.172086715,-2.672868672603117,3.5409894,4.0275292,14.701756,1677716822000,0.29880315,4.823458,1151627887779000,3.688304,Bike
Fix,FLP,37.4284463,-122.1720768,-1.6999999284744265,3.5588374,6.799,17.38877,1677716824528,,,1151627751537631,3.3231788,Bike
Fix,FLP,37.4284695,-122.1720709,-1.6999999284744265,3.548586,6.805,14.353706,1677716825071,,,1151628294116244,3.3231788,Bike
Fix,GPS,37.4284940558,-122.1720774392,-2.933958278649336,3.8684225,4.079233,13.063577,1677716823000,0.33044583,4.902506,1151628887496000,3.8110619,Bike
Fix,FLP,37.4284833,-122.1720678,-1.6999999284744265,3.5556767,6.839,12.545047,1677716825613,,,1151628836694857,3.3331888,Bike
Fix,FLP,37.4285047,-122.1720631,-1.6999999284744265,3.8123012,6.778,13.263961,1677716826156,,,1151629379273165,3.3331888,Bike
Fix,GPS,37.4285290267,-122.1720676624,-3.369377957913174,4.087452,4.4101,14.526049,1677716824000,0.36170712,4.972337,1151629887613000,3.9535203,Bike
Fix,FLP,37.4285255,-122.1720569,-1.6999999284744265,3.8538404,6.749,15.615703,1677716826697,,,1151629921846225,3.3442588,Bike
Fix,GPS,37.4285648383,-122.1720529941,-3.492425040707134,3.6734614,4.373116,22.73309,1677716825000,0.35636157,5.313104,1151630887748000,4.1048284,Bike
Fix,FLP,37.4285593,-122.1720433,1.7811197914699832,4.0318713,6.888,20.724674,1677716827783,,,1151631007008761,3.3542788,Bike
Fix,FLP,37.4285792,-122.1720329,1.7811197914699832,3.7237751,6.998,25.856802,1677716828286,,,1151631509000000,3.3542788,Bike
Fix,GPS,37.4285961163,-122.1720318043,-3.458319504786522,3.2491333,5.023227,30.712492,1677716826000,0.41831425,6.9631042,1151631887548000,4.3399277,Bike
Fix,FLP,37.4286008,-122.1720232,0.0024891078975493,3.3128512,7.238,29.809053,1677716828869,,,1151632092165316,3.363199,Bike
Fix,FLP,37.4286125,-122.1720112,0.0024891078975493,3.2561758,7.346,35.92892,1677716829411,,,1151632634743685,3.363199,Bike
Fix,GPS,37.4286155165,-122.1720056902,-3.491089654973401,3.1245327,5.4226065,46.56621,1677716827000,0.42158118,7.3331523,1151632887475000,4.5212884,Bike
Fix,FLP,37.4286315,-122.171984,1.224108799065352,3.1487765,7.697,52.16853,1677716830495,,,1151633719899874,3.373309,Bike
Fix,GPS,37.4286322856,-122.1719735816,-3.337605893871457,3.0976381,5.7849135,60.54074,1677716828000,0.47059178,8.341822,1151633887711000,4.691397,Bike
Fix,GPS,37.4286454911,-122.1719357335,-2.5900989120813644,3.2183774,6.0581875,74.71535,1677716829000,0.50039655,8.443297,1151634887553000,4.8654156,Bike
Fix,NLP,37.426084,-122.1726537,,,899.999,,1677716831715,,,1151634938000000,,Bike
Fix,FLP,37.4286465,-122.1719455,0.0300540073944759,3.1180377,8.289,68.19296,1677716831582,,,1151634805057650,3.393159,Bike
Fix,FLP,37.4286515,-122.1719177,0.0300540073944759,3.2121303,8.683,75.48926,1677716832124,,,1151635347628390,3.393159,Bike
Fix,GPS,37.4286545984,-122.1718873901,-2.574794885450176,2.9708438,6.2612705,79.70356,1677716830000,0.49796835,9.074277,1151635887559000,5.069287,Bike
Fix,FLP,37.4286535,-122.1719037,-1.6999999284744265,3.221271,8.762,75.635315,1677716832667,,,1151635890216586,3.403169,Bike
Fix,FLP,37.4286575,-122.1718709,-1.6999999284744265,2.9971972,9.124,76.89433,1677716833209,,,1151636432796725,3.403169,Bike
Fix,GPS,37.4286564621,-122.1718387615,-2.808396576013538,2.6504543,6.3730764,88.52301,1677716831000,0.47081828,10.085121,1151636887596000,5.2773943,Bike
Fix,FLP,37.4286579,-122.1718626,-1.6999999284744265,2.9855206,9.419,77.58715,1677716833751,,,1151636975379184,3.413179,Bike
Fix,GPS,37.428641197,-122.171794959,-3.95413331275512,2.507969,6.3104973,93.87478,1677716832000,0.40888014,9.196689,1151637887763000,5.414588,Bike
Fix,FLP,37.4286594,-122.1718256,-1.6999999284744265,2.6720445,9.797,91.07161,1677716834293,,,1151637517956332,3.423219,Bike
Fix,FLP,37.4286527,-122.17181,-1.6999999284744265,2.5595758,9.997,92.446266,1677716834839,,,1151638063000000,3.423219,Bike
Fix,FLP,37.4286459,-122.1717871,-1.6999999284744265,2.5131316,10.095,86.222046,1677716835380,,,1151638603117037,3.423219,Bike
Fix,GPS,37.4286327553,-122.1717531414,-4.588762097451368,3.1468105,6.151389,85.20291,1677716833000,0.4072798,7.5375996,1151638887637000,5.4857855,Bike
Fix,FLP,37.4286375,-122.171758,-8.540849488161477,3.0490627,10.279,84.149284,1677716835908,,,1151639132385409,3.433179,Bike
Fix,GPS,37.4286333073,-122.1717219025,-5.607367406927304,3.0547018,6.072424,62.911594,1677716834000,0.42820984,7.7057023,1151639887579000,5.5783424,Bike
Fix,FLP,37.4286371,-122.1717372,-8.57246599631244,3.0887532,10.315,73.38367,1677716836464,,,1151639688277499,3.443189,Bike
Fix,FLP,37.4286389,-122.1717159,-8.57246599631244,3.0213218,10.226,60.899044,1677716837007,,,1151640230847933,3.443189,Bike
Fix,GPS,37.4286456486,-122.1716908833,-6.109364981821969,3.2399337,5.973381,49.860817,1677716835000,0.42509913,7.1388054,1151640887775000,5.6069,Bike
Fix,FLP,37.4286437,-122.1717052,-6.654353803292855,3.034145,10.25,52.420334,1677716837549,,,1151640773437838,3.4531689,Bike
Fix,GPS,37.4286671433,-122.1716672578,-5.930910487451437,3.2011478,5.9977956,42.036514,1677716836000,0.43717638,7.4200587,1151641887683000,5.638224,Bike
Fix,FLP,37.4286628,-122.1716763,-5.33932084172544,3.2091138,10.091,43.95607,1677716838635,,,1151641858598971,3.463189,Bike
Fix,GPS,37.4286888509,-122.1716547435,-6.149731926150441,2.9577055,5.810692,30.697449,1677716837000,0.4357412,7.9448514,1151642887917000,5.6290774,Bike
Fix,FLP,37.4286897,-122.1716505,-2.900000095367432,3.2142882,9.908,37.13299,1677716839720,,,1151642943760775,3.4731889,Bike
Fix,GPS,37.42871693,-122.1716441337,-6.680019822146401,2.9705136,5.977049,23.835388,1677716838000,0.44600376,8.179884,1151643887754000,5.6129336,Bike
Fix,FLP,37.4287181,-122.171636,-1.6999999284744265,2.9961257,9.43,26.757889,1677716840805,,,1151644028922641,3.4831688,Bike
Fix,GPS,37.4287475272,-122.1716344084,-6.914095691622184,3.1498873,6.071987,26.228525,1677716839000,0.43856317,7.6371393,1151644888028000,5.581324,Bike
Fix,FLP,37.4287396,-122.171629,-1.6999999284744265,2.9685898,9.085,24.358252,1677716841347,,,1151644571503939,3.4931889,Bike
Fix,FLP,37.4287651,-122.1716194,-1.6999999284744265,3.1273425,9.208,23.31627,1677716842433,,,1151645656667025,3.4931889,Bike
Fix,GPS,37.4287790866,-122.171619796,-7.125635828398809,3.4557867,6.2400494,26.908293,1677716840000,0.3962126,6.039138,1151645887688000,5.5343294,Bike
Fix,GPS,37.4288173097,-122.1716022463,-7.225589354454954,3.4834917,6.047998,28.47444,1677716841000,0.41032174,6.3776937,1151646887809000,5.485528,Bike
Fix,FLP,37.4287978,-122.1716055,-1.6999999284744265,3.41629,9.462,23.222172,1677716843517,,,1151646741830172,3.5131888,Bike
Fix,GPS,37.428852246,-122.1715815231,-7.681585521283531,3.338606,6.0236664,29.364357,1677716842000,0.40196925,6.527412,1151647887733000,5.4444513,Bike
Fix,FLP,37.4288349,-122.171585,-2.900000095367432,3.4932241,9.459,21.109783,1677716844603,,,1151647826990328,3.5231788,Bike
Fix,FLP,37.428872,-122.171561,-2.900000095367432,3.3612523,9.496,25.156698,1677716845689,,,1151648912156283,3.5231788,Bike
Fix,GPS,37.4288874248,-122.1715614808,-8.253852277693797,3.405534,6.004878,27.095602,1677716843000,0.38819453,6.122852,1151648887762000,5.4249015,Bike
Fix,FLP,37.4288964,-122.1715465,-2.900000095367432,3.4015284,9.452,24.159601,1677716846231,,,1151649454737643,3.5331788,Bike
Fix,GPS,37.4289223115,-122.1715495627,-8.873614497994561,3.1923633,6.0888243,19.569456,1677716844000,0.38660964,6.4025726,1151649887778000,5.45461,Bike
Fix,FLP,37.4289077,-122.1715407,-2.900000095367432,3.4141397,9.426,23.33514,1677716846774,,,1151649997318637,3.5431688,Bike
Fix,FLP,37.4289342,-122.1715317,-2.900000095367432,3.2267041,9.459,18.23559,1677716847316,,,1151650539899874,3.5431688,Bike
Fix,GPS,37.428957465,-122.1715411759,-9.038940124668189,3.029577,6.1493893,17.152727,1677716845000,0.39300618,6.674104,1151650887798000,5.4362116,Bike
Fix,FLP,37.4289535,-122.1715302,-1.6999999284744265,3.064144,9.526,16.230984,1677716847859,,,1151651082472567,3.5531788,Bike
Fix,FLP,37.4289698,-122.171526,-1.6999999284744265,3.0384977,9.477,13.11399,1677716848401,,,1151651625064975,3.5531788,Bike
Fix,GPS,37.4289907906,-122.1715327449,-9.380407127772822,3.2381654,6.1945066,16.6193,1677716846000,0.40385774,6.4437866,1151651887794000,5.461499,Bike
Fix,GPS,37.4290264821,-122.1715161085,-10.03052174836081,3.3522098,6.09251,17.406942,1677716847000,0.42542896,6.68384,1151652887855000,5.5273004,Bike
Fix,FLP,37.4290032,-122.1715196,-1.6999999284744265,3.215231,9.525,14.290755,1677716849487,,,1151652710223727,3.5731788,Bike
Fix,GPS,37.4290631666,-122.171499959,-10.399493791383447,3.685401,6.098269,17.167852,1677716848000,0.43381363,5.9040327,1151653887824000,5.59958,Bike
Fix,FLP,37.4290391,-122.1715064,-1.6999999284744265,3.334053,9.505,19.039242,1677716850571,,,1151653795384799,3.5831988,Bike
Fix,GPS,37.4290973219,-122.1714838924,-10.82119858360803,3.585381,6.136072,18.195759,1677716849000,0.4274504,6.0518827,1151654887832000,5.6713634,Bike
Fix,FLP,37.4290751,-122.1714931,-1.6999999284744265,3.6572316,9.506,16.55342,1677716851657,,,1151654880533297,3.593169,Bike
Fix,FLP,37.4291023,-122.1714809,-1.6999999284744265,3.5935771,9.572,16.85766,1677716852200,,,1151655423125033,3.593169,Bike
Fix,GPS,37.4291323913,-122.1714685741,-10.980285361228232,3.564603,6.1012545,20.025175,1677716850000,0.4367143,6.2268276,1151655887815000,5.739914,Bike
Fix,FLP,37.4291088,-122.1714777,-1.6999999284744265,3.5928912,9.682,17.034672,1677716852742,,,1151655965704867,3.603169,Bike
Fix,FLP,37.4291362,-122.1714632,-1.6999999284744265,3.568121,9.589,18.091814,1677716853284,,,1151656508284457,3.603169,Bike
Fix,GPS,37.429169853,-122.1714484219,-11.090129211011448,3.6025019,6.175267,19.614763,1677716851000,0.4551529,6.4538784,1151656887842000,5.815279,Bike
Fix,GPS,37.4292055165,-122.1714297191,-11.306639229834088,3.484834,6.252986,19.764793,1677716852000,0.44096407,6.640716,1151657887995000,5.874031,Bike
Fix,FLP,37.4291725,-122.1714469,-1.6999999284744265,3.600665,9.612,18.802807,1677716854370,,,1151657593443209,3.623179,Bike
Fix,FLP,37.4291975,-122.1714339,-1.6999999284744265,3.5167646,9.594,18.221897,1677716854908,,,1151658132385409,3.623179,Bike
Fix,GPS,37.4292478258,-122.1714070063,-11.8496787936804,3.552342,6.1914253,23.029596,1677716853000,0.4129049,6.227377,1151658888024000,5.846223,Bike
Fix,FLP,37.4292134,-122.1714256,-1.6999999284744265,3.4826312,9.619,22.96735,1677716855455,,,1151658678601046,3.633189,Bike
Fix,FLP,37.4292325,-122.171415,-1.6999999284744265,3.5424845,9.681,24.777512,1677716855997,,,1151659221179721,3.633189,Bike
Fix,GPS,37.4292897145,-122.1713775692,-11.629517180780454,3.8248823,5.9419365,49.678062,1677716854000,0.41047412,5.9663057,1151659887860000,5.719685,Bike
Fix,FLP,37.4292549,-122.1714002,-1.6999999284744265,3.5330272,9.835,38.432285,1677716856540,,,1151659763758334,3.643169,Bike
Fix,FLP,37.4292836,-122.1713719,-1.6999999284744265,3.830942,9.891,58.849266,1677716857082,,,1151660306336154,3.643169,Bike
Fix,GPS,37.4293141177,-122.1713315052,-10.903945080255903,3.7632303,5.5479355,85.35157,1677716855000,0.40589592,5.9108863,1151660887956000,5.5628433,Bike
Fix,FLP,37.4292911,-122.1713564,-9.378647003033102,3.8364108,9.944,74.52234,1677716857624,,,1151660848914096,3.653219,Bike
Fix,GPS,37.429309608,-122.1712792272,-10.55673657912211,3.968967,5.2888103,107.33613,1677716856000,0.32646388,4.5735984,1151661887969000,5.4185915,Bike
Fix,FLP,37.4293117,-122.1713038,-11.827313659693507,3.7736099,9.922,68.20894,1677716858711,,,1151661934072848,3.663189,Bike
Fix,GPS,37.4292904334,-122.1712228532,-10.239281243798398,4.4202943,4.9100842,110.2249,1677716857000,0.3110626,3.9436414,1151662887986000,5.248106,Bike
Fix,FLP,37.4293127,-122.1712495,-15.368799558147655,3.7989614,9.726,92.48598,1677716859796,,,1151663019224642,3.673169,Bike
Fix,FLP,37.4292956,-122.171202,-15.368799558147655,4.3000174,9.48,104.410904,1677716860338,,,1151663561801791,3.673169,Bike
Fix,GPS,37.4292703107,-122.1711678004,-10.087982721979834,4.6079235,4.577141,106.861984,1677716858000,0.29826733,3.6576955,1151663887953000,5.040318,Bike
Fix,FLP,37.4292818,-122.1711679,-4.822535452268433,4.565733,9.18,106.16833,1677716860880,,,1151664104379183,3.683169,Bike
Fix,GPS,37.4292601175,-122.1711144922,-10.432058643603632,4.2992516,4.415751,100.88386,1677716859000,0.29536238,3.8024354,1151664887976000,4.8853045,Bike
Fix,FLP,37.4292713,-122.1711327,17.498231182696024,4.612706,8.821,106.633545,1677716861423,,,1151664646953158,3.6931689,Bike
Fix,FLP,37.4292649,-122.1711128,17.498231182696024,4.4057302,8.498,104.160065,1677716861959,,,1151665183000000,3.6931689,Bike
Fix,GPS,37.4292515502,-122.1710664464,-10.588262288536235,4.5342097,4.4132752,100.91438,1677716860000,0.3079266,3.8893027,1151665887959000,4.7576423,Bike
Fix,FLP,37.429258,-122.1710777,12.76750344814706,4.3297777,8.049,99.7269,1677716862508,,,1151665732107211,3.7031689,Bike
Fix,FLP,37.4292476,-122.1710242,12.76750344814706,4.4851813,7.782,103.29643,1677716863594,,,1151666817246371,3.7031689,Bike
Fix,GPS,37.4292425378,-122.1710137302,-10.579244335648175,4.619062,4.4287415,104.05773,1677716861000,0.3193106,3.8910482,1151666887990000,4.6893077,Bike
Fix,FLP,37.4292389,-122.1709852,9.972039674838909,4.5922537,7.564,104.7042,1677716864136,,,1151667359839877,3.7134788,Bike
Fix,GPS,37.4292299187,-122.1709584048,-10.257742750875886,4.9981756,4.3761387,106.29038,1677716862000,0.32211804,3.6285405,1151667888037000,4.6204414,Bike
Fix,FLP,37.4292356,-122.1709715,12.76750344814706,4.6119685,7.467,105.762314,1677716864678,,,1151667902416781,3.723199,Bike
Fix,NLP,37.4299286,-122.1722743,1.899999976158142,,106.687,,1677716863844,,,1151667068000000,8.672456,Bike
Fix,FLP,37.4292222,-122.1709086,12.76750344814706,4.9362736,7.382,105.3389,1677716865221,,,1151668444993990,3.117953,Bike
Fix,GPS,37.4292165708,-122.1709020179,-10.28593116858886,5.196148,4.3639903,104.7085,1677716863000,0.3278108,3.4081013,1151668888040000,4.58716,Bike
Fix,FLP,37.4292176,-122.1708996,14.336619089432991,5.192445,7.022,104.01604,1677716865664,0.3278108,3.4081013,1151668888040000,3.124893,Bike
Fix,GPS,37.4292044378,-122.1708437293,-10.185630603140368,5.1101575,4.3291154,105.90976,1677716864000,0.31406584,3.3527186,1151669888002000,4.546658,Bike
Fix,FLP,37.429205,-122.1708433,5.319583758361151,5.1105437,6.731,104.995636,1677716866664,0.31406584,3.3527186,1151669888002000,3.133903,Bike
Fix,GPS,37.4291939581,-122.1707878606,-10.450938927386016,4.9253035,4.2838764,104.299,1677716865000,0.30823198,3.4448786,1151670888061000,4.4888883,Bike
Fix,FLP,37.4291937,-122.1707877,-8.260480495655331,4.926124,6.473,104.004196,1677716867665,0.30823198,3.4448786,1151670888061000,3.9458303,Bike
Fix,GPS,37.4291862521,-122.1707348885,-10.716315329670952,4.900481,4.3268213,104.80731,1677716866000,0.31779504,3.7445488,1151671888069000,4.448845,Bike
Fix,FLP,37.4291838,-122.1707339,-7.320812699540058,4.9887447,6.394,103.855896,1677716868664,,,1151671888069000,3.9558604,Bike
Fix,FLP,37.4291813,-122.1707107,-7.320812699540058,4.819123,6.434,91.1398,1677716869273,,,1151672497000000,3.9558604,Bike
Fix,GPS,37.4291789131,-122.1706797854,-10.642044008685415,4.801427,4.375391,105.17361,1677716867000,0.3164068,3.7153382,1151672888116000,4.4272304,Bike
Fix,FLP,37.42918,-122.1706809,-7.444204227604395,4.7036138,6.454,95.67241,1677716869811,,,1151673034290560,3.9658403,Bike
Fix,GPS,37.4291685282,-122.1706269078,-10.72322176982667,4.8498297,4.386457,105.30426,1677716868000,0.31662282,3.657317,1151673888094000,4.423192,Bike
Fix,FLP,37.429174,-122.1706455,-7.320812699540058,4.7249923,6.676,102.98129,1677716870352,,,1151673576864291,3.9758303,Bike
Fix,FLP,37.4291676,-122.1706218,-7.320812699540058,4.8216686,6.688,104.629295,1677716870896,,,1151674119444308,3.9758303,Bike
Fix,FLP,37.4291569,-122.1705807,-1.6999999284744265,4.845269,6.985,105.2788,1677716871439,,,1151674662021091,3.9858503,Bike
Fix,GPS,37.4291566593,-122.1705757955,-11.116006487575335,5.0066533,4.3552504,106.09332,1677716869000,0.3257664,3.6505013,1151674888202000,4.3994737,Bike
Fix,FLP,37.4291449,-122.1705288,-1.6999999284744265,4.9726624,6.981,106.34218,1677716872524,,,1151675747172579,3.9858503,Bike
Fix,GPS,37.4291421324,-122.1705222406,-11.21698832054969,5.242599,4.448702,105.999695,1677716870000,0.32658955,3.4289548,1151675888274000,4.4172225,Bike
Fix,FLP,37.4291434,-122.1705252,18.49074540579528,5.233388,6.996,105.03353,1677716872664,0.32658955,3.4289548,1151675888274000,3.9958403,Bike
Fix,GPS,37.4291287623,-122.1704668904,-11.075494525222076,5.408688,4.404785,101.97229,1677716871000,0.332448,3.3372967,1151676888362000,4.4440794,Bike
Fix,FLP,37.4291296,-122.1704672,18.49074540579528,5.4076734,6.751,101.01881,1677716873665,0.332448,3.3372967,1151676888362000,4.051732,Bike
Fix,GPS,37.4291169227,-122.1704103926,-11.192481126713806,5.3840246,4.3259306,102.766426,1677716872000,0.3111884,3.16213,1151677888121000,4.457252,Bike
Fix,FLP,37.429118,-122.1704093,-1.6999999284744265,5.384133,6.177,101.99586,1677716874665,0.3111884,3.16213,1151677888121000,4.061722,Bike
Fix,GPS,37.4291059141,-122.1703511673,-11.37890638822388,5.105408,4.23162,104.65538,1677716873000,0.30216888,3.3522334,1151678888126000,4.3978,Bike
Fix,FLP,37.4291066,-122.1703507,-2.900000095367432,5.1066065,5.64,103.99096,1677716875665,0.30216888,3.3522334,1151678888126000,4.071722,Bike
Fix,GPS,37.4290937448,-122.1702975355,-11.373227714188214,4.7685843,4.290904,106.25006,1677716874000,0.31273332,3.712777,1151679888227000,4.3735776,Bike
Fix,FLP,37.4290945,-122.1702955,-2.900000095367432,5.012211,5.448,104.98261,1677716876665,,,1151679888227000,4.081732,Bike
Fix,FLP,37.429089,-122.1702656,-2.900000095367432,4.714965,5.658,91.11263,1677716877262,,,1151680485683322,4.081732,Bike
Fix,GPS,37.4290810731,-122.1702467481,-11.526427423905377,4.668991,4.288849,105.160965,1677716875000,0.31080905,3.5883732,1151680888226000,4.377915,Bike
Fix,FLP,37.4290903,-122.1702626,-2.900000095367432,4.637472,6.091,81.92704,1677716877804,,,1151681028260531,4.091732,Bike
Fix,FLP,37.4290833,-122.1702132,-2.900000095367432,4.571194,6.451,98.33434,1677716878347,,,1151681570837863,4.091732,Bike
Fix,GPS,37.4290708153,-122.1701946722,-11.493031010721197,4.8665266,4.329701,103.25425,1677716876000,0.32344782,3.6180353,1151681888261000,4.400965,Bike
Fix,FLP,37.4290689,-122.1701662,-1.6999999284744265,4.8320346,6.918,102.55721,1677716879431,,,1151682655988436,4.1017423,Bike
Fix,GPS,37.4290602656,-122.1701407153,-10.859587774368077,5.2596407,4.3500543,104.740616,1677716877000,0.3224096,3.3232253,1151682888276000,4.3916435,Bike
Fix,FLP,37.4290628,-122.1701464,16.104166896238663,5.2542286,6.921,104.002205,1677716879665,0.3224096,3.3232253,1151682888276000,4.111722,Bike
Fix,GPS,37.4290476232,-122.1700824156,-10.367823690617632,5.3207064,4.337452,106.801994,1677716878000,0.29436743,3.069088,1151683888270000,4.353504,Bike
Fix,FLP,37.4290488,-122.1700845,-1.6999999284744265,5.32044,6.932,105.99236,1677716880664,0.29436743,3.069088,1151683888270000,4.1217523,Bike
Fix,GPS,37.4290346643,-122.170025512,-10.280268715758831,4.9574656,4.204204,106.10569,1677716879000,0.27734953,3.0625756,1151684888360000,4.286813,Bike
Fix,FLP,37.429035,-122.1700258,-7.581360465319122,4.9587827,6.643,105.99968,1677716881664,0.27734953,3.0625756,1151684888360000,4.131742,Bike
Fix,GPS,37.4290216428,-122.1699731473,-10.202160349677818,4.5575933,4.157012,107.253105,1677716880000,0.27261585,3.3093655,1151685888291000,4.238664,Bike
Fix,FLP,37.4290213,-122.1699733,-4.642976855651368,4.874383,6.027,106.75536,1677716882665,,,1151685888291000,4.141732,Bike
Fix,FLP,37.4290159,-122.1699613,-4.642976855651368,2.7092915,6.138,210.73308,1677716883180,,,1151686404283480,4.141732,Bike
Fix,GPS,37.429009255,-122.1699232943,-9.62776619412151,4.3485913,4.1721997,105.009026,1677716881000,0.28360438,3.5862818,1151686888319000,4.1848173,Bike
Fix,FLP,37.42901,-122.169971,-4.642976855651368,3.844267,6.616,226.8613,1677716883722,,,1151686946866915,4.152752,Bike
Fix,NLP,37.4283482,-122.1689405,2.0999999046325684,,135.6,,1677716884014,,,1151687238000000,63.26243,Bike
Fix,FLP,37.4290046,-122.1699437,-3.716169532804553,2.567329,7.236,146.70166,1677716884265,,,1151687489446627,3.9446952,Bike
Fix,GPS,37.4289995208,-122.1698739977,-9.069000397460076,4.366211,4.2240014,103.95515,1677716882000,0.28472576,3.552023,1151687888329000,4.1834817,Bike
Fix,FLP,37.4289961,-122.1698855,-3.5417123220592224,4.3310046,7.449,106.0217,1677716884809,,,1151688032022677,3.9398606,Bike
Fix,GPS,37.4289904313,-122.1698267692,-8.782600215191673,4.1532626,4.3731637,104.85359,1677716883000,0.27849838,3.6620054,1151688888328000,4.1754184,Bike
Fix,FLP,37.4289903,-122.1698454,-1.6999999284744265,4.3715463,7.764,104.98536,1677716885350,,,1151688574598666,3.9384294,Bike
Fix,FLP,37.4289872,-122.1698258,-1.6999999284744265,4.212703,7.723,104.33885,1677716885894,,,1151689117176425,3.9384294,Bike
Fix,FLP,37.428982,-122.169795,-1.6999999284744265,4.1716256,7.71,102.90558,1677716886435,,,1151689659750338,3.9384294,Bike
Fix,GPS,37.42898265,-122.169780113,-8.507007253592933,4.2635045,4.535586,101.83738,1677716884000,0.29249713,3.467859,1151689888328000,4.2233615,Bike
Fix,FLP,37.4289754,-122.1697462,0.0793426580893239,4.255833,8.015,102.01889,1677716887515,,,1151690739000000,3.9241683,Bike
Fix,GPS,37.4289765312,-122.1697326979,-8.309527365860143,4.4544992,4.5931883,101.46021,1677716885000,0.3127154,3.7706807,1151690888388000,4.2750587,Bike
Fix,FLP,37.4289707,-122.1697114,0.0793426580893239,4.409607,8.077,102.895035,1677716888064,,,1151691287476351,3.9245348,Bike
Fix,FLP,37.4289658,-122.1696865,0.0793426580893239,4.429348,7.856,105.23224,1677716888606,,,1151691830051303,3.9245348,Bike
Fix,GPS,37.4289694865,-122.1696824707,-8.217178243783854,4.4789047,4.6710744,105.441574,1677716886000,0.28045312,3.4414144,1151691888389000,4.322688,Bike
Fix,GPS,37.4289586181,-122.1696317062,-8.168687540539732,4.4487576,4.676513,106.79584,1677716887000,0.29956433,3.7272892,1151692888410000,4.308294,Bike
Fix,FLP,37.4289553,-122.1696358,-6.249474183452211,4.473087,7.725,105.84921,1677716889691,,,1151692915203830,3.9746687,Bike
Fix,GPS,37.4289479181,-122.1695831355,-8.265817780458082,4.4149117,4.4892693,105.6165,1677716888000,0.28416967,3.5148063,1151693888435000,4.284616,Bike
Fix,FLP,37.4289449,-122.1695834,-5.591612190816251,4.4527802,7.858,105.99548,1677716890776,,,1151694000342013,3.9504654,Bike
Fix,FLP,37.4289404,-122.1695543,-5.591612190816251,4.4205723,7.872,105.095505,1677716891318,,,1151694542923556,3.9504654,Bike
Fix,GPS,37.4289370747,-122.1695344997,-8.265892529305422,4.436354,4.6436763,105.79295,1677716889000,0.30762613,3.691911,1151694888438000,4.319133,Bike
Fix,FLP,37.4289318,-122.1695013,-3.565177536578224,4.4399514,7.98,103.1981,1677716892404,,,1151695628071261,3.9296079,Bike
Fix,GPS,37.4289268284,-122.169484026,-8.242859194466444,4.744878,4.498281,102.87298,1677716890000,0.30483058,3.366932,1151695888429000,4.356292,Bike
Fix,FLP,37.428926,-122.1694669,-1.3867158399720871,4.6966047,8.011,102.245544,1677716892946,,,1151696170633273,3.9220123,Bike
Fix,GPS,37.4289172328,-122.1694320477,-8.462585256899896,4.963721,4.4515634,102.93557,1677716891000,0.30846936,3.3424506,1151696888476000,4.397359,Bike
Fix,FLP,37.4289226,-122.1694473,-2.161230941676571,4.73821,7.957,102.34273,1677716893489,,,1151696713218478,3.9239554,Bike
Fix,FLP,37.428915,-122.1694135,-2.161230941676571,4.930827,7.876,102.0981,1677716894000,,,1151697223436251,3.9239554,Bike
Fix,GPS,37.4289049697,-122.1693796404,-8.432755528684535,4.9774027,4.3829136,103.88222,1677716892000,0.3120401,3.413201,1151697888481000,4.3672585,Bike
Fix,FLP,37.4289103,-122.169391,-2.559685703699952,4.9637465,7.781,102.49526,1677716894575,,,1151697798364718,3.9206429,Bike
Fix,GPS,37.4288937543,-122.1693256059,-8.256337462542435,4.7486115,4.523565,104.750175,1677716893000,0.3071606,3.4613154,1151698888545000,4.3908243,Bike
Fix,FLP,37.4288969,-122.1693319,-2.8428271603992066,4.9808464,7.724,103.93093,1677716895660,,,1151698883510470,3.9271712,Bike
Fix,GPS,37.4288835519,-122.1692731338,-8.181291815814667,4.663575,4.4901342,105.23376,1677716894000,0.3047867,3.5050402,1151699888546000,4.376857,Bike
Fix,FLP,37.428885,-122.1692728,-2.559685703699952,4.787878,7.824,103.24787,1677716896745,,,1151699968655246,3.9248245,Bike
Fix,GPS,37.4288714073,-122.1692216901,-8.118078001712147,4.691529,4.4046097,105.22733,1677716895000,0.3041366,3.4464035,1151700888445000,4.405412,Bike
Fix,FLP,37.4288764,-122.169236,-3.865628548654266,4.6552396,7.669,105.36028,1677716897288,,,1151700511227511,3.9424777,Bike
Fix,FLP,37.4288695,-122.1692107,-3.865628548654266,4.6846676,7.628,104.50821,1677716897830,,,1151701053795260,3.9424777,Bike
Fix,GPS,37.428860301,-122.1691685523,-7.993302389423478,4.966536,4.627524,104.16567,1677716896000,0.33412692,3.652571,1151701888542000,4.426098,Bike
Fix,FLP,37.4288645,-122.1691902,-1.740307624531777,4.7037854,7.661,103.39416,1677716898372,,,1151701596371554,3.9288743,Bike
Fix,FLP,37.4288589,-122.1691578,-1.740307624531777,4.9153843,7.719,103.60498,1677716898914,,,1151702138931857,3.9288743,Bike
Fix,GPS,37.4288495022,-122.1691122559,-8.18531989006954,4.994074,4.4228907,103.22229,1677716897000,0.2941393,3.0961409,1151702888545000,4.4090614,Bike
Fix,FLP,37.4288535,-122.1691301,-5.630881358953428,4.9553323,7.863,104.217415,1677716899458,,,1151702681503878,3.993883,Bike
Fix,FLP,37.4288427,-122.1690765,-5.630881358953428,4.9944224,7.837,104.93544,1677716900510,,,1151703734000000,3.993883,Bike
Fix,GPS,37.428837873,-122.1690594584,-8.058614048650774,4.856412,4.3729744,108.1404,1677716898000,0.30102932,3.3030205,1151703888506000,4.380318,Bike
Fix,GPS,37.4288239483,-122.1690070172,-7.938960543692564,4.731532,4.4962797,107.024895,1677716899000,0.33635998,3.8075163,1151704888697000,4.400648,Bike
Fix,FLP,37.4288285,-122.1690114,-3.397858931127937,4.8643646,7.7,107.359795,1677716901628,,,1151704851807162,3.9543386,Bike
Fix,GPS,37.4288090696,-122.1689546341,-7.537886747928258,4.79386,4.5216713,105.33352,1677716900000,0.33150765,3.7967823,1151705888576000,4.416111,Bike
Fix,FLP,37.428813,-122.1689567,-3.7727908360774265,4.7596545,7.624,107.469925,1677716902713,,,1151705936945345,3.981361,Bike
Fix,FLP,37.4288043,-122.1689265,-3.7727908360774265,4.796368,7.653,105.74833,1677716903256,,,1151706479520541,3.981361,Bike
Fix,GPS,37.4287949509,-122.1689033327,-6.770906544878073,5.01068,4.7507677,106.107025,1677716901000,0.34791785,3.7918124,1151706888550000,4.5032763,Bike
Fix,FLP,37.4287992,-122.1689045,-1.5418286313789942,4.812617,7.658,105.135994,1677716903799,,,1151707022092746,3.9614296,Bike
Fix,GPS,37.4287811267,-122.1688460447,-6.735663914513425,5.101624,4.697256,105.4441,1677716902000,0.3296582,3.5225546,1151707888624000,4.610952,Bike
Fix,FLP,37.4287841,-122.1688511,-2.037252069446833,5.09964,7.17,105.0071,1677716904665,0.3296582,3.5225546,1151707888624000,3.9873683,Bike
Fix,GPS,37.4287676397,-122.1687870597,-6.530152720897045,5.112489,4.6805954,103.54779,1677716903000,0.3345315,3.4967823,1151708888653000,4.6574397,Bike
Fix,FLP,37.4287691,-122.1687898,-2.0984764311351256,5.1123953,6.839,103.00949,1677716905665,0.3345315,3.4967823,1151708888653000,4.0086327,Bike
Fix,GPS,37.4287559909,-122.1687285554,-6.322256590080546,5.129468,4.5145802,99.56101,1677716904000,0.32881317,3.460547,1151709888776000,4.6337714,Bike
Fix,FLP,37.4287569,-122.1687301,-2.298472922520883,5.1292944,6.482,99.018425,1677716906665,0.32881317,3.460547,1151709888776000,4.0237513,Bike
Fix,GPS,37.4287491582,-122.168667699,-6.4190995850510415,5.0622897,4.3336926,102.3197,1677716905000,0.29726818,3.0988426,1151710888645000,4.5172806,Bike
Fix,FLP,37.4287493,-122.1686693,-3.4616240341346,5.062577,6.031,101.98895,1677716907664,0.29726818,3.0988426,1151710888645000,4.0667915,Bike
Fix,GPS,37.4287402386,-122.1686094044,-6.364843707985076,4.9840665,4.2559166,104.54511,1677716906000,0.29439723,3.1740634,1151711888669000,4.001631,Bike
Fix,FLP,37.4287401,-122.1686106,-3.046377050674412,4.9843955,4.987,103.992355,1677716908665,0.29439723,3.1740634,1151711888669000,3.9426796,Bike
Fix,GPS,37.4287284692,-122.1685557251,-6.647796766089563,4.877279,4.3188934,105.26891,1677716907000,0.3146797,3.4499834,1151712888778000,3.7217784,Bike
Fix,FLP,37.4287293,-122.1685559,-3.4947816976086514,5.007048,4.974,103.95813,1677716909664,,,1151712888778000,3.9337204,Bike
Fix,GPS,37.4287156752,-122.1685038757,-6.528131691390175,4.679877,4.2874007,103.77849,1677716908000,0.30605942,3.5513084,1151713888696000,3.5301569,Bike
Fix,FLP,37.4287213,-122.1685195,-3.4616240341346,4.900824,6.28,102.73076,1677716910815,,,1151714039347628,3.8830605,Bike
Fix,GPS,37.4287056552,-122.1684525546,-6.979155345232113,4.6777706,4.314486,101.80196,1677716909000,0.3032569,3.5901246,1151714888735000,3.4269185,Bike
Fix,FLP,37.4287112,-122.1684691,-4.678680113357084,4.705799,6.386,102.587296,1677716911358,,,1151714581917697,3.7131436,Bike
Fix,GPS,37.4286981522,-122.1683984434,-6.55855343580784,4.5426865,4.464651,103.11707,1677716910000,0.2946936,3.4858358,1151715888729000,3.343391,Bike
Fix,FLP,37.4287014,-122.1684167,-6.048382647363908,4.6852374,7.253,102.10842,1677716912443,,,1151715667054537,3.5425804,Bike
Fix,FLP,37.4286968,-122.1683908,-6.048382647363908,4.578817,7.293,103.23911,1677716913031,,,1151716255000000,3.5425804,Bike
Fix,GPS,37.4286887958,-122.1683457859,-6.4925270739599625,4.4197235,4.4509153,107.98126,1677716911000,0.3001507,3.5385184,1151716888759000,3.2768552,Bike
Fix,FLP,37.4286894,-122.1683544,-5.567859487567839,4.547,7.802,104.69428,1677716913636,,,1151716860715304,3.6318493,Bike
Fix,GPS,37.4286761549,-122.1682978714,-5.968609154346818,4.319442,4.399282,108.61697,1677716912000,0.2821978,3.4254348,1151717888776000,3.24976,Bike
Fix,FLP,37.4286778,-122.1683039,-4.830187983646265,4.443618,7.815,106.988785,1677716914721,,,1151717945836337,3.5969179,Bike
Fix,FLP,37.4286683,-122.1682655,-4.830187983646265,4.3358617,8.228,107.081154,1677716915264,,,1151718488416964,3.5969179,Bike
Fix,GPS,37.428663718,-122.1682528424,-5.6654608773525865,4.413839,4.339656,108.27079,1677716913000,0.287629,3.5513015,1151718888721000,3.1973858,Bike
Fix,FLP,37.4286661,-122.1682566,-4.830187983646265,4.3364697,7.6,107.376015,1677716915806,,,1151719030985812,3.4700565,Bike
Fix,NLP,37.4284403,-122.1683947,0.2999999821186065,,72.9,,1677716915579,,,1151718802000000,9.895531,Bike
Fix,FLP,37.4286547,-122.1682153,-2.639272368663754,4.372261,7.584,108.31958,1677716916349,,,1151719573554354,4.927027,Bike
Fix,GPS,37.4286527728,-122.1682049227,-6.536225829496972,4.38959,4.3319883,111.122345,1677716914000,0.29255354,3.7944834,1151719888762000,3.1608481,Bike
Fix,FLP,37.4286495,-122.1681913,-3.707497768182824,4.3664684,7.611,109.85737,1677716916893,,,1151720116119845,4.321795,Bike
Fix,GPS,37.4286356522,-122.1681516822,-4.961608229824533,4.2816396,4.541297,119.302124,1677716915000,0.29220363,3.704554,1151720888873000,3.1536052,Bike
Fix,FLP,37.4286446,-122.1681738,-4.676129885664251,4.3657317,7.598,112.54571,1677716917434,,,1151720658691378,4.964845,Bike
Fix,FLP,37.4286258,-122.1681242,-4.676129885664251,4.309995,7.649,115.288994,1677716918520,,,1151721743827853,4.964845,Bike
Fix,GPS,37.428616399,-122.1681123146,-4.350112348533544,4.3462844,4.6206107,114.37879,1677716916000,0.32957715,4.2369094,1151721888772000,3.160326,Bike
Fix,FLP,37.4286146,-122.1681,0.2999999821186065,4.363421,7.719,113.29472,1677716919065,,,1151722288000000,5.290946,Bike
Fix,GPS,37.4286004994,-122.1680664677,-4.2743470491290605,4.459681,4.7034707,105.40433,1677716917000,0.31175295,4.0381207,1151722888802000,3.1871586,Bike
Fix,FLP,37.428605,-122.1680752,0.2999999821186065,4.3753195,7.779,109.69121,1677716919605,,,1151722828963839,5.6405497,Bike
Fix,GPS,37.4285905523,-122.1680158801,-4.991013212184837,4.5431576,4.8686695,95.84666,1677716918000,0.3333069,4.2522683,1151723888795000,3.2241647,Bike
Fix,FLP,37.4285927,-122.1680236,-2.347961119951332,4.479839,7.941,100.24795,1677716920691,,,1151723914100191,5.573233,Bike
Fix,FLP,37.4285881,-122.1679857,-2.347961119951332,4.532666,8.062,97.409294,1677716921232,,,1151724456667208,5.573233,Bike
Fix,GPS,37.428589167,-122.1679761775,-4.966195572567616,4.5972342,4.90742,94.58397,1677716919000,0.36710683,4.7016273,1151724888797000,3.271919,Bike
Fix,FLP,37.4285875,-122.1679571,-4.088026834167158,4.5859127,8.215,94.804,1677716921776,,,1151724999225802,5.839644,Bike
Fix,GPS,37.428589095,-122.1679306075,-5.784433013477995,4.408781,4.9209948,99.3857,1677716920000,0.3708918,4.865932,1151725888803000,3.318505,Bike
Fix,FLP,37.4285868,-122.1679365,-5.359563382471194,4.5890617,8.305,95.62604,1677716922318,,,1151725541803195,5.6872907,Bike
Fix,FLP,37.4285865,-122.167926,-5.359563382471194,4.449452,8.446,97.364975,1677716922861,,,1151726084372226,5.6872907,Bike
Fix,GPS,37.4285845641,-122.1678854396,-5.8163565975816525,4.4018984,4.909539,102.00858,1677716921000,0.36480525,4.7758813,1151726888828000,3.3523703,Bike
Fix,FLP,37.4285834,-122.1678903,-3.921228668573836,4.4017906,8.491,99.06518,1677716923402,,,1151726626939669,5.5989933,Bike
Fix,FLP,37.4285803,-122.1678679,-3.921228668573836,4.3843327,8.497,101.136696,1677716923945,,,1151727169498690,5.5989933,Bike
Fix,GPS,37.4285766771,-122.1678414045,-7.245796385919436,4.222676,5.0749607,106.46273,1677716922000,0.39908102,5.506569,1151727888833000,3.4021683,Bike
Fix,FLP,37.4285766,-122.1678459,-3.5942539076871096,4.3934765,8.541,102.12578,1677716924489,,,1151727712086215,5.882125,Bike
Fix,FLP,37.428572,-122.167818,-3.5942539076871096,4.2432027,8.563,103.93338,1677716925031,,,1151728254656222,5.882125,Bike
Fix,GPS,37.4285627821,-122.1677835192,-6.768317658015329,4.6644177,5.2908735,107.11975,1677716923000,0.40683937,4.9963493,1151728888852000,3.4823039,Bike
Fix,FLP,37.4285691,-122.1678027,0.2999999821186065,4.2362924,8.609,103.466095,1677716925574,,,1151728797232883,5.714272,Bike
Fix,FLP,37.4285609,-122.1677687,0.2999999821186065,4.5764446,8.633,105.25959,1677716926115,,,1151729339804355,5.714272,Bike
Fix,GPS,37.4285489235,-122.1677226841,-7.514017509776879,4.9456153,5.403854,108.909096,1677716924000,0.41349968,4.78308,1151729888932000,3.5698106,Bike
Fix,FLP,37.4285541,-122.1677412,0.2999999821186065,4.649786,8.607,106.23667,1677716926659,,,1151729882382907,5.723419,Bike
Fix,FLP,37.428544,-122.167702,0.2999999821186065,4.8678155,8.688,107.36068,1677716927200,,,1151730424958774,5.723419,Bike
Fix,GPS,37.4285341126,-122.1676575067,-7.903557786063608,5.342279,5.3849382,107.3796,1677716925000,0.43600684,4.627337,1151730888880000,3.6240087,Bike
Fix,FLP,37.4285368,-122.1676707,-3.734533240285536,5.3335886,8.417,107.02206,1677716927664,0.43600684,4.627337,1151730888880000,5.9157715,Bike
Fix,GPS,37.4285196363,-122.1675877796,-7.765580249053938,5.0711384,5.3820434,108.41716,1677716926000,0.4250608,4.5128546,1151731888903000,3.67228,Bike
Fix,FLP,37.4285207,-122.1675967,-3.863078075665912,5.0734506,8.097,107.99117,1677716928664,0.4250608,4.5128546,1151731888903000,5.9186974,Bike
Fix,GPS,37.4285059546,-122.1675334153,-6.990962274952099,5.005528,5.3134327,109.745834,1677716927000,0.41230202,4.507847,1151732888913000,3.6867566,Bike
Fix,FLP,37.4285062,-122.1675363,-3.717189739823216,5.0061026,7.753,108.992134,1677716929665,0.41230202,4.507847,1151732888913000,5.7560787,Bike
Fix,GPS,37.4284946587,-122.1674796714,-6.431443692432056,5.0234175,5.317501,108.42692,1677716928000,0.41140416,4.462231,1151733888933000,3.6982102,Bike
Fix,FLP,37.4284936,-122.1674807,-3.543242664120733,5.0232654,7.098,108.00719,1677716930664,0.41140416,4.462231,1151733888933000,5.6914344,Bike
Fix,GPS,37.4284830671,-122.1674211539,-6.841535847422399,4.961908,5.427588,107.012634,1677716929000,0.44144034,5.0482793,1151734888947000,3.7423646,Bike
Fix,FLP,37.4284821,-122.1674256,-4.028857219381154,4.966485,6.946,107.22239,1677716931664,,,1151734888947000,5.978323,Bike
Fix,GPS,37.4284701406,-122.1673707869,-6.657883664086249,4.8044763,5.4797597,107.970985,1677716930000,0.4257621,5.033647,1151735888964000,3.7673244,Bike
Fix,FLP,37.4284797,-122.1673911,-4.438955347318679,4.696113,7.231,80.407684,1677716932228,,,1151735452848910,5.848693,Bike
Fix,FLP,37.4284731,-122.167364,-4.438955347318679,4.6396837,7.588,97.11794,1677716932772,,,1151735995443332,5.848693,Bike
Fix,GPS,37.4284598747,-122.1673186116,-6.200505316923864,4.7713194,5.419357,108.26237,1677716931000,0.40297195,4.85226,1151736888979000,3.74854,Bike
Fix,FLP,37.4284637,-122.1673374,-4.147706112310077,4.728521,8.295,103.46731,1677716933315,,,1151736538012240,5.7005577,Bike
Fix,FLP,37.4284592,-122.16732,-4.147706112310077,4.7367353,8.451,106.29765,1677716933857,,,1151737080607943,5.7005577,Bike
Fix,FLP,37.4284516,-122.1672926,-4.147706112310077,4.7472653,8.56,108.726746,1677716934399,,,1151737623190646,5.7005577,Bike
Fix,GPS,37.4284484452,-122.1672647207,-5.695124437929081,4.9674435,5.421244,107.81182,1677716932000,0.4171423,4.749748,1151737888980000,3.7480154,Bike
Fix,FLP,37.4284423,-122.1672508,-3.2504321713865654,4.9123416,9.128,108.73087,1677716934940,,,1151738163484653,5.735137,Bike
Fix,GPS,37.4284372097,-122.1672165692,-5.530668718695524,4.9663963,5.391562,108.7891,1677716933000,0.39548984,4.617659,1151738889047000,3.7334516,Bike
Fix,FLP,37.4284384,-122.1672315,-3.782482732856023,4.951432,9.631,108.71135,1677716935484,,,1151738708344943,6.0190306,Bike
Fix,FLP,37.4284269,-122.167172,-3.782482732856023,4.968895,9.59,107.21023,1677716936569,,,1151739793520236,6.0190306,Bike
Fix,GPS,37.4284214231,-122.1671608499,-5.209328798410869,4.813577,5.2468004,110.53679,1677716934000,0.3779439,4.584811,1151739889023000,3.7269328,Bike
Fix,FLP,37.4284177,-122.1671392,-4.337962878693235,4.838165,9.489,108.85814,1677716937112,,,1151740336106539,5.8961797,Bike
Fix,GPS,37.4284040948,-122.167107022,-4.980707417123401,4.72918,5.0959225,110.93626,1677716935000,0.3553095,4.4161773,1151740889024000,3.666345,Bike
Fix,FLP,37.4284098,-122.1671159,-4.201264080125887,4.82665,9.341,109.43603,1677716937655,,,1151740878692477,5.7404585,Bike
Fix,GPS,37.4283861156,-122.1670531568,-5.100109030539066,4.327595,4.9952183,110.25456,1677716936000,0.31516042,4.1506314,1151741889038000,3.6236494,Bike
Fix,FLP,37.4283917,-122.1670599,-4.497101978896724,4.74857,9.301,111.26559,1677716938739,,,1151741963856418,6.127411,Bike
Fix,FLP,37.4283792,-122.1670239,-4.497101978896724,4.409622,9.221,113.07635,1677716939283,,,1151742506439914,6.127411,Bike
Fix,GPS,37.4283693095,-122.1670004621,-5.2146253928127,4.010934,4.785613,116.59301,1677716937000,0.3090961,4.310819,1151742889119000,3.5652845,Bike
Fix,FLP,37.4283576,-122.166971,-2.9270025214001727,4.0438685,8.866,122.33495,1677716940367,,,1151743591607393,6.0403996,Bike
Fix,GPS,37.4283479679,-122.1669522306,-5.752716329205679,4.008725,4.787447,133.11972,1677716938000,0.30095103,4.133211,1151743889066000,3.5316288,Bike
Fix,NLP,37.4283096,-122.1668771,-5.799999713897705,,60.16,,1677716940950,,,1151744173000000,2.1433847,Bike
Fix,FLP,37.4283482,-122.1669544,-3.944999243463034,4.027301,8.699,131.13068,1677716940911,,,1151744134191684,3.3894734,Bike
Fix,FLP,37.4283311,-122.1669327,-3.944999243463034,4.060459,8.652,142.02902,1677716941453,,,1151744676761325,3.3894734,Bike
Fix,GPS,37.4283159185,-122.1669112337,-5.420562556310904,4.6535463,4.9656954,143.05217,1677716939000,0.33900213,4.1547475,1151744889067000,3.530574,Bike
Fix,FLP,37.4283017,-122.1669039,-3.921529001053802,4.5007677,8.465,145.88168,1677716941995,,,1151745219348727,3.3656464,Bike
Fix,GPS,37.4282762727,-122.1668766248,-5.226961511408145,5.0911837,5.1568913,148.36124,1677716940000,0.36294216,4.123271,1151745889206000,3.5625098,Bike
Fix,FLP,37.4282897,-122.166893,-3.325567098311492,4.616849,8.38,146.05315,1677716942538,,,1151745761945834,3.3793824,Bike
Fix,FLP,37.4282677,-122.1668709,-3.325567098311492,4.9456677,8.408,145.17412,1677716943081,,,1151746304532016,3.3793824,Bike
Fix,GPS,37.4282347745,-122.1668434673,-6.662413046550787,4.8845344,5.2653837,144.48692,1677716941000,0.33492184,3.9215078,1151746889159000,3.5973043,Bike
Fix,FLP,37.4282477,-122.1668503,-3.325567098311492,5.0443053,8.379,141.56969,1677716943623,,,1151746847118686,3.3793824,Bike
Fix,FLP,37.4282072,-122.1668096,-7.538211160323408,4.933109,8.42,134.88432,1677716944708,,,1151747932283542,2.4601288,Bike
Fix,GPS,37.428198466,-122.1668106869,-7.074121398035045,4.6202717,5.357375,133.75415,1677716942000,0.35907057,4.2761893,1151747889141000,3.6540582,Bike
Fix,GPS,37.4281730627,-122.1667709376,-7.156364383619764,4.8193474,5.3537498,118.740616,1677716943000,0.36094305,4.0663743,1151748889339000,3.6940114,Bike
Fix,FLP,37.428182,-122.1667817,-7.602506581045764,4.704533,8.666,128.28569,1677716945250,,,1151748474883761,2.5559525,Bike
Fix,FLP,37.42817,-122.1667625,-7.602506581045764,4.8417664,8.839,121.14362,1677716945794,,,1151749017461032,2.5559525,Bike
Fix,GPS,37.4281742255,-122.1667372116,-9.851916802510331,4.694543,5.248036,102.60577,1677716944000,0.38577867,4.7649384,1151749889169000,3.754949,Bike
Fix,FLP,37.4281581,-122.1667363,-5.799999713897705,4.891053,9.015,113.73703,1677716946336,,,1151749560062594,4.812048,Bike
Fix,GPS,37.428176924,-122.1666973584,-10.056383721706265,4.6254487,5.246878,88.59935,1677716945000,0.35952124,4.6838927,1151750889151000,3.7937958,Bike
Fix,FLP,37.4281578,-122.1666953,-5.799999713897705,4.7113085,9.124,98.12455,1677716947422,,,1151750645239841,2.5640938,Bike
Fix,GPS,37.428190404,-122.1666621862,-11.174067162201217,4.519473,5.0467544,77.01883,1677716946000,0.325349,4.492052,1151751889207000,3.7724886,Bike
Fix,FLP,37.4281699,-122.1666496,-8.313406710422129,4.597969,9.19,85.222046,1677716948507,,,1151751730420810,2.5590491,Bike
Fix,FLP,37.4281917,-122.1666049,-8.313406710422129,4.466451,9.158,69.59681,1677716949591,,,1151752815603305,2.5590491,Bike
Fix,GPS,37.4282089961,-122.1666254277,-11.298519863001518,4.282885,4.969258,68.62667,1677716947000,0.35036534,5.1822796,1151752889204000,3.7595468,Bike
Fix,FLP,37.4282128,-122.1665863,-7.680025137689848,4.309652,8.966,63.934097,1677716950134,,,1151753358176852,2.6153686,Bike
Fix,GPS,37.4282285754,-122.1665814386,-11.568817635614929,4.3315706,5.1108723,61.16481,1677716948000,0.37035003,5.028335,1151753889208000,3.7690213,Bike
Fix,FLP,37.4282191,-122.1665805,-5.799999713897705,4.2911334,8.945,59.42225,1677716950676,,,1151753900781528,2.6073349,Bike
Fix,GPS,37.4282553335,-122.1665411124,-12.038857923063665,4.6196194,5.0323095,58.869183,1677716949000,0.3562567,4.493169,1151754889237000,3.7446282,Bike
Fix,FLP,37.4282446,-122.1665414,0.2999999821186065,4.347383,8.871,58.192932,1677716951761,,,1151754985965731,4.8269343,Bike
Fix,GPS,37.4282803392,-122.1664977962,-11.849690792095927,4.678013,4.942904,69.56356,1677716950000,0.3734426,4.740046,1151755889244000,3.725932,Bike
Fix,FLP,37.4282652,-122.1665077,12.09089576410059,4.5694103,8.782,63.09677,1677716952305,,,1151755528550632,4.8339314,Bike
Fix,FLP,37.4282733,-122.1664927,12.09089576410059,4.6988664,8.775,67.189125,1677716952848,,,1151756071140842,4.8339314,Bike
Fix,FLP,37.4282852,-122.1664561,12.09089576410059,4.7263656,8.831,76.01062,1677716953389,,,1151756613730014,4.8339314,Bike
Fix,GPS,37.4282971641,-122.1664517901,-12.124806147917532,4.8152037,5.016891,84.53635,1677716951000,0.3841444,4.8270307,1151756889612000,3.6888292,Bike
Fix,FLP,37.4282942,-122.1664261,-3.1348088519083888,4.8138666,8.827,83.391045,1677716953933,,,1151757156330537,2.6101563,Bike
Fix,GPS,37.4283025426,-122.1664016209,-11.243985296969411,4.8254943,5.10178,94.378235,1677716952000,0.40203062,5.040385,1151757889256000,3.6932595,Bike
Fix,FLP,37.4282956,-122.1664095,-5.799999713897705,4.7822523,8.82,89.97053,1677716954475,,,1151757698908969,2.6490893,Bike
Fix,FLP,37.4282969,-122.1663858,-5.799999713897705,4.7888837,8.791,94.15293,1677716955017,,,1151758241498874,2.6490893,Bike
Fix,FLP,37.4282954,-122.1663567,-5.799999713897705,4.7825594,8.807,98.634384,1677716955528,,,1151758751000000,2.6490893,Bike
Fix,GPS,37.4282953578,-122.166348787,-11.202819370934098,4.4159927,5.1277857,104.43599,1677716953000,0.40679127,5.505155,1151758889282000,3.7307162,Bike
Fix,GPS,37.4282832902,-122.1662989003,-11.862518370905056,4.3842177,5.226723,103.497116,1677716954000,0.39098352,5.2961016,1151759889315000,3.7863467,Bike
Fix,FLP,37.4282873,-122.1662981,-5.799999713897705,4.456965,8.821,100.071625,1677716956646,,,1151759869265719,4.876734,Bike
Fix,FLP,37.4282817,-122.1662709,-5.799999713897705,4.377721,8.777,102.113785,1677716957188,,,1151760411841586,4.876734,Bike
Fix,GPS,37.4282694081,-122.1662439895,-10.93462842115339,4.6217046,5.4299345,105.84851,1677716955000,0.40764803,5.142501,1151760889374000,3.867695,Bike
Fix,FLP,37.4282771,-122.1662524,-3.635572789323918,4.3716435,8.847,104.46949,1677716957730,,,1151760954442293,4.8905253,Bike
Fix,GPS,37.428256539,-122.1661820546,-11.1581712581703,4.940454,5.392212,106.52959,1677716956000,0.4236729,4.987753,1151761889332000,3.9312046,Bike
Fix,FLP,37.4282669,-122.1662125,-5.799999713897705,4.569973,8.866,104.956566,1677716958274,,,1151761497030856,4.846728,Bike
Fix,FLP,37.4282591,-122.1661854,-5.799999713897705,4.863559,8.881,105.280754,1677716958816,,,1151762039618442,4.846728,Bike
Fix,GPS,37.428242301,-122.1661240311,-11.24663254344865,4.7522616,5.428602,104.594055,1677716957000,0.40724668,4.9865627,1151762889362000,3.978919,Bike
Fix,FLP,37.4282512,-122.1661521,-9.640192366431558,4.933297,8.95,105.15099,1677716959359,,,1151762582206088,2.700198,Bike
Fix,FLP,37.4282382,-122.1660983,-9.640192366431558,4.7998567,8.968,103.80549,1677716960443,,,1151763667379916,2.700198,Bike
Fix,GPS,37.4282297791,-122.1660667919,-11.314035735835027,4.520356,5.6563406,103.92621,1677716958000,0.42592213,5.3575807,1151763889356000,4.2855396,Bike
Fix,FLP,37.4282301,-122.1660639,-7.588498647250565,4.6000524,8.997,103.206604,1677716961005,,,1151764228000000,5.002713,Bike
Fix,FLP,37.4282234,-122.1660309,-7.588498647250565,4.5521464,9.045,102.08387,1677716961527,,,1151764751000000,5.002713,Bike
Fix,GPS,37.4282200918,-122.1660119595,-10.610544160515346,4.5942435,5.7297006,104.19784,1677716959000,0.40228197,5.0337205,1151764889345000,4.2640824,Bike
Fix,FLP,37.4282164,-122.1659944,-7.702198875359535,4.57341,9.172,102.86937,1677716962071,,,1151765295137729,5.012553,Bike
Fix,GPS,37.4282124072,-122.1659616002,-12.103577084692622,4.775447,5.6547847,104.49301,1677716960000,0.39894634,4.911792,1151765889414000,4.238473,Bike
Fix,FLP,37.4282118,-122.1659714,-10.41015769160166,4.585842,9.303,103.82604,1677716962614,,,1151765837716586,4.937355,Bike
Fix,GPS,37.4282005735,-122.1659105776,-11.801488326831809,4.8497944,5.5610123,104.5978,1677716961000,0.395132,4.897115,1151766889449000,4.2157927,Bike
Fix,FLP,37.428202,-122.1659132,-9.428418948284902,4.752652,9.502,104.26768,1677716963698,,,1151766922893405,4.899484,Bike
Fix,GPS,37.4281916691,-122.1658580536,-12.952326720288566,4.7940097,5.5163755,104.63726,1677716962000,0.39638108,4.9111457,1151767889414000,4.2042594,Bike
Fix,FLP,37.4281902,-122.1658592,-8.565862785957481,4.8436146,9.566,103.96087,1677716964784,,,1151768008064670,4.9368606,Bike
Fix,NLP,37.4280227,-122.1662674,,,699.999,,1677716964566,,,1151767790000000,,Bike
Fix,FLP,37.4281842,-122.1658228,-8.565862785957481,4.804162,9.563,103.317825,1677716965327,,,1151768550635715,4.9368606,Bike
Fix,GPS,37.4281768144,-122.1657976872,-12.104847015914054,4.936956,5.6196504,104.59746,1677716963000,0.40564924,4.746065,1151768889432000,4.2018967,Bike
