Fix,Provider,LatitudeDegrees,LongitudeDegrees,AltitudeMeters,SpeedMps,AccuracyMeters,BearingDegrees,UnixTimeMillis,SpeedAccuracyMps,BearingAccuracyDegrees,elapsedRealtimeNanos,VerticalAccuracyMeters,TransitType
Fix,FLP,37.4215451,-122.1586709,-8.40000057220459,,20.463,,1677710852928,,,1145656151000000,1.5216105,Bike
Fix,GPS,37.4216960177,-122.1583412418,6.540157051597097,0.0,101.67199,,1677710855841,2.774977,,1145661476057864,239.83942,Bike
Fix,FLP,37.4215705,-122.1586153,-15.909066810870186,0.8194023,101.672,60.04519,1677710858252,2.774977,,1145661476057864,1.4031768,Bike
Fix,FLP,37.4215822,-122.1585876,-15.909066810870186,0.021004304,80.774,,1677710858463,,,1145661686320407,1.4031768,Bike
Fix,NLP,37.4215398,-122.1586477,-8.200000762939453,,14.498,,1677710858830,,,1145662054000000,2.2367995,Bike
Fix,FLP,37.4215496,-122.1586476,-14.677552018487416,0.016465219,58.37,,1677710858969,,,1145662192704501,1.349873,Bike
Fix,GPS,37.421637544,-122.1584166605,-5.537318196953313,0.0,68.2562,,1677710856806,2.5825436,,1145662507484786,203.23508,Bike
Fix,FLP,37.4215452,-122.1586559,-11.621682981088185,0.0026296992,42.941,,1677710859548,,,1145662771428805,1.3549429,Bike
Fix,GPS,37.421557717,-122.1584788813,-44.61281620634333,0.0,42.3881,,1677710857699,1.5738729,,1145663518424972,110.31539,Bike
Fix,FLP,37.4215442,-122.1586571,-4.546032817995467,0.0004268751,38.571,,1677710860090,,,1145663313982028,1.3865994,Bike
Fix,GPS,37.4215848261,-122.1585193231,-20.300322588088545,0.0,40.256107,,1677710858699,0.7989257,,1145664529653610,73.455894,Bike
Fix,FLP,37.4215431,-122.1586575,-4.046051185420815,0.00022218992,35.36,,1677710861176,,,1145664399088229,1.6578141,Bike
Fix,GPS,37.4215482995,-122.1585875878,-15.250395156145174,0.0,23.164745,,1677710859699,0.57881147,,1145665527643967,43.633156,Bike
Fix,FLP,37.4215422,-122.1586574,-6.095277898600052,0.0001293656,32.934,,1677710862261,,,1145665484190707,1.5812501,Bike
Fix,FLP,37.4215415,-122.158657,-6.095277898600052,0.00017219741,30.997,,1677710862802,,,1145666026743869,1.5812501,Bike
Fix,GPS,37.4215171352,-122.1586219999,-12.684810836934068,0.0,16.200756,,1677710860999,0.5457924,,1145666849565680,31.09214,Bike
Fix,FLP,37.4215354,-122.1586485,-8.200000762939453,0.022606032,18.291,,1677710863625,0.5457924,,1145666849565680,1.5942501,Bike
Fix,NLP,37.4215641,-122.1586377,-8.90000057220459,,14.701,,1677710863819,,,1145667043000000,2.8094645,Bike
Fix,FLP,37.4215315,-122.1586429,-8.90000057220459,0.09540452,18.111,,1677710863820,0.5457924,,1145667043000000,1.7497188,Bike
Fix,GPS,37.4215158998,-122.1586329761,-11.740460684114096,0.0,14.765594,,1677710861999,0.595446,,1145667800311000,29.068653,Bike
Fix,FLP,37.4215255,-122.1586391,-8.90000057220459,0.32578292,13.986,151.93376,1677710864576,0.595446,,1145667800311000,1.7599195,Bike
Fix,GPS,37.4215152381,-122.1586448963,-11.259239387869329,0.0,13.486158,,1677710862999,0.6015359,,1145668800339000,27.15935,Bike
Fix,FLP,37.4215185,-122.1586416,-8.90000057220459,0.49736154,14.417,180.72078,1677710865577,0.6015359,,1145668800339000,1.9610275,Bike
Fix,GPS,37.421509513,-122.1586583697,-12.75817505293879,0.0,12.271524,,1677710863999,0.55898935,,1145669800323000,24.891485,Bike
Fix,FLP,37.4215109,-122.1586531,-8.90000057220459,0.7865677,14.329,214.62282,1677710866576,0.55898935,,1145669800323000,2.054113,Bike
Fix,GPS,37.4215096886,-122.158657419,-13.71112893012263,0.0,11.797566,,1677710864999,0.5428421,,1145670800316000,23.558361,Bike
Fix,FLP,37.4215083,-122.1586576,-8.90000057220459,0.6457091,14.082,221.18385,1677710867576,0.5428421,,1145670800316000,2.0326142,Bike
Fix,GPS,37.4215100154,-122.1586550365,-13.747089091319522,0.0,11.376373,,1677710865999,0.5963866,,1145671800323000,22.284817,Bike
Fix,FLP,37.4215083,-122.1586571,-8.90000057220459,0.34145403,13.77,218.27322,1677710868576,0.5963866,,1145671800323000,2.0426142,Bike
Fix,NLP,37.4215397,-122.1586289,-7.700000286102295,,26.345,,1677710868921,,,1145672144000000,3.1185708,Bike
Fix,FLP,37.4215087,-122.1586564,-7.700000286102295,0.2382247,12.598,216.41112,1677710868920,0.5963866,,1145672144000000,2.230447,Bike
Fix,GPS,37.4215096898,-122.1586575242,-12.99920248446129,0.0,10.926622,,1677710866999,0.5259866,,1145672800342000,20.871729,Bike
Fix,FLP,37.4215089,-122.1586575,-7.700000286102295,0.1817308,11.958,231.10123,1677710869577,0.5259866,,1145672800342000,2.3378353,Bike
Fix,GPS,37.4215107456,-122.1586596612,-12.381972935758268,0.0,10.567381,,1677710867999,0.5045294,,1145673800367000,20.001198,Bike
Fix,FLP,37.4215099,-122.1586595,-7.700000286102295,0.15959749,11.471,267.72968,1677710870577,0.5045294,,1145673800367000,2.3061423,Bike
Fix,GPS,37.4215111882,-122.1586603926,-12.284448746571409,0.0,10.529911,,1677710868999,0.5349661,,1145674800377000,19.31553,Bike
Fix,FLP,37.4215108,-122.1586607,-7.700000286102295,0.13889302,11.181,288.68307,1677710871576,0.5349661,,1145674800377000,2.257467,Bike
Fix,GPS,37.4215107363,-122.1586624631,-12.25239960423132,0.0,10.455496,,1677710869999,0.55333793,,1145675800407000,18.845356,Bike
Fix,FLP,37.4215108,-122.1586624,-7.700000286102295,0.1441898,10.957,279.8421,1677710872577,0.55333793,,1145675800407000,2.2395322,Bike
Fix,GPS,37.4215112739,-122.1586614618,-12.117703514683171,0.0,10.368397,,1677710870999,0.52021253,,1145676800537000,18.28698,Bike
Fix,FLP,37.4215112,-122.1586622,-7.700000286102295,0.07365583,10.789,,1677710873577,0.52021253,,1145676800537000,2.2494721,Bike
Fix,NLP,37.4215362,-122.1586379,-8.300000190734863,,15.986,,1677710873887,,,1145677110000000,1.7373474,Bike
Fix,FLP,37.4215113,-122.1586619,-8.300000190734863,0.05376694,10.795,,1677710873887,0.52021253,,1145677110000000,2.0118954,Bike
Fix,GPS,37.4215150092,-122.1586656918,-12.440030186955244,0.0,10.266276,,1677710871999,0.5451856,,1145677800584000,17.724745,Bike
Fix,FLP,37.4215137,-122.1586644,-8.300000190734863,0.22516626,10.503,318.5977,1677710874576,0.5451856,,1145677800584000,2.0791786,Bike
Fix,GPS,37.4215176086,-122.1586675935,-12.268831399597058,0.0,10.236021,,1677710872999,0.59843826,,1145678800458000,17.224453,Bike
Fix,FLP,37.4215169,-122.1586672,-8.300000190734863,0.32584596,10.447,323.27948,1677710875576,0.59843826,,1145678800458000,2.0901487,Bike
Fix,FLP,37.4215282,-122.1586527,-8.300000190734863,0.04845338,10.358,,1677710876364,,,1145679587000000,2.0901487,Bike
Fix,GPS,37.4215185545,-122.1586772612,-12.906203090151443,0.0,9.86775,,1677710873999,20.0,,1145679800477000,16.620966,Bike
Fix,FLP,37.421533,-122.1586462,-8.300000190734863,0.0030987829,10.203,,1677710876909,,,1145680132758151,2.0693095,Bike
Fix,GPS,37.4215209068,-122.1586837493,-13.46621601984145,0.0,9.701811,,1677710874999,0.48108503,,1145680800481000,15.997622,Bike
Fix,FLP,37.421534,-122.1586445,-8.300000190734863,0.00040276008,10.1,,1677710877452,,,1145680675285739,2.052941,Bike
Fix,GPS,37.421524545,-122.1586902684,-12.435674005115672,0.0,9.149691,,1677710875999,0.4904585,,1145681800507000,15.340327,Bike
Fix,FLP,37.4215334,-122.1586445,-8.300000190734863,0.00022036137,10.082,,1677710878537,,,1145681760341464,2.062971,Bike
Fix,NLP,37.4215512,-122.158688,-8.200000762939453,,15.097,,1677710878989,,,1145682213000000,2.0468223,Bike
Fix,FLP,37.4215327,-122.1586448,-8.200000762939453,0.0003961394,9.948,,1677710879079,,,1145682302866671,1.9954729,Bike
Fix,GPS,37.4215264192,-122.1586945607,-11.864769527876918,0.0,8.809813,,1677710876999,0.47377688,,1145682800506000,14.8301735,Bike
Fix,FLP,37.4215336,-122.1586496,-8.200000762939453,0.0057569453,9.844,,1677710879622,,,1145682845394320,2.0013726,Bike
Fix,GPS,37.4215264382,-122.1587031858,-11.13032254190226,0.0,8.485562,,1677710877999,0.4510532,,1145683800541000,14.329182,Bike
Fix,FLP,37.4215337,-122.1586536,-8.200000762939453,0.0015930805,9.657,,1677710880707,,,1145683930446872,2.0103724,Bike
Fix,GPS,37.4215226548,-122.1587178032,-10.528618831961008,0.0,8.182945,,1677710878999,0.5363933,,1145684800556000,13.937776,Bike
Fix,FLP,37.4215333,-122.1586561,-8.200000762939453,0.0001850514,9.537,,1677710881249,,,1145684472971042,2.0137658,Bike
Fix,GPS,37.4215252577,-122.15871908,-9.983756762172687,0.0,7.91934,,1677710879999,0.46262413,,1145685800827000,13.495835,Bike
Fix,FLP,37.4215288,-122.1586908,-8.200000762939453,0.042555224,9.109,,1677710882577,0.46262413,,1145685800827000,2.0253506,Bike
Fix,GPS,37.4215247369,-122.1587266834,-8.812627856137123,0.0,7.753085,,1677710880999,0.52165985,,1145686800514000,13.152534,Bike
Fix,FLP,37.4215259,-122.1587148,-8.200000762939453,0.8968976,8.748,260.54834,1677710883577,0.52165985,,1145686800514000,2.0353305,Bike
Fix,NLP,37.4215479,-122.1586533,-8.200000762939453,,14.773,,1677710884010,,,1145687233000000,3.0232651,Bike
Fix,FLP,37.4215296,-122.1586855,-9.98065968898754,0.0020177595,8.615,,1677710883961,,,1145687185587374,2.0355618,Bike
Fix,GPS,37.4215221863,-122.1587318545,-8.032877923461871,0.0,7.6264515,,1677710881999,0.49493802,,1145687800597000,12.790888,Bike
Fix,FLP,37.4215315,-122.1586745,-6.222796127073316,0.0054476866,8.564,,1677710884504,,,1145687728098605,2.1557093,Bike
Fix,GPS,37.4215188292,-122.1587398099,-6.577863823851411,0.0,7.5768538,,1677710882999,0.506184,,1145688800634000,12.270874,Bike
Fix,FLP,37.4215321,-122.1586708,-6.222796127073316,0.0017199852,8.491,,1677710885590,,,1145688813148959,2.226072,Bike
Fix,GPS,37.421518668,-122.1587475334,-5.564706663556775,0.0,7.5016327,,1677710883999,20.0,,1145689800690000,11.90639,Bike
Fix,FLP,37.421532,-122.1586695,-8.200000762939453,8.805045e-05,8.423,,1677710886675,,,1145689898188754,2.0615618,Bike
Fix,FLP,37.4215315,-122.1586703,-8.200000762939453,0.00031693812,8.442,,1677710887217,,,1145690440000000,2.0615618,Bike
Fix,GPS,37.4215208272,-122.1587601277,-4.884207239391791,0.0,7.399599,,1677710884999,20.0,,1145690800989000,11.6767025,Bike
Fix,FLP,37.4215314,-122.1586709,-13.517715793880562,0.00017337226,8.533,,1677710887760,,,1145690983230074,2.034291,Bike
Fix,GPS,37.4215211961,-122.1587680973,-4.120416612623939,0.0,7.473941,,1677710885999,20.0,,1145691800677000,11.614722,Bike
Fix,FLP,37.421531,-122.1586725,-14.960862166907258,0.0010389547,8.649,,1677710888282,,,1145691505467685,2.0433009,Bike
Fix,NLP,37.4215615,-122.1586759,-8.40000057220459,,17.707,,1677710889039,,,1145692263000000,2.0341868,Bike
Fix,FLP,37.4215306,-122.1586747,-12.502473695118828,0.0032619894,8.609,,1677710888844,,,1145692068264194,1.9875047,Bike
Fix,GPS,37.4215220883,-122.158772579,-3.53932183718481,0.0,7.546107,,1677710886999,0.5288005,,1145692800679000,11.648954,Bike
Fix,FLP,37.4215314,-122.1586763,-11.911722002318976,0.00833809,8.583,,1677710889386,,,1145692610781039,1.990702,Bike
Fix,GPS,37.4215237675,-122.1587778424,-3.763876933227758,0.0,7.587962,,1677710887999,0.5310421,,1145693800829000,11.668958,Bike
Fix,FLP,37.4215319,-122.1586783,-8.200000762939453,0.004501976,8.618,,1677710890472,,,1145693695815890,1.9903601,Bike
Fix,GPS,37.4215237871,-122.1587811811,-3.893771366525616,0.0,7.605762,,1677710888999,0.55898196,,1145694800757000,11.710819,Bike
Fix,FLP,37.4215318,-122.1586807,-3.169481404515725,0.0020234105,8.663,,1677710891557,,,1145694780840243,2.0131342,Bike
Fix,FLP,37.4215314,-122.1586834,-3.169481404515725,0.0015277361,8.715,,1677710892641,,,1145695865881320,2.0131342,Bike
Fix,GPS,37.4215261771,-122.1587883061,-3.8688626695195465,0.0,7.537427,,1677710889999,20.0,,1145695800719000,11.7246,Bike
Fix,GPS,37.4215317993,-122.1587960289,-4.273852907768384,0.0,7.404895,,1677710890999,20.0,,1145696800863000,11.652045,Bike
Fix,FLP,37.4215308,-122.1586872,-4.265283751519551,0.0027980974,8.83,,1677710893726,,,1145696950911838,2.0851977,Bike
Fix,NLP,37.421549,-122.1586719,-8.700000762939453,,21.446,,1677710894085,,,1145697309000000,1.2968721,Bike
Fix,GPS,37.4215364286,-122.1587958251,-4.9308675946363705,0.0,7.38316,,1677710891999,20.0,,1145697800770000,11.585056,Bike
Fix,FLP,37.4215303,-122.1586906,-0.7444097365952906,0.004735986,8.977,,1677710894270,,,1145697493428012,1.9807687,Bike
Fix,FLP,37.4215302,-122.158693,-0.7444097365952906,0.0036405008,8.934,,1677710894818,,,1145698042000000,1.9807687,Bike
Fix,GPS,37.4215441005,-122.1587975457,-4.657734718921932,0.0,7.2583895,,1677710892999,20.0,,1145698800711000,10.894634,Bike
Fix,FLP,37.42153,-122.1586949,-10.435426849458988,0.0031361654,8.895,,1677710895355,,,1145698578456271,1.9890002,Bike
Fix,GPS,37.4215520944,-122.158802142,-4.8144886913843,1.0167346,7.1554484,329.53363,1677710893999,0.3956913,19.638285,1145699800780000,10.697556,Bike
Fix,FLP,37.4215297,-122.1586977,-2.3566087590785685,0.0035278779,8.909,,1677710896440,,,1145699663483310,1.9978557,Bike
Fix,FLP,37.4215279,-122.1587028,-2.3566087590785685,0.39835045,8.878,219.95584,1677710896982,,,1145700206007540,1.9978557,Bike
Fix,GPS,37.4215605429,-122.1588066563,-6.104503306341664,0.84598356,6.782542,348.20868,1677710894999,0.4235713,24.25194,1145700800813000,10.437434,Bike
Fix,FLP,37.4215274,-122.1587051,-2.906696852170548,0.5804951,8.87,224.87753,1677710897524,,,1145700748509555,2.0100303,Bike
Fix,GPS,37.4215720315,-122.1588009216,-7.542082399937683,0.73680377,6.4953575,27.936085,1677710895999,0.39182132,26.967407,1145701800983000,10.136381,Bike
Fix,FLP,37.4215256,-122.1587123,-8.40000057220459,0.6223945,8.835,245.39105,1677710898610,,,1145701833523654,2.0200102,Bike
Fix,NLP,37.4216368,-122.1586591,-8.90000057220459,,22.138,,1677710899107,,,1145702331000000,1.0,Bike
Fix,FLP,37.4215265,-122.1587181,-5.853367027779852,0.6360191,8.808,264.0016,1677710899153,,,1145702376046359,1.8979768,Bike
Fix,GPS,37.4215844585,-122.1587915173,-8.931576927153138,0.8206535,6.3459787,6.1064396,1677710896999,0.39356557,23.051691,1145702800832000,9.888734,Bike
Fix,FLP,37.4215299,-122.1587215,-3.0116452950571606,0.6637402,8.834,268.59943,1677710899694,,,1145702918559299,1.9784081,Bike
Fix,FLP,37.4215323,-122.1587256,-3.0116452950571606,0.71758103,8.855,266.0332,1677710900201,,,1145703424000000,1.9784081,Bike
Fix,GPS,37.4215946581,-122.1587897036,-10.02246860509702,1.4464461,6.2311335,333.57922,1677710897999,0.36030728,11.946344,1145703800842000,9.546219,Bike
Fix,FLP,37.4215367,-122.1587311,-8.90000057220459,0.9597404,8.865,261.20874,1677710900779,,,1145704003586398,1.9883981,Bike
Fix,FLP,37.4215373,-122.1587369,-8.90000057220459,1.1214316,8.879,257.647,1677710901281,,,1145704505467685,1.9883981,Bike
Fix,GPS,37.4216146359,-122.1587979937,-11.161417199022246,3.1330745,6.124709,326.85794,1677710898999,0.39380834,10.0,1145704801158000,9.25689,Bike
Fix,FLP,37.4215383,-122.1587448,9.49869245341987,1.6777179,8.899,254.94623,1677710901865,,,1145705088594882,2.0051048,Bike
Fix,GPS,37.421647096,-122.1588202256,-12.564050777715629,3.6514835,6.025552,314.41382,1677710899999,0.36288154,10.0,1145705800930000,8.725426,Bike
Fix,FLP,37.4215382,-122.1587474,27.790676142457848,1.9270123,8.936,249.08824,1677710902408,,,1145705631114963,2.019391,Bike
Fix,GPS,37.4216768729,-122.1588520443,-13.547823034199071,4.6884007,5.9217434,305.80597,1677710900999,0.3370602,10.0,1145706801066000,8.194885,Bike
Fix,FLP,37.4215576,-122.1587795,19.493091458644635,2.2765543,9.024,265.97208,1677710903493,,,1145706716136447,2.029391,Bike
Fix,NLP,37.4217702,-122.1589597,-8.800000190734863,,24.135,,1677710904376,,,1145707599000000,1.0,Bike
Fix,FLP,37.4216002,-122.1588212,27.790676142457848,2.9715977,9.139,286.77203,1677710904034,,,1145707258647922,1.9758282,Bike
Fix,FLP,37.4216216,-122.1588399,27.790676142457848,3.12676,9.168,290.74783,1677710904578,,,1145707801145419,1.9758282,Bike
Fix,GPS,37.4217103701,-122.1588988771,-13.368136933951757,4.931904,5.7801805,303.54657,1677710901999,0.37453038,10.0,1145707800851000,7.8760123,Bike
Fix,FLP,37.421662,-122.1588882,9.49869245341987,3.7817256,9.329,296.70172,1677710905120,,,1145708343667941,1.9779457,Bike
Fix,GPS,37.4217378236,-122.1589496029,-13.60573254671371,4.5635114,5.6467586,303.3319,1677710902999,0.3574621,10.0,1145708800912000,7.477464,Bike
Fix,FLP,37.4216734,-122.158895,19.16309689387345,4.103027,9.421,298.39685,1677710905663,,,1145708886176181,1.9887857,Bike
Fix,FLP,37.4217053,-122.1589396,19.16309689387345,4.3827653,9.516,301.6842,1677710906205,,,1145709428687167,1.9887857,Bike
Fix,GPS,37.4217618178,-122.158993944,-14.18039942941868,4.713713,5.748563,306.90677,1677710903999,0.41079053,10.0,1145709801135000,7.2162533,Bike
Fix,FLP,37.4217186,-122.158953,19.16309689387345,4.5376725,9.521,302.9188,1677710906747,,,1145709971195712,2.026285,Bike
Fix,FLP,37.4217441,-122.1589896,19.16309689387345,4.6878757,9.65,304.61908,1677710907280,,,1145710504000000,2.026285,Bike
Fix,GPS,37.4217875028,-122.1590414759,-14.487012750606116,5.1088495,5.3018093,303.28445,1677710904999,0.3478112,10.0,1145710800929000,6.9172134,Bike
Fix,FLP,37.4217746,-122.1590337,18.53588692301198,4.8894024,9.687,305.42856,1677710907833,,,1145711056214511,2.035062,Bike
Fix,GPS,37.4218123971,-122.1590932955,-15.272619870568311,5.3482246,5.204959,302.04208,1677710905999,0.33331504,10.0,1145711800928000,6.699885,Bike
Fix,FLP,37.4217989,-122.1590751,4.712255309323666,5.3318253,9.342,302.9027,1677710908576,0.33331504,10.0,1145711800928000,2.045031,Bike
Fix,GPS,37.4218377405,-122.159148275,-14.77154084096275,5.310124,5.0716867,300.93176,1677710906999,0.36850196,10.0,1145712801004000,6.404731,Bike
Fix,FLP,37.4218306,-122.1591366,9.621850356642472,5.3446913,8.792,301.0489,1677710909577,0.36850196,10.0,1145712801004000,2.056101,Bike
Fix,GPS,37.4218665456,-122.1591967873,-14.826376055497343,4.9427805,5.0330973,309.2239,1677710907999,0.3466211,10.0,1145713800971000,6.2837286,Bike
Fix,FLP,37.4218612,-122.1591914,18.53588692301198,5.040681,8.135,306.77213,1677710910577,0.3466211,10.0,1145713800971000,2.066021,Bike
Fix,GPS,37.4218988423,-122.1592456605,-14.175764095164698,5.129009,5.0740767,313.21915,1677710908999,0.39418644,10.0,1145714801219000,6.1434174,Bike
Fix,FLP,37.4218938,-122.1592407,13.566407309160716,5.101983,6.95,311.1661,1677710911578,0.39418644,10.0,1145714801219000,2.076021,Bike
Fix,GPS,37.4219341797,-122.1592886077,-13.826449511283224,4.9756794,5.44523,317.89496,1677710909999,0.44853455,10.0,1145715801029000,6.044891,Bike
Fix,FLP,37.4219287,-122.1592854,5.071820854394346,5.0193224,5.696,315.24133,1677710912577,0.44853455,10.0,1145715801029000,2.085011,Bike
Fix,GPS,37.4219729301,-122.1593228598,-13.967253168339422,4.9863653,5.005912,326.3738,1677710910999,0.4217198,10.0,1145716801025000,5.920371,Bike
Fix,FLP,37.4219635,-122.1593227,4.822064187413563,5.049156,5.756,316.65527,1677710913578,,,1145716801025000,2.095021,Bike
Fix,FLP,37.4220004,-122.1593528,13.566407309160716,5.164213,6.997,324.0057,1677710914673,,,1145717896338779,2.105051,Bike
Fix,GPS,37.4220111697,-122.1593519573,-14.575866417191738,5.178957,4.916628,322.12527,1677710911999,0.36004847,10.0,1145717801049000,5.82016,Bike
Fix,GPS,37.4220484572,-122.1593865629,-14.86399899761442,5.3927026,4.892679,318.68552,1677710912999,0.48954672,10.0,1145718801104000,5.790491,Bike
Fix,FLP,37.4220449,-122.1593885,19.88603202144347,5.320879,6.68,319.5457,1677710915578,0.48954672,10.0,1145718801104000,2.08761,Bike
Fix,GPS,37.422082088,-122.1594311262,-14.481553429254898,4.9876804,4.8937273,313.85934,1677710913999,0.36837092,10.0,1145719801037000,5.7712636,Bike
Fix,FLP,37.4220808,-122.1594296,6.601677620159393,5.0832953,6.457,314.94507,1677710916577,0.36837092,10.0,1145719801037000,2.09761,Bike
Fix,GPS,37.4221157011,-122.1594768039,-13.428801226915436,5.0574675,4.8813834,316.80307,1677710914999,0.3800741,10.0,1145720801037000,5.8171797,Bike
Fix,FLP,37.4221144,-122.1594732,-3.7310942476215354,5.0688686,6.574,315.6729,1677710917578,0.3800741,10.0,1145720801037000,2.10759,Bike
Fix,GPS,37.4221502911,-122.1595215427,-12.837537555845442,5.148203,5.259128,318.21918,1677710915999,0.34032056,10.0,1145721801023000,5.955047,Bike
Fix,FLP,37.4221487,-122.1595168,19.887055328003832,5.1313863,6.409,317.317,1677710918578,0.34032056,10.0,1145721801023000,2.11788,Bike
Fix,GPS,37.4221865434,-122.1595581514,-12.7483089160013,5.3504395,5.494673,322.38486,1677710916999,0.36263183,10.0,1145722801045000,6.067317,Bike
Fix,FLP,37.4221848,-122.1595567,7.8589725220274,5.297356,5.779,320.65237,1677710919577,0.36263183,10.0,1145722801045000,2.12749,Bike
Fix,GPS,37.4222253895,-122.159596018,-12.384408497848996,5.1215577,5.822191,322.248,1677710917999,0.40683594,10.0,1145723801421000,6.18879,Bike
Fix,FLP,37.4222231,-122.1595949,-0.8508893785562464,5.177233,5.27,321.53897,1677710920578,0.40683594,10.0,1145723801421000,2.13789,Bike
Fix,GPS,37.4222629336,-122.1596348007,-12.13858735105444,5.46299,5.8853683,322.94592,1677710918999,0.38887593,10.0,1145724801371000,6.2828746,Bike
Fix,FLP,37.4222612,-122.159633,11.317114693614649,5.3775735,5.468,321.93826,1677710921578,0.38887593,10.0,1145724801371000,2.1482902,Bike
Fix,GPS,37.4223027228,-122.1596761352,-12.109594633319183,5.5117064,5.8907266,322.53717,1677710919999,0.36210972,10.0,1145725801128000,6.349087,Bike
Fix,FLP,37.4223013,-122.1596739,10.192181717147292,5.5087757,5.67,322.0032,1677710922577,0.36210972,10.0,1145725801128000,2.15789,Bike
Fix,GPS,37.4223449497,-122.1597168896,-12.305560067258796,5.6975427,5.868526,325.1424,1677710920999,0.3256181,10.0,1145726801271000,6.3935437,Bike
Fix,FLP,37.4223432,-122.1597152,-4.71883363206463,5.6950746,5.792,324.93234,1677710923577,0.3256181,10.0,1145726801271000,2.1683002,Bike
Fix,GPS,37.4223858576,-122.1597561568,-12.523228349900672,5.3811145,5.9344764,314.5767,1677710921999,0.38958448,10.0,1145727801124000,6.458828,Bike
Fix,FLP,37.4223856,-122.1597548,5.462048496085519,5.387045,5.88,314.2731,1677710924578,0.38958448,10.0,1145727801124000,2.17789,Bike
Fix,GPS,37.4224190391,-122.1598014449,-12.50062046812787,5.4581547,5.9938674,313.13373,1677710922999,0.4907655,10.0,1145728801129000,6.5112443,Bike
Fix,FLP,37.4224192,-122.1598003,9.591188470246903,5.4564266,5.899,313.03165,1677710925578,0.4907655,10.0,1145728801129000,2.18749,Bike
Fix,GPS,37.4224545449,-122.1598437944,-12.467265070789622,5.4353547,6.2192445,314.79636,1677710923999,0.43448046,4.168503,1145729801150000,6.587718,Bike
Fix,FLP,37.4224538,-122.1598445,-4.034162923005152,5.435525,5.965,313.9925,1677710926578,0.43448046,4.168503,1145729801150000,2.19789,Bike
Fix,GPS,37.4224906634,-122.1598889217,-11.99254695871234,5.2810874,6.187271,318.27902,1677710924999,0.5060232,5.281059,1145730801167000,6.624523,Bike
Fix,FLP,37.4224896,-122.1598888,-3.298411720159443,5.2827244,6.04,317.95233,1677710927578,0.5060232,5.281059,1145730801167000,2.20749,Bike
Fix,GPS,37.4225248145,-122.1599354916,-11.412988796777848,5.2646713,6.2406044,318.05307,1677710925999,0.5005459,5.2159195,1145731801221000,6.6579065,Bike
Fix,FLP,37.4225248,-122.1599329,10.85761694166792,5.2648993,6.074,317.99918,1677710928578,0.5005459,5.2159195,1145731801221000,2.21788,Bike
Fix,GPS,37.422561574,-122.1599778003,-10.818773858235623,5.255549,6.2515087,321.77844,1677710926999,0.5119976,5.372097,1145732801207000,6.683396,Bike
Fix,FLP,37.422561,-122.1599758,-4.034162923005152,5.255577,6.178,320.96426,1677710929577,0.5119976,5.372097,1145732801207000,2.2274902,Bike
Fix,GPS,37.4226005796,-122.160016257,-10.89071635103813,5.3387117,6.2692137,323.92242,1677710927999,0.51766914,5.194397,1145733801202000,6.781336,Bike
Fix,FLP,37.4225995,-122.1600151,-8.800000190734863,5.337677,6.233,322.9763,1677710930577,0.51766914,5.194397,1145733801202000,2.23789,Bike
Fix,GPS,37.4226420998,-122.1600579881,-11.183376411340207,5.464117,6.308093,324.13364,1677710928999,0.4928511,5.0302453,1145734801426000,6.760345,Bike
Fix,FLP,37.4226404,-122.1600554,-8.800000190734863,5.4627366,6.251,323.98868,1677710931578,0.4928511,5.0302453,1145734801426000,2.2483501,Bike
Fix,GPS,37.4226820434,-122.1600978014,-10.86685494438274,5.2253213,6.0988326,323.03674,1677710929999,0.47861865,4.911372,1145735801545000,6.7718244,Bike
Fix,FLP,37.4226813,-122.1600955,-14.441088926156509,5.227769,6.233,323.01068,1677710932577,0.47861865,4.911372,1145735801545000,2.2579,Bike
Fix,GPS,37.4227207622,-122.1601377814,-11.131873104833842,4.9263744,5.9519444,321.2136,1677710930999,0.45204428,4.9100065,1145736801485000,6.6519375,Bike
Fix,FLP,37.4227201,-122.1601353,-11.795956242687144,4.9291205,6.176,321.01944,1677710933578,0.45204428,4.9100065,1145736801485000,2.2675202,Bike
Fix,GPS,37.4227558622,-122.1601781978,-11.38495754620432,4.5326915,6.0318737,319.92426,1677710931999,0.44171864,5.2355123,1145737801534000,6.554455,Bike
Fix,FLP,37.4227554,-122.1601752,-8.800000190734863,4.536138,6.132,319.01913,1677710934577,0.44171864,5.2355123,1145737801534000,2.27791,Bike
Fix,GPS,37.4227829329,-122.1602161161,-11.463756746017664,4.6682944,5.985132,317.2451,1677710932999,0.45109484,5.2171,1145738801369000,6.5282598,Bike
Fix,FLP,37.4227791,-122.160207,-6.459851425954037,4.665017,6.068,317.0469,1677710935578,0.45109484,5.2171,1145738801369000,2.2875302,Bike
Fix,NLP,37.4227467,-122.1602612,-7.599999904632568,,28.864,,1677710935729,,,1145738953000000,1.0265181,Bike
Fix,FLP,37.4227835,-122.1602136,-7.599999904632568,4.6651587,6.186,317.04346,1677710935729,0.45109484,5.2171,1145738953000000,1.8029151,Bike
Fix,GPS,37.4228145493,-122.1602611485,-11.16917894771925,5.1008673,6.226715,317.45447,1677710933999,0.4762048,5.046015,1145739801292000,6.5834036,Bike
Fix,FLP,37.4228088,-122.1602492,-7.599999904632568,5.099479,6.269,316.9865,1677710936578,0.4762048,5.046015,1145739801292000,1.7832408,Bike
Fix,GPS,37.4228453242,-122.1603074957,-11.103984281571744,5.0980253,6.107938,321.5164,1677710934999,0.47948223,5.067598,1145740801362000,6.53059,Bike
Fix,FLP,37.4228413,-122.1602963,0.393556550926931,5.097882,6.245,320.9216,1677710937577,0.47948223,5.067598,1145740801362000,1.7855814,Bike
Fix,GPS,37.4228798175,-122.1603447775,-11.622732871308648,5.111328,6.075738,323.91055,1677710935999,0.46648508,4.8897233,1145741801461000,6.4806247,Bike
Fix,FLP,37.4228786,-122.1603399,0.393556550926931,5.1111803,6.242,322.9798,1677710938577,0.46648508,4.8897233,1145741801461000,1.7951813,Bike
Fix,GPS,37.4229155388,-122.1603843295,-11.322172266456208,5.5574274,6.1381464,322.05746,1677710936999,0.46704823,4.5556707,1145742801703000,6.516373,Bike
Fix,FLP,37.4229155,-122.1603806,11.506747854306468,5.5530915,6.286,322.00787,1677710939577,0.46704823,4.5556707,1145742801703000,1.7607477,Bike
Fix,NLP,37.4228418,-122.1604238,-7.599999904632568,,16.699,,1677710940101,,,1145743324000000,1.1380624,Bike
Fix,FLP,37.4229293,-122.1603954,-3.4480956694866265,5.5478873,6.585,322.00214,1677710940100,0.46704823,4.5556707,1145743324000000,1.6059746,Bike
Fix,GPS,37.4229572322,-122.1604262737,-11.01410084724646,5.6225915,6.33166,325.28867,1677710937999,0.4729658,4.553648,1145743801692000,6.6084094,Bike
Fix,FLP,37.4229533,-122.1604204,3.6066462916899376,5.6237006,6.685,324.96545,1677710940577,0.4729658,4.553648,1145743801692000,1.6161455,Bike
Fix,GPS,37.4229963376,-122.1604642621,-10.896049091834849,5.381273,6.2033367,322.78256,1677710938999,0.47473708,4.8134503,1145744801636000,6.644075,Bike
Fix,FLP,37.4229957,-122.1604614,-3.4480956694866265,5.383722,6.622,322.03134,1677710941577,0.47473708,4.8134503,1145744801636000,1.6264355,Bike
Fix,GPS,37.4230327817,-122.1605015634,-11.31452670658202,5.30759,6.194906,324.18604,1677710939999,0.47894207,4.8447056,1145745801471000,6.6608624,Bike
Fix,FLP,37.4230332,-122.1605005,3.6066462916899376,5.308302,6.702,323.97986,1677710942578,0.47894207,4.8447056,1145745801471000,1.6386039,Bike
Fix,GPS,37.4230706451,-122.1605388523,-11.997103639158697,5.4753876,6.2250385,325.94797,1677710940999,0.50472975,4.910865,1145746801777000,6.7348394,Bike
Fix,FLP,37.4230711,-122.1605377,1.5340241518204074,5.4734726,6.727,324.9884,1677710943577,0.50472975,4.910865,1145746801777000,1.648554,Bike
Fix,GPS,37.4231111466,-122.1605807973,-12.620360520025256,5.3515916,6.110569,326.45163,1677710941999,0.4897068,4.8648596,1145747801770000,6.6895223,Bike
Fix,FLP,37.4231112,-122.1605779,-10.643786215777212,5.352868,6.722,325.98926,1677710944577,0.4897068,4.8648596,1145747801770000,1.658564,Bike
Fix,GPS,37.4231532281,-122.1606235707,-12.949449189737823,5.0260115,6.2117386,325.0788,1677710942999,0.48783058,5.134142,1145748801538000,6.629795,Bike
Fix,FLP,37.4231524,-122.1606189,-10.643786215777212,5.0294924,6.213,325.01138,1677710945578,0.48783058,5.134142,1145748801538000,1.668554,Bike
Fix,GPS,37.4231880419,-122.1606580263,-13.19693233617041,4.7444,5.952735,319.95013,1677710943999,0.45141405,5.087565,1145749801495000,6.511197,Bike
Fix,FLP,37.4231885,-122.1606556,-10.643786215777212,4.746774,6.149,319.05704,1677710946577,0.45141405,5.087565,1145749801495000,1.6785539,Bike
Fix,GPS,37.4232194847,-122.1606964202,-13.28621064319715,4.0006213,6.0409145,307.85532,1677710944999,0.47628826,6.492464,1145750801932000,6.413893,Bike
Fix,FLP,37.4232184,-122.1606927,-8.800000190734863,4.008987,6.082,307.18356,1677710947577,0.47628826,6.492464,1145750801932000,1.688564,Bike
Fix,FLP,37.4232242,-122.1606992,-8.800000190734863,3.1232176,6.826,37.4302,1677710947721,,,1145750944682223,1.688564,Bike
Fix,GPS,37.4232389103,-122.1607324189,-12.99473767010248,3.0874882,6.339361,296.35602,1677710945999,0.47726098,8.461697,1145751801709000,6.469666,Bike
Fix,FLP,37.4232305,-122.1607032,-7.599999904632568,2.9579601,7.298,321.3235,1677710948263,,,1145751487200107,1.698574,Bike
Fix,FLP,37.4232395,-122.1607212,-7.599999904632568,3.068572,7.881,300.20612,1677710948805,,,1145752029718844,1.698574,Bike
Fix,GPS,37.4232417214,-122.1607660487,-12.458438742274067,2.451943,6.572741,260.17856,1677710946999,0.5028095,12.067768,1145752801489000,6.530344,Bike
Fix,FLP,37.4232464,-122.160745,-7.599999904632568,3.100242,8.226,286.26468,1677710949348,,,1145752572224643,1.7085539,Bike
Fix,GPS,37.4232119609,-122.1607963691,-13.292556829554922,2.7715619,6.6516876,223.4125,1677710947999,0.45067614,8.793844,1145753801863000,6.5258408,Bike
Fix,FLP,37.4232452,-122.1607867,-2.6051034246514497,2.5002537,9.358,264.51157,1677710950433,,,1145753657271762,1.718554,Bike
Fix,FLP,37.4232296,-122.1608007,-2.6051034246514497,2.6257195,9.543,223.98456,1677710950976,,,1145754199789828,1.718554,Bike
Fix,FLP,37.4232115,-122.1608108,-2.6051034246514497,2.7554026,9.713,210.483,1677710951494,,,1145754718000000,1.718554,Bike
Fix,GPS,37.4231781212,-122.1608136207,-13.862666305346709,3.2272682,6.5470514,204.91132,1677710948999,0.4571606,8.233906,1145754801764000,6.50451,Bike
Fix,FLP,37.423178,-122.1608232,3.265514634945511,3.1516922,10.648,209.9157,1677710952061,,,1145755284824984,1.7285739,Bike
Fix,GPS,37.4231518516,-122.1608194602,-13.6509442101836,3.1644194,6.7206945,207.075,1677710949999,0.49149397,8.835321,1145755801557000,6.5860643,Bike
Fix,FLP,37.4231659,-122.1608288,15.778935349308313,3.198516,10.685,215.99196,1677710952603,,,1145755827345675,1.738564,Bike
Fix,FLP,37.4231408,-122.1608432,15.778935349308313,3.1766343,11.15,211.51718,1677710953145,,,1145756369862888,1.738564,Bike
Fix,GPS,37.4231165729,-122.1608335047,-14.196740505854365,3.267666,6.773553,214.32146,1677710950999,0.49520501,8.527762,1145756801841000,6.7132115,Bike
Fix,FLP,37.4231321,-122.1608458,18.949325376573817,3.1785576,11.277,209.78853,1677710953688,,,1145756912365329,1.748574,Bike
Fix,FLP,37.4231051,-122.1608575,18.949325376573817,3.2506049,11.317,210.69664,1677710954230,,,1145757454894381,1.748574,Bike
Fix,GPS,37.4230796051,-122.1608519025,-13.37786762950063,3.6255462,6.608899,213.42719,1677710951999,0.4772922,7.3598933,1145757801600000,6.778168,Bike
Fix,FLP,37.4230715,-122.1608729,15.778935349308313,3.5574372,11.324,214.39308,1677710955316,,,1145758539927707,1.758564,Bike
Fix,GPS,37.4230416316,-122.1608726047,-13.49640108428244,3.8452725,6.456558,213.4876,1677710952999,0.4530509,6.514968,1145758801825000,6.821449,Bike
Fix,FLP,37.4230331,-122.1608946,-4.568553291305555,3.8087895,11.219,213.40198,1677710956400,,,1145759624960482,1.768564,Bike
Fix,GPS,37.4230001349,-122.1609001695,-14.335957501173544,3.9251564,6.2175303,217.21535,1677710953999,0.48587114,6.7810755,1145759801958000,6.832357,Bike
Fix,GPS,37.4229627566,-122.1609304146,-14.200993482353274,3.991005,6.1200523,218.1707,1677710954999,0.46241897,6.3118014,1145760801673000,6.7811046,Bike
Fix,FLP,37.4229899,-122.1609231,1.359414011119796,3.9077985,11.202,219.45847,1677710957486,,,1145760709991977,1.788574,Bike
Fix,FLP,37.4229504,-122.1609552,1.359414011119796,3.9839263,10.983,220.32562,1677710958572,,,1145761795022189,1.788574,Bike
Fix,GPS,37.4229280692,-122.160959872,-13.432146937658846,3.981399,6.0367756,220.0677,1677710955999,0.47708455,6.5527053,1145761801897000,6.7795663,Bike
Fix,GPS,37.4228949259,-122.1609815164,-12.893554412526235,4.0633626,6.0218678,219.46317,1677710956999,0.49847776,6.657404,1145762801789000,6.795152,Bike
Fix,FLP,37.4229105,-122.1609875,10.607480702909196,3.9923737,10.851,219.62976,1677710959657,,,1145762880051303,1.798564,Bike
Fix,FLP,37.4228809,-122.1610066,10.607480702909196,4.0402336,10.757,217.97083,1677710960199,,,1145763422565219,1.8085539,Bike
Fix,GPS,37.4228649318,-122.1610039807,-13.048065935504816,3.764519,6.158184,220.15308,1677710957999,0.5373182,7.7665176,1145763801684000,6.9133835,Bike
Fix,FLP,37.4228662,-122.1610138,3.0209092419058265,3.844412,10.681,219.55405,1677710960741,,,1145763965079135,1.8185639,Bike
Fix,GPS,37.4228347899,-122.1610256085,-12.943786847869536,3.3651953,6.113069,214.57755,1677710958999,0.53435147,8.635048,1145764801876000,6.9480305,Bike
Fix,FLP,37.4228511,-122.161027,8.679795287622806,3.7833676,10.713,219.69527,1677710961283,,,1145764507588352,1.8285639,Bike
Fix,FLP,37.4228394,-122.1610328,8.679795287622806,3.5089738,10.683,215.44293,1677710961827,,,1145765050105807,1.8285639,Bike
Fix,GPS,37.4228063477,-122.1610434111,-12.51950449496148,3.0161858,6.257453,208.58144,1677710959999,0.51492053,9.167963,1145765801707000,7.0365567,Bike
Fix,FLP,37.4228164,-122.1610463,8.679795287622806,3.3753884,10.66,213.10353,1677710962369,,,1145765592618625,1.8285639,Bike
Fix,GPS,37.4227822801,-122.1610571976,-12.323119291184025,2.8193765,6.50032,208.28223,1677710960999,0.5543756,10.78381,1145766801938000,7.2097187,Bike
Fix,FLP,37.4227887,-122.1610618,1.9133796650799295,3.066015,10.688,210.3232,1677710963454,,,1145766677643771,1.8485639,Bike
Fix,GPS,37.4227603012,-122.1610722395,-12.736911246286288,2.5528545,6.541422,227.05626,1677710961999,0.52742934,11.140598,1145767801856000,7.3156695,Bike
Fix,FLP,37.4227626,-122.1610776,-0.4753060634922832,2.8495626,10.741,210.72942,1677710964539,,,1145767762668429,1.8585839,Bike
Fix,GPS,37.4227435894,-122.1610991025,-12.311220805024613,2.3309178,6.4982967,247.10619,1677710962999,0.48141927,10.644015,1145768802044000,7.27123,Bike
Fix,FLP,37.4227428,-122.1610977,-0.96888703210562,2.5675988,11.042,240.12738,1677710965624,,,1145768847692050,1.868554,Bike
Fix,FLP,37.4227377,-122.1611149,-0.96888703210562,2.3387659,11.044,261.35953,1677710966166,,,1145769390199923,1.868554,Bike
Fix,GPS,37.42274753,-122.161138778,-12.76772663540597,2.3883786,6.4269886,281.20422,1677710963999,0.43349972,9.404703,1145769801778000,7.1432867,Bike
Fix,FLP,37.4227434,-122.1611502,-7.599999904632568,2.3246462,11.197,299.18906,1677710967252,,,1145770475225619,1.878564,Bike
Fix,GPS,37.4227637043,-122.161173603,-14.353748092318854,2.5726063,6.306633,307.1649,1677710964999,0.4114351,8.669105,1145770801783000,7.1106095,Bike
Fix,FLP,37.4227585,-122.1611724,-14.315267320416034,2.5361738,11.241,307.00983,1677710967793,,,1145771017736362,1.888564,Bike
Fix,GPS,37.4227860883,-122.1612040066,-14.39307222089816,3.2067935,6.335536,321.56027,1677710965999,0.45863354,7.744339,1145771802076000,7.035973,Bike
Fix,FLP,37.4227672,-122.1611846,-15.845472253257228,2.567247,11.18,311.21695,1677710968337,,,1145771560247104,1.898564,Bike
Fix,GPS,37.4228155542,-122.1612343161,-14.13901397653075,3.3035073,6.3931093,327.8955,1677710966999,0.5307287,8.080451,1145772801960000,6.9815736,Bike
Fix,FLP,37.4227908,-122.1612146,-13.108436835023197,3.122325,11.152,319.91068,1677710969422,,,1145772645267550,1.908554,Bike
Fix,GPS,37.4228413659,-122.1612611499,-13.801991421982486,3.2117052,6.572135,334.47028,1677710967999,0.5552581,8.682617,1145773802097000,6.9937577,Bike
Fix,FLP,37.4228231,-122.1612439,-7.599999904632568,3.2983897,11.093,323.7418,1677710970507,,,1145773730276400,1.918564,Bike
Fix,FLP,37.4228551,-122.1612693,-4.752730882384505,3.2331293,11.215,326.689,1677710971592,,,1145774815305636,1.928574,Bike
Fix,GPS,37.422870769,-122.1612894075,-13.057808778858426,3.1283498,6.666577,323.03528,1677710968999,0.5401423,8.808003,1145774801847000,7.100644,Bike
Fix,GPS,37.4228940907,-122.1613204287,-13.377589962116067,3.1071122,6.610817,324.148,1677710969999,0.4683564,8.129601,1145775801886000,6.9227057,Bike
Fix,FLP,37.422886,-122.1612995,-4.057834880112729,3.1489,11.19,325.18243,1677710972676,,,1145775900323031,1.9385539,Bike
Fix,GPS,37.4229165596,-122.161354618,-13.268551812017783,3.2777553,6.2440186,323.01404,1677710970999,0.41305408,6.836935,1145776801872000,6.8133106,Bike
Fix,FLP,37.4229093,-122.1613257,17.819756761974105,3.1108208,11.321,322.16074,1677710973219,,,1145776442831271,1.9486539,Bike
Fix,FLP,37.4229174,-122.1613404,17.819756761974105,3.2358837,11.344,321.83487,1677710973761,,,1145776985328097,1.9486539,Bike
Fix,NLP,37.4227162,-122.160911,-6.400000095367432,,45.6,,1677710973983,,,1145777207000000,4.192274,Bike
Fix,GPS,37.4229372082,-122.1613887584,-13.18574063627486,2.9610903,6.1459446,319.30603,1677710971999,0.42047268,7.711774,1145777801977000,6.756569,Bike
Fix,FLP,37.4229325,-122.1613633,17.85505349656973,3.2736661,11.27,318.23965,1677710974304,,,1145777527844882,1.6149207,Bike
Fix,FLP,37.4229425,-122.1613817,17.85505349656973,3.0457926,11.16,315.9779,1677710974847,,,1145778070344150,1.6149207,Bike
Fix,GPS,37.4229547787,-122.161421208,-12.550585668345796,2.8700485,6.059162,301.61508,1677710972999,0.44387627,8.314127,1145778802151000,6.623723,Bike
Fix,FLP,37.4229542,-122.1614009,22.338937130425546,2.9859192,11.047,309.4368,1677710975389,,,1145778612852695,1.6248608,Bike
Fix,FLP,37.422961,-122.1614188,22.338937130425546,2.90489,11.026,301.4367,1677710975932,,,1145779155371859,1.6248608,Bike
Fix,GPS,37.4229546796,-122.1614575117,-13.60749971114972,2.8232732,5.9418144,281.35638,1677710973999,0.43146336,7.5326767,1145779802079000,6.471573,Bike
Fix,FLP,37.4229674,-122.1614384,22.409568496933403,2.8882945,10.972,294.01697,1677710976474,,,1145779697879367,1.6348608,Bike
Fix,FLP,37.4229669,-122.1614587,22.409568496933403,2.8389869,10.801,282.97064,1677710977016,,,1145780240387179,1.6348608,Bike
Fix,GPS,37.4229533627,-122.1614950089,-13.900807391337649,3.2232032,5.9418445,282.17154,1677710974999,0.4297854,7.1112485,1145780802150000,6.342491,Bike
Fix,FLP,37.4229669,-122.1614812,22.63119103589416,2.8293047,10.676,281.4033,1677710977559,,,1145780782894687,1.6448607,Bike
Fix,GPS,37.4229541866,-122.1615430675,-14.1694606775653,3.488454,5.9163976,288.43423,1677710975999,0.425349,6.4003596,1145781801987000,6.2459064,Bike
Fix,FLP,37.422967,-122.1615208,22.63119103589416,3.1504438,10.473,284.52225,1677710978644,,,1145781867909945,1.6548707,Bike
Fix,FLP,37.4229684,-122.1615603,22.63119103589416,3.4352083,10.339,285.913,1677710979186,,,1145782410406283,1.6548707,Bike
Fix,GPS,37.4229572584,-122.1615972212,-14.12580797096684,3.7041929,5.80274,285.6992,1677710976999,0.43082875,6.0480776,1145782801956000,6.14452,Bike
Fix,FLP,37.4229666,-122.1615825,-1.8635885740535765,3.6423984,10.195,285.25076,1677710979728,,,1145782952925021,1.6648507,Bike
Fix,GPS,37.422956505,-122.1616515468,-13.99073869561641,3.6080241,5.857158,277.5027,1677710977999,0.4383996,5.925451,1145783802241000,6.0835743,Bike
Fix,FLP,37.4229695,-122.1616153,-11.586912177092572,3.6984377,10.159,284.0439,1677710980272,,,1145783495432834,1.6748607,Bike
Fix,FLP,37.4229663,-122.1616631,-11.586912177092572,3.6221821,10.104,273.5621,1677710981356,,,1145784580447238,1.6748607,Bike
Fix,GPS,37.4229559258,-122.1616997139,-13.57658840207381,3.860331,5.852918,277.34512,1677710978999,0.42481977,5.751696,1145784802217000,5.96955,Bike
Fix,FLP,37.4229607,-122.1617057,-11.586912177092572,3.8091884,10.019,276.3985,1677710981888,,,1145785112820102,1.6848607,Bike
Fix,GPS,37.4229582592,-122.1617498065,-13.14572331980353,4.342533,5.8704724,286.04962,1677710979999,0.4559386,5.615653,1145785802135000,5.887144,Bike
Fix,FLP,37.4229626,-122.1617264,-11.292770127850709,3.7899861,10.014,285.72842,1677710982442,,,1145785665461092,1.6948507,Bike
Fix,FLP,37.4229632,-122.1617518,-11.292770127850709,4.2075133,9.97,286.37033,1677710982983,,,1145786207968173,1.6948507,Bike
Fix,GPS,37.4229666064,-122.161805354,-12.76806546096144,4.8325543,6.025674,286.5369,1677710980999,0.47970596,5.18173,1145786802026000,5.915668,Bike
Fix,FLP,37.4229667,-122.16178,-3.736898133560537,4.3177238,9.924,285.76828,1677710983527,,,1145786750475314,1.7048807,Bike
Fix,GPS,37.4229770582,-122.1618657655,-12.55619632135695,5.010139,6.016986,285.2283,1677710981999,0.4899993,4.913481,1145787802073000,5.9548206,Bike
Fix,FLP,37.4229748,-122.1618347,-1.0653539890755113,4.7902064,9.883,280.50327,1677710984611,,,1145787835488681,1.7148508,Bike
Fix,GPS,37.4229797239,-122.1619201596,-12.255184305093488,4.9952545,5.9913034,280.67404,1677710982999,0.51437443,5.1590586,1145788802301000,6.0295925,Bike
Fix,FLP,37.4229837,-122.1619055,14.88297091674412,4.9897666,9.957,279.81735,1677710985697,,,1145788920501681,1.7248707,Bike
Fix,GPS,37.4229819564,-122.161972964,-12.302119858126924,4.7623496,6.01015,279.66336,1677710983999,0.5023438,5.2871323,1145789802441000,6.1103415,Bike
Fix,FLP,37.4229868,-122.1619697,12.89705041687909,5.012757,9.488,279.34464,1677710986578,,,1145789802441000,1.7348608,Bike
Fix,GPS,37.4229915672,-122.1620300551,-13.182254927288785,4.317334,5.997019,286.69934,1677710984999,0.47730592,5.6562676,1145790802118000,6.15713,Bike
Fix,FLP,37.4229835,-122.1620093,12.89705041687909,4.527495,9.705,232.55225,1677710987631,,,1145790855440524,1.7448407,Bike
Fix,FLP,37.4229821,-122.1620475,12.89705041687909,4.159075,9.676,265.78842,1677710988173,,,1145791397945711,1.7448407,Bike
Fix,GPS,37.4230040246,-122.1620821685,-13.888084865968745,4.4504843,6.0020676,290.5424,1677710985999,0.47527775,5.5552015,1145791802284000,6.237976,Bike
Fix,FLP,37.4229949,-122.1620878,10.552281051644428,4.32878,9.702,285.57187,1677710988717,,,1145791940451572,1.7548507,Bike
Fix,GPS,37.4230158845,-122.1621331711,-13.92124033285545,4.4999943,6.0019755,291.26523,1677710986999,0.49164748,5.696006,1145792802156000,6.2765503,Bike
Fix,FLP,37.4230028,-122.162109,16.96449543413351,4.406042,9.779,288.56104,1677710989258,,,1145792482956638,1.7648607,Bike
Fix,FLP,37.4230127,-122.1621339,16.96449543413351,4.4831657,9.813,289.72748,1677710989801,,,1145793025462130,1.7648607,Bike
Fix,GPS,37.4230285254,-122.1621868755,-13.718119871509598,4.4758883,5.996951,292.28076,1677710987999,0.48205888,5.552108,1145793802392000,6.2975426,Bike
Fix,FLP,37.4230223,-122.1621618,-0.2706171873218466,4.5071845,10.258,289.4269,1677710990343,,,1145793567967928,1.7748808,Bike
Fix,FLP,37.4230296,-122.1621836,-0.2706171873218466,4.483547,10.258,291.4279,1677710990887,,,1145794110473849,1.7748808,Bike
Fix,GPS,37.4230404661,-122.1622391864,-13.834854144630912,4.1345253,6.0579686,292.80673,1677710988999,0.48021117,5.9812136,1145794802153000,6.426485,Bike
Fix,FLP,37.4230416,-122.1622179,16.371694607664246,4.4868016,10.258,291.5154,1677710991429,,,1145794652979221,1.7848707,Bike
Fix,FLP,37.4230552,-122.1622694,16.371694607664246,4.185522,10.249,292.01855,1677710992514,,,1145795737990633,1.7848707,Bike
Fix,GPS,37.4230517092,-122.1622907017,-12.467454179865376,4.067432,6.1294856,294.2219,1677710989999,0.47298726,6.0618024,1145795802431000,6.5012207,Bike
Fix,FLP,37.4230629,-122.1623094,16.371694607664246,4.069243,10.369,293.69022,1677710993056,,,1145796280496493,1.7951207,Bike
Fix,GPS,37.4230603534,-122.1623343934,-12.620419819779112,4.0392046,6.4367685,292.36502,1677710990999,0.4854892,6.3224773,1145796802166000,6.602636,Bike
Fix,FLP,37.4230651,-122.1623199,16.371694607664246,4.0678844,10.376,294.6305,1677710993600,,,1145796823001865,1.8048507,Bike
Fix,FLP,37.4230734,-122.1623547,16.371694607664246,4.0535865,10.536,292.2761,1677710994142,,,1145797365510714,1.8048507,Bike
Fix,GPS,37.4230704408,-122.1623797541,-12.850880289526794,4.2743516,6.6260376,292.63907,1677710991999,0.4847837,5.9774947,1145797802445000,6.64785,Bike
Fix,FLP,37.4230763,-122.1623712,16.371694607664246,4.0552726,10.62,291.03726,1677710994685,,,1145797908012850,1.8148607,Bike
Fix,GPS,37.4230812538,-122.1624263776,-11.888637804656138,4.5121627,6.6593275,291.36185,1677710992999,0.47816354,5.5418744,1145798802464000,6.649764,Bike
Fix,FLP,37.423083,-122.1624086,14.527577541590452,4.1938066,10.805,291.18607,1677710995226,,,1145798450513827,1.8248707,Bike
Fix,FLP,37.4230863,-122.162428,14.527577541590452,4.4216757,10.895,290.76593,1677710995769,,,1145798993023531,1.8248707,Bike
Fix,GPS,37.4230972756,-122.1624832374,-11.61043858059712,4.5053887,6.4693465,293.75858,1677710993999,0.45521218,5.3513727,1145799802265000,6.5588684,Bike
Fix,FLP,37.4230925,-122.162456,1.2348405596813483,4.48627,11.011,290.6032,1677710996311,,,1145799535517673,1.8348607,Bike
Fix,FLP,37.4231061,-122.162504,1.2348405596813483,4.4884267,11.073,293.8844,1677710997396,,,1145800620539157,1.8348607,Bike
Fix,GPS,37.4231192403,-122.1625430452,-11.221601490302646,4.6871676,6.249529,295.35873,1677710994999,0.44282302,5.0169816,1145800802292000,6.5439954,Bike
Fix,FLP,37.4231257,-122.1625596,14.527577541590452,4.6631403,11.134,294.91434,1677710998478,,,1145801701000000,1.8448607,Bike
Fix,GPS,37.4231385758,-122.1625949789,-11.244743888251902,4.801633,6.033824,290.56985,1677710995999,0.4583187,5.0637536,1145801802465000,6.444372,Bike
Fix,FLP,37.4231406,-122.1626059,17.713867442463155,4.812139,11.085,291.3922,1677710999024,,,1145802248053622,1.8548707,Bike
Fix,GPS,37.4231534399,-122.1626511864,-11.475928549397748,4.981434,5.959769,289.54663,1677710996999,0.46633652,4.963834,1145802802346000,6.4209847,Bike
Fix,FLP,37.4231461,-122.1626267,13.714064206732644,4.8232183,10.992,290.18994,1677710999566,,,1145802790561495,1.8648708,Bike
Fix,FLP,37.4231571,-122.1626622,13.714064206732644,4.976128,10.862,289.26205,1677711000078,,,1145803301000000,1.8648708,Bike
Fix,GPS,37.4231678738,-122.16270661,-11.443517888015156,4.842254,5.851632,287.8215,1677710997999,0.46011582,4.9663215,1145803802461000,6.394193,Bike
Fix,FLP,37.4231669,-122.1626962,4.650553823055205,5.005943,10.758,288.52594,1677711000652,,,1145803875568088,1.8748807,Bike
Fix,GPS,37.4231797834,-122.1627600911,-11.570346792681336,4.42302,5.885992,288.65118,1677710998999,0.47368202,5.5660844,1145804802355000,6.392387,Bike
Fix,FLP,37.4231783,-122.1627477,4.650553823055205,4.860681,10.494,286.46182,1677711001195,,,1145804418071932,1.8748807,Bike
Fix,FLP,37.4231879,-122.1627932,-1.800814544004382,4.4739223,10.319,287.989,1677711002279,,,1145805503080173,1.8848608,Bike
Fix,GPS,37.4231921059,-122.1628070621,-11.23663593373846,4.3444653,5.9055853,286.67697,1677710999999,0.44674024,5.249277,1145805802294000,6.413962,Bike
Fix,FLP,37.4231989,-122.1628364,10.28702108881064,4.3794928,10.276,286.05298,1677711003350,,,1145806573000000,1.8948607,Bike
Fix,GPS,37.4232021141,-122.1628599099,-10.965135334044518,4.7026086,5.9205627,286.7999,1677711000999,0.45582622,5.0203457,1145806802585000,6.4592376,Bike
Fix,FLP,37.4232069,-122.1628751,20.45360487226918,4.632084,10.159,285.2752,1677711003906,,,1145807130589083,1.9048607,Bike
Fix,GPS,37.4232136347,-122.1629198389,-10.822383910318583,4.8621864,5.8403563,286.03845,1677711001999,0.46522847,5.0240154,1145807802375000,6.4086967,Bike
Fix,FLP,37.4232113,-122.1628981,12.45738856799634,4.695804,10.17,284.36203,1677711004450,,,1145807673095248,1.9148607,Bike
Fix,FLP,37.4232184,-122.1629266,12.45738856799634,4.8288946,10.137,285.14563,1677711004997,,,1145808221000000,1.9148607,Bike
Fix,GPS,37.423225704,-122.1629845568,-10.530437513815698,4.7166514,5.771829,285.52017,1677711002999,0.44661215,4.905152,1145808802645000,6.3690853,Bike
Fix,FLP,37.4232267,-122.1629617,1.525344615196378,4.860479,10.11,285.65845,1677711005535,,,1145808758101900,1.9248607,Bike
Fix,NLP,37.4232764,-122.163125,-5.5,,15.816,,1677711005939,,,1145809162000000,1.470486,Bike
Fix,FLP,37.4232314,-122.1629855,5.98078828026204,4.785374,10.004,286.15753,1677711006076,,,1145809300605380,1.081789,Bike
Fix,FLP,37.4232422,-122.1630348,5.98078828026204,4.860039,9.82,286.44232,1677711006619,,,1145809843108736,1.081789,Bike
Fix,GPS,37.4232362308,-122.1630456786,-10.45372126977045,4.9673915,5.831992,287.6061,1677711003999,0.47015256,4.9520707,1145809802346000,6.369655,Bike
Fix,FLP,37.4232504,-122.163081,7.620902549260855,4.917355,9.682,286.3653,1677711007162,,,1145810385615328,1.083919,Bike
Fix,GPS,37.4232486635,-122.1631092608,-10.151909286863908,5.053124,5.819147,286.3016,1677711004999,0.46199605,4.798617,1145810802501000,6.3664675,Bike
Fix,FLP,37.42325,-122.1631002,13.296313671151545,5.0503044,9.329,286.00092,1677711007578,0.46199605,4.798617,1145810802501000,1.0937006,Bike
Fix,GPS,37.4232593026,-122.1631734365,-9.816635895856168,5.116038,5.802929,285.78122,1677711005999,0.48148388,4.969849,1145811802655000,6.349342,Bike
Fix,FLP,37.4232605,-122.1631665,15.83750319951436,5.1153846,8.782,285.0092,1677711008578,0.48148388,4.969849,1145811802655000,1.1036354,Bike
Fix,GPS,37.4232704729,-122.1632330712,-10.07073940307449,5.0507054,5.825187,288.45956,1677711006999,0.47985682,4.9996924,1145812802456000,6.3398085,Bike
Fix,FLP,37.4232712,-122.1632292,7.620902549260855,5.051471,8.213,287.9708,1677711009578,0.47985682,4.9996924,1145812802456000,1.1137791,Bike
Fix,GPS,37.4232878813,-122.1632958666,-10.344930637834452,4.7153254,5.9128504,291.8068,1677711007999,0.48331702,5.361274,1145813802548000,6.3815317,Bike
Fix,FLP,37.4232856,-122.1632881,-5.5,4.960987,8.282,290.06424,1677711010579,,,1145813802548000,1.123779,Bike
Fix,FLP,37.4232963,-122.1633153,-5.5,4.9006,8.252,322.42136,1677711011172,,,1145814395618380,1.123779,Bike
Fix,GPS,37.4233041152,-122.1633557799,-10.416218131966689,4.5980744,5.982707,290.02252,1677711008999,0.4774791,5.429893,1145814802430000,6.4476013,Bike
Fix,FLP,37.4233075,-122.1633407,-0.6494887203551478,4.989944,9.022,308.1208,1677711011714,,,1145814938121737,1.133769,Bike
Fix,FLP,37.4233138,-122.1633738,-0.6494887203551478,4.7894526,9.158,295.09396,1677711012257,,,1145815480625339,1.133769,Bike
Fix,GPS,37.4233170407,-122.1634182521,-10.571399334050351,4.8190846,5.9439583,282.53937,1677711009999,0.47128528,5.2019086,1145815802514000,6.4872684,Bike
Fix,FLP,37.4233163,-122.1634232,18.53243842490009,4.8273335,9.695,284.3637,1677711012799,,,1145816023129062,1.143759,Bike
Fix,GPS,37.4233245031,-122.1634773856,-10.884702663836638,4.7328815,6.0263114,282.05075,1677711010999,0.49310482,5.5407286,1145816802480000,6.575251,Bike
Fix,FLP,37.4233161,-122.1634474,3.4323449384548965,4.8368196,9.802,281.47162,1677711013342,,,1145816565635165,1.153769,Bike
Fix,FLP,37.4233196,-122.1634782,3.4323449384548965,4.7562094,10.224,281.7404,1677711013883,,,1145817106282870,1.153769,Bike
Fix,GPS,37.4233257874,-122.1635322536,-10.744501616318615,4.581091,6.1893435,284.19577,1677711011999,0.48568064,5.56927,1145817802515000,6.6497583,Bike
Fix,FLP,37.4233239,-122.1635117,2.081557561817224,4.7427726,10.666,281.25748,1677711014427,,,1145817650639255,1.163769,Bike
Fix,FLP,37.4233267,-122.1635712,2.081557561817224,4.6034694,10.558,279.70056,1677711015511,,,1145818735645968,1.163769,Bike
Fix,GPS,37.4233296818,-122.1635863745,-10.525657903391153,4.6726146,6.2313523,282.11853,1677711012999,0.4961697,5.807297,1145818802536000,6.6879034,Bike
Fix,FLP,37.4233275,-122.1636164,2.081557561817224,4.6371922,10.27,281.96985,1677711016055,,,1145819278149325,1.173779,Bike
Fix,GPS,37.4233312864,-122.1636403818,-10.128119063011852,4.934159,6.3239336,280.74554,1677711013999,0.47962877,5.276505,1145819802512000,6.7405176,Bike
Fix,FLP,37.4233288,-122.1636295,12.389259762078687,4.64625,10.069,283.9965,1677711016597,,,1145819820652743,1.1837591,Bike
Fix,FLP,37.4233316,-122.163666,12.389259762078687,4.8878384,10.166,282.5995,1677711017140,,,1145820363144931,1.1837591,Bike
Fix,GPS,37.4233338352,-122.1637019687,-10.637980681650536,4.9447923,6.17392,280.9845,1677711014999,0.4466085,4.7648787,1145820802934000,6.5869718,Bike
Fix,FLP,37.4233335,-122.1636909,12.581502067935617,4.9165106,10.226,283.1578,1677711017682,,,1145820905658907,1.1937691,Bike
Fix,GPS,37.4233423606,-122.1637679379,-11.177617113142553,4.9471917,5.8569536,285.63327,1677711015999,0.43387958,4.621341,1145821802600000,6.453203,Bike
Fix,FLP,37.4233367,-122.1637371,11.358077122473816,4.9334326,10.139,282.37192,1677711018225,,,1145821448164767,1.2037691,Bike
Fix,FLP,37.4233406,-122.1637623,11.358077122473816,4.931742,10.062,283.92615,1677711018767,,,1145821990665500,1.2037691,Bike
Fix,GPS,37.4233519865,-122.1638280514,-11.259032281660362,4.7841506,5.757962,287.855,1677711016999,0.45322105,5.0059013,1145822802547000,6.3503814,Bike
Fix,FLP,37.4233476,-122.1637969,-0.808249279644599,4.939515,9.96,284.71954,1677711019309,,,1145822533168918,1.2137691,Bike
Fix,FLP,37.4233575,-122.1638554,-0.808249279644599,4.811873,9.838,285.40445,1677711020395,,,1145823618174960,1.2137691,Bike
Fix,GPS,37.4233629653,-122.1638834939,-11.52549736501049,4.790144,5.6797667,289.7936,1677711017999,0.43758333,4.736868,1145823802745000,6.283321,Bike
Fix,FLP,37.4233656,-122.1639035,9.629326296066116,4.782099,9.783,285.98624,1677711020937,,,1145824160677890,1.223759,Bike
Fix,GPS,37.4233743968,-122.163939044,-11.46719169031323,5.0339923,5.6768694,287.2814,1677711018999,0.44719082,4.5891814,1145824802570000,6.2377534,Bike
Fix,FLP,37.4233685,-122.1639186,17.703608320005216,4.7974706,9.757,285.745,1677711021480,,,1145824703180880,1.233769,Bike
Fix,FLP,37.4233751,-122.1639537,17.703608320005216,4.9908915,9.724,285.2728,1677711022021,,,1145825245685336,1.233769,Bike
Fix,GPS,37.4233850764,-122.1639977411,-11.569139755961055,5.132134,5.648698,285.41412,1677711019999,0.45622578,4.6275864,1145825802838000,6.208974,Bike
Fix,FLP,37.423383,-122.1639885,16.85132828383037,5.1309276,9.292,285.0109,1677711022578,0.45622578,4.6275864,1145825802838000,1.243759,Bike
Fix,GPS,37.4233941115,-122.1640531849,-11.830445792473222,5.1581345,5.673237,283.23206,1677711020999,0.44455034,4.44831,1145826802645000,6.1605864,Bike
Fix,FLP,37.4233944,-122.1640501,3.988043389562524,5.1578317,8.575,283.0155,1677711023578,0.44455034,4.44831,1145826802645000,1.253759,Bike
Fix,GPS,37.4234016312,-122.1641141685,-11.628386952419673,4.9347425,5.6603503,285.41553,1677711021999,0.4618161,4.928185,1145827802702000,6.1348467,Bike
Fix,FLP,37.4234028,-122.1641116,11.552852109950884,4.937,8.122,284.98083,1677711024578,0.4618161,4.928185,1145827802702000,1.263769,Bike
Fix,GPS,37.4234108822,-122.1641684033,-11.538662153345198,4.996017,5.8909135,287.2687,1677711022999,0.4827406,5.0230546,1145828802897000,6.168878,Bike
Fix,FLP,37.4234135,-122.1641677,13.478349744277914,5.0070763,7.806,285.99933,1677711025579,,,1145828802897000,1.273759,Bike
Fix,GPS,37.4234226959,-122.1642219964,-11.255195297054572,5.1777234,6.102895,291.56702,1677711023999,0.49257666,5.042624,1145829802729000,6.1899614,Bike
Fix,FLP,37.4234222,-122.1642157,12.372387640730707,5.1743875,6.893,290.93417,1677711026579,0.49257666,5.042624,1145829802729000,1.283769,Bike
Fix,GPS,37.4234384486,-122.164280364,-11.087026543757355,5.1861234,6.19709,293.9315,1677711024999,0.48286343,4.9211273,1145830803055000,6.2292237,Bike
Fix,FLP,37.4234386,-122.1642764,9.322154758390225,5.186087,6.574,292.97968,1677711027579,0.48286343,4.9211273,1145830803055000,1.293779,Bike
Fix,GPS,37.4234533398,-122.16433575,-10.644112777592984,4.9992204,6.3433814,290.96906,1677711025999,0.47891933,5.037655,1145831802703000,6.2909837,Bike
Fix,FLP,37.4234547,-122.1643336,9.322154758390225,5.001008,6.685,290.0281,1677711028578,0.47891933,5.037655,1145831802703000,1.303779,Bike
Fix,GPS,37.4234695181,-122.1643962044,-10.376285135336,5.189729,6.0940294,290.17847,1677711026999,0.47884828,4.873818,1145832802975000,6.2902102,Bike
Fix,FLP,37.4234697,-122.1643926,17.80695183668945,5.187796,6.758,290.00085,1677711029578,0.47884828,4.873818,1145832802975000,1.313779,Bike
Fix,GPS,37.4234890856,-122.1644591502,-10.148619112041246,5.0280604,6.0298934,288.5306,1677711027999,0.46585873,4.8409786,1145833804630000,6.3065767,Bike
Fix,FLP,37.4234878,-122.1644549,12.533441081602149,5.029595,6.109,288.01743,1677711030580,0.46585873,4.8409786,1145833804630000,1.3237691,Bike
Fix,GPS,37.4235011827,-122.1645126928,-9.793669887244826,5.092159,6.0863905,288.1243,1677711028999,0.465882,4.6927104,1145834802774000,6.2887373,Bike
Fix,FLP,37.4235014,-122.1645113,12.533441081602149,5.0915537,6.15,288.0004,1677711031578,0.465882,4.6927104,1145834802774000,1.3337691,Bike
Fix,GPS,37.4235129642,-122.1645657605,-9.658103887375276,5.1834226,6.1627164,287.93832,1677711029999,0.48340455,4.8324494,1145835802982000,6.266637,Bike
Fix,FLP,37.423514,-122.1645659,15.1107135265732,5.182387,6.152,287.00952,1677711032578,0.48340455,4.8324494,1145835802982000,1.3437591,Bike
Fix,GPS,37.4235247098,-122.1646171782,-9.826040811257462,5.0804167,6.1407523,286.97076,1677711030999,0.49325234,5.057058,1145836802780000,6.2574925,Bike
Fix,FLP,37.4235258,-122.1646191,17.33424231575257,5.0814776,6.102,286.0095,1677711033579,0.49325234,5.057058,1145836802780000,1.3537691,Bike
Fix,GPS,37.4235336498,-122.1646717555,-10.072732250587956,4.8643513,6.1471004,289.29437,1677711031999,0.47816175,5.122626,1145837802868000,6.262801,Bike
Fix,FLP,37.4235368,-122.1646728,15.1107135265732,4.99712,6.825,287.23093,1677711034578,,,1145837802868000,1.363759,Bike
Fix,FLP,37.4235439,-122.1647086,10.213034084788504,3.4309695,7.969,65.75168,1677711035683,,,1145838906000000,1.373769,Bike
Fix,GPS,37.4235446902,-122.1647282906,-10.376876494732866,4.8305736,6.067403,289.119,1677711032999,0.47909415,5.1510053,1145838802819000,6.27807,Bike
Fix,FLP,37.4235506,-122.164706,10.213034084788504,3.7582614,8.765,290.63727,1677711036253,,,1145839477336947,1.373769,Bike
Fix,GPS,37.4235565626,-122.1647838074,-10.598656359285991,5.0161347,5.9115963,289.24887,1677711033999,0.4636474,4.790066,1145839802814000,6.247193,Bike
Fix,FLP,37.423558,-122.1647738,17.025256006437445,4.907358,9.168,286.79987,1677711036795,,,1145840019842806,1.383759,Bike
Fix,GPS,37.4235703671,-122.1648400419,-10.60851709317937,4.832945,5.836276,292.27966,1677711034999,0.4722342,5.173959,1145840803049000,6.220762,Bike
Fix,FLP,37.4235623,-122.164803,17.08050438488226,5.0102115,9.47,285.8772,1677711037339,,,1145840562343051,1.393769,Bike
Fix,FLP,37.423569,-122.1648368,17.08050438488226,4.858571,9.426,288.1198,1677711037878,,,1145841102996737,1.393769,Bike
Fix,GPS,37.4235847044,-122.1648927577,-10.737138167095011,4.667173,5.801881,291.39767,1677711035999,0.4704668,5.3334084,1145841802939000,6.1894374,Bike
Fix,FLP,37.423576,-122.1648665,14.876476545956386,4.845359,9.726,288.38068,1677711038424,,,1145841647349642,1.403759,Bike
Fix,FLP,37.4235825,-122.1648907,14.876476545956386,4.7353873,9.654,287.63678,1677711038930,,,1145842154000000,1.403759,Bike
Fix,NLP,37.4234527,-122.1654427,11.399999618530272,,37.884,,1677711039433,,,1145842656000000,14.263687,Bike
Fix,FLP,37.4235901,-122.1649227,17.025256006437445,4.707278,9.606,285.80762,1677711039509,,,1145842732344393,1.2541074,Bike
Fix,GPS,37.4235972457,-122.1649485074,-10.648315633701683,4.3868427,5.7624807,288.24564,1677711036999,0.46654722,5.690066,1145842802858000,6.15032,Bike
Fix,FLP,37.4236049,-122.1649881,1.4453067975460954,4.439014,9.451,284.46912,1677711040594,,,1145843817362460,1.547477,Bike
Fix,GPS,37.4236050729,-122.16500209,-10.574571046311355,4.373185,5.835818,284.88403,1677711037999,0.45558953,5.4357963,1145843802916000,6.209468,Bike
Fix,FLP,37.4236107,-122.1650287,4.551440416015186,4.383403,9.209,281.1405,1677711041136,,,1145844359857577,1.6505007,Bike
Fix,GPS,37.4236120132,-122.1650559924,-10.026042679285164,4.461027,5.803112,278.689,1677711038999,0.46045163,5.439126,1145844803060000,6.213611,Bike
Fix,FLP,37.4236103,-122.1650372,17.413025400240592,4.384576,9.278,279.20947,1677711041679,,,1145844902368441,1.567527,Bike
