Fix,Provider,LatitudeDegrees,LongitudeDegrees,AltitudeMeters,SpeedMps,AccuracyMeters,BearingDegrees,UnixTimeMillis,SpeedAccuracyMps,BearingAccuracyDegrees,elapsedRealtimeNanos,VerticalAccuracyMeters,TransitType
Fix,GPS,37.4273180784,-122.1729605189,11.261006071890668,0.0,13.472607,,1676507125148,0.64890957,,105491778988541,43.405735,Bike
Fix,FLP,37.4273183,-122.1729553,0.1000000461935997,2.592379,50.717,262.457,1676507127393,0.64890957,,105491778988541,2.0454159,Bike
Fix,GPS,37.4273048807,-122.1729438301,11.382198597994934,0.0,18.15881,,1676507126148,1.6665016,,105492839858089,209.26398,Bike
Fix,FLP,37.4273133,-122.1729636,0.1000000461935997,1.467919,35.424,249.39748,1676507128454,1.6665016,,105492839858089,2.056706,Bike
Fix,FLP,37.4273166,-122.1729249,0.1000000461935997,0.0015189466,31.862,,1676507128819,,,105493203780956,2.056706,Bike
Fix,GPS,37.427311384,-122.1729224894,16.245984508640305,0.0,21.762434,,1676507127148,0.82952994,,105493849944841,48.34556,Bike
Fix,NLP,37.425892,-122.1722989,,,899.999,,1676507129498,,,105493882000000,,Bike
Fix,FLP,37.427317,-122.1729137,0.1000000461935997,0.00019489216,16.492,,1676507129361,,,105493746365123,2.056706,Bike
Fix,GPS,37.4273106832,-122.1729056145,55.371190923261615,0.0,34.035305,,1676507128148,0.8633729,,105494879973365,25.667189,Bike
Fix,FLP,37.4273179,-122.1728935,-9.951122416967728,0.00019039761,16.832,,1676507130447,,,105494831535595,2.076716,Bike
Fix,GPS,37.4273107465,-122.1728961764,33.15016847532418,0.0,25.53214,,1676507129148,0.82279044,,105495867393613,19.423962,Bike
Fix,FLP,37.4273185,-122.1728876,-8.403397390011172,0.0002604662,16.798,,1676507131531,,,105495916708141,2.086706,Bike
Fix,GPS,37.4273149638,-122.1728832195,20.093177161451976,0.0,25.110691,,1676507130148,0.7202027,,105496867486387,17.512636,Bike
Fix,FLP,37.4273194,-122.1728823,-4.777459406756783,0.000237669,17.014,,1676507132075,,,105496459294628,2.096736,Bike
Fix,GPS,37.4273200585,-122.1728674874,15.163872077291966,0.0,26.316185,,1676507131148,0.6761819,,105497871333718,13.386474,Bike
Fix,FLP,37.4273205,-122.172878,0.1000000461935997,0.00053051463,17.496,,1676507133160,,,105497544468029,2.106716,Bike
Fix,FLP,37.4273228,-122.1728739,0.1000000461935997,0.00042009875,16.269,,1676507134245,,,105498629640514,2.106716,Bike
Fix,NLP,37.425892,-122.1722989,,,899.999,,1676507134538,,,105498922000000,,Bike
Fix,FLP,37.42733,-122.1728679,-2.91183997914343,0.0010209831,15.38,,1676507138043,,,105502427735241,2.154696,Bike
Fix,FLP,37.4273346,-122.1728649,-2.6661601421631005,0.0012706527,15.763,,1676507140185,,,105504570000000,2.172726,Bike
Fix,NLP,37.4274385,-122.1723613,-2.6999998092651367,,34.83,,1676507140342,,,105504726000000,2.7853708,Bike
Fix,GPS,37.4274481931,-122.1726029736,10.486593610444237,2.851129,8.356682,21.251703,1676507138147,0.6696558,180.0,105504921075298,13.547563,Bike
Fix,FLP,37.4273458,-122.1728374,-4.790094276578515,2.5283575,15.18,15.912215,1676507141299,,,105505683229625,2.018195,Bike
Fix,GPS,37.4274766664,-122.1725401485,9.4747119132839,3.1535308,10.194166,14.420733,1676507139147,0.3652339,10.0,105505864306052,13.916188,Bike
Fix,FLP,37.4273794,-122.172774,0.1000000461935997,3.0871978,15.091,13.826708,1676507141841,,,105506225810619,2.2914267,Bike
Fix,FLP,37.4274113,-122.1727236,0.1000000461935997,3.175483,15.354,14.326176,1676507142383,,,105506768391430,2.2914267,Bike
Fix,GPS,37.4275018494,-122.1724945427,11.783970555510944,3.3001852,8.138168,22.467905,1676507140147,0.33874652,10.0,105506851499290,11.79908,Bike
Fix,FLP,37.4274639,-122.172626,-9.071216900345211,3.2895415,15.383,25.54214,1676507142925,,,105507310971569,2.0031073,Bike
Fix,GPS,37.4275620822,-122.172458007,12.250789838418203,3.248159,6.480629,19.877764,1676507141999,0.3912693,10.0,105508706653018,9.837467,Bike
Fix,FLP,37.4275132,-122.1725484,-9.071216900345211,3.1731775,14.986,26.208408,1676507144012,,,105508396130932,2.0031073,Bike
Fix,GPS,37.4275875588,-122.1724433302,11.198465110736835,3.215254,6.060293,15.709526,1676507142999,0.37505022,10.0,105509706871769,9.24183,Bike
Fix,FLP,37.427554,-122.1724867,-6.970589929051052,3.2614815,14.208,18.65943,1676507145096,,,105509481288891,2.0222707,Bike
Fix,NLP,37.4278248,-122.1725141,-3.900000095367432,,36.972,,1676507145391,,,105509776000000,3.1280713,Bike
Fix,GPS,37.4276130685,-122.1724328578,10.210377482884756,3.0103662,5.8668985,13.719515,1676507143999,0.40868506,10.0,105510647615000,8.768779,Bike
Fix,FLP,37.4275907,-122.1724585,-3.900000095367432,3.319743,13.213,18.539747,1676507146182,,,105510566444957,2.2839813,Bike
Fix,GPS,37.4276391594,-122.1724230066,9.62336850261182,3.1094658,5.6367183,17.654528,1676507144999,0.34651366,10.0,105511647859000,8.325747,Bike
Fix,FLP,37.4276191,-122.1724401,-3.900000095367432,3.045353,12.537,15.992628,1676507147267,,,105511651599498,2.035583,Bike
Fix,GPS,37.4276664549,-122.1724095929,9.181727735902456,3.131979,5.5010977,20.409622,1676507145999,0.3843815,10.0,105512647624000,8.1206255,Bike
Fix,FLP,37.4276518,-122.1724201,-2.6999998092651367,3.1028273,10.97,22.448994,1676507148352,,,105512736752025,2.311803,Bike
Fix,GPS,37.4276924718,-122.1723946159,9.239013166654033,3.1885784,5.4132686,19.818214,1676507146999,0.37352282,10.0,105513647663000,7.9257455,Bike
Fix,FLP,37.4276839,-122.1724017,-2.6999998092651367,3.1351273,10.397,23.719088,1676507149437,,,105513821903881,2.3815284,Bike
Fix,GPS,37.4277203191,-122.1723812062,8.814272567046066,3.438672,5.337318,18.49529,1676507147999,0.34327424,10.0,105514647790000,7.673402,Bike
Fix,FLP,37.427708,-122.1723872,0.1000000461935997,3.1907806,9.847,16.533789,1676507149980,,,105514364479320,2.3957176,Bike
Fix,GPS,37.4277505876,-122.1723665946,8.56368609482384,3.436555,5.2744765,18.292252,1676507148999,0.38037995,10.0,105515647673000,7.4713516,Bike
Fix,FLP,37.4277373,-122.1723744,0.1000000461935997,3.4005237,9.231,20.64338,1676507151065,,,105515449628795,2.4015183,Bike
Fix,GPS,37.4277788683,-122.1723508715,8.486097391701522,3.2302513,5.172769,20.361212,1676507149999,0.3414193,10.0,105516647691000,7.4251995,Bike
Fix,FLP,37.4277673,-122.1723595,-2.6999998092651367,3.4334123,9.128,21.112507,1676507152149,,,105516534776378,2.4156575,Bike
Fix,GPS,37.4278063436,-122.1723361096,8.246726974439552,3.2029915,4.98594,23.540594,1676507150999,0.31172413,10.0,105517647906000,7.148614,Bike
Fix,FLP,37.427799,-122.1723426,-2.6999998092651367,3.261098,9.042,19.870234,1676507153234,,,105517619923168,2.4214983,Bike
Fix,GPS,37.4278344283,-122.1723208915,7.880664080662636,3.2225714,4.8442945,21.982086,1676507151999,0.33521134,10.0,105518647656000,6.8988447,Bike
Fix,FLP,37.427827,-122.1723276,-2.6999998092651367,3.2043943,8.943,23.897657,1676507154321,,,105518705068493,2.5975218,Bike
Fix,GPS,37.4278629934,-122.172306968,7.645788035787892,3.171375,4.749568,15.660304,1676507152999,0.3016669,10.0,105519647756000,6.6706977,Bike
Fix,FLP,37.4278588,-122.1723102,-2.6999998092651367,3.2345285,8.876,19.377047,1676507155405,,,105519790212475,2.5896823,Bike
Fix,GPS,37.427895101,-122.1723010524,7.614052824319948,3.3843448,4.5470114,10.9158945,1676507153999,0.031497587,1.0,105520647758000,6.300974,Bike
Fix,FLP,37.4278813,-122.1723032,-2.6999998092651367,3.1781964,8.62,12.806556,1676507155947,,,105520332786754,2.5997121,Bike
Fix,GPS,37.427925591,-122.1722914822,7.559683246336877,3.1326883,4.473957,18.972864,1676507154999,0.25969306,4.6985497,105521647762000,6.073538,Bike
Fix,FLP,37.427912,-122.1722968,-2.6999998092651367,3.366816,8.388,11.265994,1676507157032,,,105521417918102,2.5142581,Bike
Fix,FLP,37.4279268,-122.1722911,-2.6999998092651367,3.1744983,8.33,16.82554,1676507157576,,,105521960497631,2.5142581,Bike
Fix,FLP,37.4279448,-122.1722835,-2.6999998092651367,3.1448565,8.302,16.98644,1676507158118,,,105522503068432,2.5142581,Bike
Fix,GPS,37.4279599195,-122.1722781768,8.488696134221328,3.7652876,4.171221,12.551393,1676507155999,0.044198863,1.0,105522648019000,5.8353944,Bike
Fix,FLP,37.427964,-122.1722768,-2.6999998092651367,3.6467602,7.944,13.448865,1676507158622,,,105523007826061,2.6196623,Bike
Fix,GPS,37.4279993675,-122.1722668149,8.240581600695158,3.787125,4.113573,14.345071,1676507156999,0.04021509,1.0,105523647902000,5.5873666,Bike
Fix,FLP,37.4279867,-122.1722699,-3.900000095367432,3.7351174,7.76,16.572582,1676507159203,,,105523588209545,2.6485116,Bike
Fix,GPS,37.4280317108,-122.1722555197,7.968098512767468,3.831444,5.2252145,11.989216,1676507157999,0.053696305,1.0,105524647822000,5.442199,Bike
Fix,FLP,37.4280241,-122.1722576,-3.900000095367432,3.8032086,7.496,11.830787,1676507160288,,,105524673346691,2.544218,Bike
Fix,FLP,37.4280501,-122.1722509,-3.900000095367432,3.8283708,7.62,11.271286,1676507160830,,,105525215911388,2.544218,Bike
Fix,GPS,37.4280693261,-122.1722465773,7.269518533941206,3.8943932,5.144869,8.935065,1676507158999,0.037384506,1.0,105525647910000,5.3064094,Bike
Fix,FLP,37.4280605,-122.172248,-7.299292384306206,3.8301651,7.739,12.430283,1676507161374,,,105525758489025,2.6496823,Bike
Fix,GPS,37.4281031265,-122.1722360861,7.151303784743248,3.825264,5.2785296,13.200691,1676507159999,0.030330922,1.0,105526647835000,5.176124,Bike
Fix,FLP,37.4280901,-122.1722419,-3.900000095367432,3.890329,7.974,8.750824,1676507161916,,,105526301058605,2.6790526,Bike
Fix,FLP,37.4281071,-122.1722362,-3.900000095367432,3.8229082,8.021,12.7788,1676507162458,,,105526843628185,2.6790526,Bike
Fix,GPS,37.4281358193,-122.1722254854,7.096139394432118,3.7247708,5.159762,19.270538,1676507160999,0.34168237,4.9141164,105527647878000,5.1229663,Bike
Fix,FLP,37.428126,-122.1722287,-3.900000095367432,3.8109863,8.07,16.427866,1676507163002,,,105527386197277,2.5747116,Bike
Fix,GPS,37.4281664238,-122.1722153382,6.504681648501502,3.7546945,5.2792697,16.060537,1676507161999,0.10189567,1.8933413,105528647879000,5.00823,Bike
Fix,FLP,37.4281583,-122.1722161,-3.900000095367432,3.7264097,8.273,19.129595,1676507164087,,,105528471339062,2.680029,Bike
Fix,GPS,37.4281987892,-122.1722042157,6.282263670902768,3.6440423,4.5898414,18.435617,1676507162999,0.3244344,5.073745,105529647937000,4.963935,Bike
Fix,FLP,37.4281911,-122.1722058,-3.900000095367432,3.7589345,8.773,15.298147,1676507165171,,,105529556473156,2.7089925,Bike
Fix,GPS,37.4282292011,-122.172190811,6.223682139058648,3.8364646,5.767065,18.826105,1676507163999,0.07507026,1.1378664,105530647938000,4.9172606,Bike
Fix,FLP,37.428226,-122.172196,-3.900000095367432,3.6544218,8.629,16.459164,1676507166256,,,105530641613049,2.6047215,Bike
Fix,GPS,37.4282618574,-122.1721750111,6.371949693386009,3.8196504,5.1471977,18.996763,1676507164999,0.050236776,1.0,105531648057000,4.871313,Bike
Fix,FLP,37.4282596,-122.17218,-2.6999998092651367,3.7936962,8.82,22.843966,1676507167342,,,105531726745800,2.6147616,Bike
Fix,GPS,37.4282940859,-122.172165654,6.326551655770468,3.8399324,4.371162,14.166396,1676507165999,0.036932293,1.0,105532647890000,4.7909956,Bike
Fix,FLP,37.4282966,-122.172161,0.1000000461935997,3.8421812,8.877,15.858336,1676507168427,,,105532811881054,2.7389827,Bike
Fix,GPS,37.4283265152,-122.1721551722,6.422644447961145,3.817722,5.1136355,8.619648,1676507166999,0.3910895,5.8448057,105533647919000,4.797995,Bike
Fix,FLP,37.4283196,-122.1721532,0.1000000461935997,3.8362327,8.527,12.927749,1676507168969,,,105533354445323,2.7479925,Bike
Fix,GPS,37.4283576337,-122.1721475498,6.477573312563382,3.669172,5.229347,23.182959,1676507167999,0.40573478,6.170928,105534647934000,4.814334,Bike
Fix,FLP,37.4283528,-122.172147,0.1000000461935997,3.8240082,8.519,8.432122,1676507170055,,,105534439573559,2.6448317,Bike
Fix,GPS,37.4283868482,-122.1721323254,6.601411217483462,3.7621686,4.3714876,24.926344,1676507168999,0.37160483,5.6762633,105535647959000,4.848089,Bike
Fix,FLP,37.4283847,-122.1721376,0.1000000461935997,3.6383543,8.678,22.101934,1676507171139,,,105535524716503,2.7500389,Bike
Fix,GPS,37.4284163852,-122.1721160895,6.85783790569146,3.8235664,4.4727993,23.737259,1676507169999,0.42974105,6.5272794,105536647958000,4.9396358,Bike
Fix,FLP,37.428416,-122.1721189,-3.900000095367432,3.7460148,8.569,23.299103,1676507172225,,,105536609850353,2.7780926,Bike
Fix,GPS,37.4284468188,-122.1720989897,7.038165414073574,3.6755455,5.1648865,26.377293,1676507170999,0.4302816,6.4035087,105537647933000,5.058647,Bike
Fix,FLP,37.4284479,-122.1720992,-3.900000095367432,3.8208768,8.04,22.519997,1676507173310,,,105537694983898,2.7889826,Bike
Fix,NLP,37.4284612,-122.1721956,-3.0999999046325684,,21.282,,1676507173582,,,105537966000000,1.4659742,Bike
Fix,GPS,37.4284836479,-122.1720760951,5.83509868535031,3.9139557,5.089421,23.368752,1676507171999,0.05993361,1.0,105538648146000,4.9224715,Bike
Fix,FLP,37.4284768,-122.1720856,-3.0999999046325684,3.8185527,8.133,21.916115,1676507174396,,,105538780118419,2.4728198,Bike
Fix,GPS,37.4285174998,-122.1720581795,5.891641154614982,3.8599105,5.0894113,20.385754,1676507172999,0.4885104,6.7897177,105539648033000,4.979137,Bike
Fix,FLP,37.4285137,-122.1720631,-3.0999999046325684,3.931759,8.215,25.17786,1676507175481,,,105539865255687,2.2150624,Bike
Fix,GPS,37.428554452,-122.1720444356,5.75917381962952,3.5954337,5.3771877,21.058956,1676507173999,0.4510741,6.9030404,105540648020000,5.0803742,Bike
Fix,FLP,37.4285404,-122.1720483,-3.0999999046325684,3.8775241,8.388,22.04676,1676507176023,,,105540407824962,2.2238023,Bike
Fix,GPS,37.4285938978,-122.1720276481,5.557521992440303,3.2214444,5.5437994,26.57119,1676507174999,0.41951856,6.9956136,105541648021000,5.1943727,Bike
Fix,FLP,37.4285749,-122.1720323,-3.900000095367432,3.6204607,8.562,28.411783,1676507177107,,,105541492967174,2.5017996,Bike
Fix,FLP,37.4285984,-122.1720169,-3.900000095367432,3.2893543,8.69,26.697067,1676507177623,,,105542007826061,2.5017996,Bike
Fix,GPS,37.4286272262,-122.1720118025,5.549752062091515,3.1555042,5.798633,23.737858,1676507175999,0.4095387,6.8023286,105542648305000,5.3187838,Bike
Fix,FLP,37.4286093,-122.1720108,-3.0999999046325684,3.2592745,8.941,22.847076,1676507178194,,,105542578104259,2.5118196,Bike
Fix,GPS,37.4286571186,-122.1720018146,5.498569237365063,2.7798536,5.952445,21.539015,1676507176999,0.42776233,8.0909195,105543648088000,5.4113355,Bike
Fix,FLP,37.4286455,-122.171995,-3.900000095367432,3.1744916,9.467,19.972614,1676507179278,,,105543663244457,2.5218296,Bike
Fix,GPS,37.4286847463,-122.1719951976,5.589267769698033,3.1025584,6.0254536,20.269257,1676507177999,0.44139814,7.590023,105544648111000,5.489553,Bike
Fix,FLP,37.4286792,-122.1719853,-3.0999999046325684,2.824685,9.782,15.246257,1676507180363,,,105544748384655,2.2987382,Bike
Fix,GPS,37.4287186786,-122.1719818729,5.798916764952095,3.645745,6.283536,26.625134,1676507178999,0.4662382,7.2809114,105545648128000,5.645908,Bike
Fix,FLP,37.4287015,-122.1719837,-3.0999999046325684,3.0416784,10.1,17.48493,1676507180905,,,105545290954906,2.3087182,Bike
Fix,FLP,37.4287172,-122.1719783,-3.0999999046325684,3.4761398,10.14,23.20893,1676507181449,,,105545833524181,2.3087182,Bike
Fix,FLP,37.4287349,-122.1719698,-3.0999999046325684,3.6038938,10.301,24.93216,1676507181992,,,105546376094250,2.3087182,Bike
Fix,GPS,37.428747566,-122.171969392,6.041361799188704,3.6755636,6.2542524,26.578009,1676507179999,0.48390406,7.165366,105546648055000,5.820847,Bike
Fix,GPS,37.4287707728,-122.171957939,5.528271310261302,3.659214,6.3011923,27.201807,1676507180999,0.49793983,7.478311,105547648076000,6.0242147,Bike
Fix,FLP,37.4287661,-122.1719532,-3.900000095367432,3.6655018,10.413,25.777496,1676507183076,,,105547461233471,2.5618098,Bike
Fix,GPS,37.4288044725,-122.1719443429,5.784180573240749,4.093524,6.3614807,19.449986,1676507181999,0.55132324,7.417472,105548648103000,6.2766056,Bike
Fix,FLP,37.4287944,-122.1719378,-3.0999999046325684,3.645611,10.722,29.085402,1676507184162,,,105548546372631,2.3582044,Bike
Fix,GPS,37.4288473728,-122.1719330181,5.123654726881417,4.1485434,6.3104367,15.634899,1676507182999,0.48802146,6.357856,105549648147000,6.4853234,Bike
Fix,FLP,37.4288241,-122.1719243,-3.0999999046325684,4.0494833,10.809,21.448248,1676507185246,,,105549631512279,2.3681943,Bike
Fix,GPS,37.4288855055,-122.171926649,5.519606746456284,3.9588957,6.249843,14.285397,1676507183999,0.44517142,6.1675253,105550648214000,6.6057982,Bike
Fix,FLP,37.4288643,-122.1719156,-3.0999999046325684,4.1504765,10.955,16.258654,1676507186332,,,105550716651623,2.3781943,Bike
Fix,GPS,37.4289195282,-122.1719191302,5.623083707717568,3.8888338,6.1934986,11.091643,1676507184999,0.44480047,6.322744,105551648162000,6.6697507,Bike
Fix,FLP,37.4289002,-122.1719124,-3.0999999046325684,3.9799306,11.045,12.96,1676507186875,,,105551259210033,2.4144194,Bike
Fix,GPS,37.4289491097,-122.1719119617,5.284978507012832,4.090449,6.101368,11.206107,1676507185999,0.42448694,5.689073,105552648165000,6.716519,Bike
Fix,FLP,37.4289358,-122.1719086,-3.0999999046325684,3.8973856,11.193,11.560654,1676507187960,,,105552344360668,2.4244294,Bike
Fix,GPS,37.428982247,-122.1719064298,5.0979741195063015,4.046789,5.820605,16.348248,1676507186999,0.40112373,5.590209,105553648181000,6.5898275,Bike
Fix,FLP,37.4289692,-122.1719032,-3.0999999046325684,4.0618405,11.174,12.302879,1676507189044,,,105553429499523,2.4344594,Bike
Fix,FLP,37.4289916,-122.1719003,-3.0999999046325684,4.0418243,11.175,14.136906,1676507189588,,,105553972070690,2.4344594,Bike
Fix,GPS,37.4290139417,-122.1719001934,5.121780123505896,3.9482331,5.7642627,10.961152,1676507187999,0.45733553,6.583773,105554648284000,6.543588,Bike
Fix,FLP,37.4290052,-122.1718973,-3.0999999046325684,4.0519776,11.125,13.47182,1676507190130,,,105554514638439,2.4181943,Bike
Fix,FLP,37.4290306,-122.1718938,-3.0999999046325684,3.9707923,10.961,9.638846,1676507190672,,,105555057207531,2.4181943,Bike
Fix,GPS,37.4290523451,-122.1718947797,4.385021407049,4.1163154,5.728282,11.493039,1676507188999,0.4165289,5.87419,105555648203000,6.438382,Bike
Fix,FLP,37.4290422,-122.1718935,-5.66374857528109,3.959968,10.878,8.010471,1676507191214,,,105555599776378,2.4281843,Bike
Fix,GPS,37.4290863356,-122.17188043,4.635451841520162,3.9948246,5.88592,12.857128,1676507189999,0.46992883,6.465808,105556648282000,6.4744477,Bike
Fix,FLP,37.4290814,-122.1718863,-3.0999999046325684,4.0700345,10.667,12.9810295,1676507192300,,,105556684914074,2.4381943,Bike
Fix,FLP,37.4291096,-122.1718791,-3.0999999046325684,4.006565,10.629,11.883046,1676507192843,,,105557227482433,2.4381943,Bike
Fix,GPS,37.4291221343,-122.1718639066,4.374728416991501,3.881422,6.1215277,13.759705,1676507190999,0.4789143,6.812326,105557648258000,6.5292764,Bike
Fix,FLP,37.4291266,-122.1718707,-0.6220106543639474,3.9103105,10.531,12.47349,1676507193386,,,105557770050792,2.4744294,Bike
Fix,GPS,37.4291542398,-122.1718482189,4.343471612073604,3.6827998,6.1900177,13.416511,1676507191999,0.50306803,7.4468365,105558648240000,6.550803,Bike
Fix,FLP,37.4291489,-122.1718612,-3.0999999046325684,3.891577,10.404,11.663281,1676507193928,,,105558312618908,2.4844093,Bike
Fix,FLP,37.4291577,-122.1718552,-3.0999999046325684,3.738248,10.437,12.523788,1676507194471,,,105558855186779,2.4844093,Bike
Fix,FLP,37.4291806,-122.1718454,-3.0999999046325684,3.6890948,10.353,13.527375,1676507195012,,,105559397745617,2.4844093,Bike
Fix,GPS,37.4291859302,-122.1718338773,4.252845945822424,3.5952015,6.2694883,14.494281,1676507192999,0.48665088,7.3573995,105559648262000,6.6216464,Bike
Fix,FLP,37.4291966,-122.171837,-3.0999999046325684,3.6102335,10.34,14.546257,1676507195555,,,105559940322277,2.4944293,Bike
Fix,FLP,37.4292121,-122.1718304,-3.0999999046325684,3.5992424,10.412,15.112441,1676507196098,,,105560482889904,2.4944293,Bike
Fix,GPS,37.4292172719,-122.1718211223,3.723725353318676,3.2317443,6.3542566,16.505222,1676507193999,0.44158685,7.5605583,105560648306000,6.671977,Bike
Fix,GPS,37.4292516203,-122.1718060736,3.4909424097402337,2.9378715,6.2897434,19.701456,1676507194999,0.4322815,8.069651,105561648354000,6.7152915,Bike
Fix,FLP,37.4292453,-122.171814,-3.0999999046325684,3.2723525,10.6,17.574224,1676507197183,,,105561568024975,2.4882643,Bike
Fix,FLP,37.429277,-122.1717986,-3.0999999046325684,2.9850519,10.764,17.462376,1676507198268,,,105562652000000,2.4882643,Bike
Fix,GPS,37.4292816715,-122.1717956771,3.280450970540493,2.6791415,6.3937674,20.63028,1676507195999,0.4164992,8.518111,105562648671000,6.7600765,Bike
Fix,GPS,37.4293049936,-122.1717843823,3.4404750395161874,2.3588705,6.453907,20.744032,1676507196999,0.40570536,9.342866,105563648618000,6.8003407,Bike
Fix,FLP,37.4293098,-122.1717837,-3.0999999046325684,2.7069116,11.032,23.481533,1676507199353,,,105563738293957,2.5081844,Bike
Fix,GPS,37.429330732,-122.1717738691,3.4387371911239324,2.256859,6.34661,16.15708,1676507197999,0.36706465,8.609909,105564648385000,6.802151,Bike
Fix,FLP,37.4293293,-122.1717728,-3.0999999046325684,2.3939118,11.156,23.434065,1676507199896,,,105564280861095,2.5444193,Bike
Fix,NLP,37.4299499,-122.1722968,7.300000190734863,,29.508,,1676507200063,,,105564447000000,22.874222,Bike
Fix,FLP,37.4293311,-122.1717732,-3.0999999046325684,2.3253152,11.125,20.502903,1676507200438,,,105564823428234,2.3408246,Bike
Fix,GPS,37.4293526681,-122.1717643042,3.5667784585156825,2.3735023,6.3699574,21.756338,1676507198999,0.37898958,8.670366,105565648381000,6.8194075,Bike
Fix,FLP,37.4293518,-122.1717651,-0.7003764531980039,2.2685907,11.182,17.610209,1676507200981,,,105565365994823,2.3488445,Bike
Fix,FLP,37.4293613,-122.1717593,-0.7003764531980039,2.3516889,11.135,20.300606,1676507201523,,,105565908561474,2.3488445,Bike
Fix,GPS,37.4293854009,-122.1717485594,2.230701545560329,2.2656524,5.833542,37.650486,1676507199999,0.3618595,8.631367,105566648391000,6.614136,Bike
Fix,FLP,37.4293682,-122.1717554,-3.0999999046325684,2.3680577,11.141,22.500813,1676507202067,,,105566451128002,2.3820827,Bike
Fix,GPS,37.4294098335,-122.1717225959,1.3834209365903172,2.436094,5.679791,58.646,1676507200999,0.3708229,8.766251,105567648426000,6.4489207,Bike
Fix,FLP,37.4293927,-122.1717385,-3.0999999046325684,2.2642224,11.043,44.582455,1676507203151,,,105567536260937,2.400807,Bike
Fix,FLP,37.4294073,-122.1717191,-3.0999999046325684,2.4156036,10.877,59.32149,1676507203694,,,105568078816173,2.400807,Bike
Fix,GPS,37.4294209492,-122.1716886923,0.6590819703109183,2.4132164,5.814986,73.02781,1676507201999,0.39938185,9.573249,105568648417000,6.3943214,Bike
Fix,FLP,37.4294151,-122.1717041,-1.1755812543152755,2.4351966,10.79,54.950962,1676507204236,,,105568621394298,2.269703,Bike
Fix,GPS,37.4294233567,-122.1716528381,0.5568576924388285,2.6731155,6.0069737,90.678185,1676507202999,0.40333343,8.68787,105569648599000,6.3656073,Bike
Fix,FLP,37.4294286,-122.1716685,2.642636346995125,2.3892438,10.372,82.8271,1676507205322,,,105569706527172,2.279743,Bike
Fix,GPS,37.4294141806,-122.1716109958,1.037645364204625,2.5386696,5.959005,107.4305,1676507203999,0.38282934,8.818532,105570648451000,6.3186255,Bike
Fix,FLP,37.4294274,-122.1716351,-6.029927976137792,2.6185033,10.2,100.52696,1676507205865,,,105570249093578,2.2896929,Bike
Fix,GPS,37.4294006798,-122.171576638,0.7923548382902856,2.0715375,5.9176745,111.23055,1676507204999,0.3591829,10.01598,105571648471000,6.285313,Bike
Fix,FLP,37.4294175,-122.1715959,-6.7556025928203525,2.5467217,10.015,108.48192,1676507206950,,,105571334222423,2.4170952,Bike
Fix,FLP,37.4294075,-122.1715777,-6.7556025928203525,2.152921,9.911,110.5911,1676507207492,,,105571876790783,2.4170952,Bike
Fix,GPS,37.4293851831,-122.171546012,1.0937732895351244,2.3260071,5.783529,112.47467,1676507205999,0.35483623,8.639436,105572648509000,6.178093,Bike
Fix,FLP,37.4293998,-122.1715606,-3.0999999046325684,2.0884187,9.978,110.2986,1676507208035,,,105572419357189,2.4270852,Bike
Fix,FLP,37.42939,-122.1715436,-3.0999999046325684,2.2951486,9.958,110.58119,1676507208577,,,105572961922802,2.4270852,Bike
Fix,GPS,37.4293701751,-122.1715111098,1.4915664998457148,2.9091759,5.683876,110.03941,1676507206999,0.357963,6.98101,105573648491000,6.0825953,Bike
Fix,FLP,37.4293832,-122.1715293,-0.4860063499771101,2.3255408,9.996,108.89438,1676507209120,,,105573504488415,2.4370852,Bike
Fix,FLP,37.429376,-122.1715113,-0.4860063499771101,2.7983963,10.001,109.09029,1676507209623,,,105574007826061,2.4370852,Bike
Fix,FLP,37.4293693,-122.1714907,-0.4860063499771101,2.9004426,10.008,106.066956,1676507210186,,,105574571000000,2.4370852,Bike
Fix,GPS,37.429357062,-122.1714731501,1.7664360896272997,3.5648444,5.6024876,111.128265,1676507207999,0.39185986,6.2662706,105574648506000,6.0013895,Bike
Fix,FLP,37.4293612,-122.1714653,16.956340816790828,3.4161022,10.016,109.27916,1676507210748,,,105575132188061,2.4709558,Bike
Fix,GPS,37.4293417573,-122.1714291862,1.787192921478206,4.04612,5.627851,108.06058,1676507208999,0.43300438,6.078537,105575648690000,5.93025,Bike
Fix,FLP,37.4293543,-122.1714456,5.485677686632762,3.5321546,10.023,110.76989,1676507211290,,,105575674750500,2.4809558,Bike
Fix,GPS,37.42932845,-122.1713833163,1.6219157572845762,4.0900254,5.52252,107.607735,1676507209999,0.41384786,5.6854377,105576648578000,5.8193417,Bike
Fix,FLP,37.4293367,-122.1713955,-3.0999999046325684,4.0033216,9.997,108.90511,1676507212374,,,105576759881054,2.349713,Bike
Fix,FLP,37.4293248,-122.171361,-3.0999999046325684,4.082628,9.944,109.45449,1676507212917,,,105577302449291,2.349713,Bike
Fix,GPS,37.4293175383,-122.1713331056,1.5584451769457868,3.8954103,5.5772285,107.788025,1676507210999,0.413489,5.8521132,105577648535000,5.7429276,Bike
Fix,FLP,37.4293154,-122.1713308,-3.0999999046325684,3.947038,9.816,107.97291,1676507213460,,,105577845011486,2.359703,Bike
Fix,GPS,37.4293078488,-122.171284773,1.5302084402997689,4.0579824,5.4847226,106.816696,1676507211999,0.37858355,5.1335998,105578648592000,5.6597857,Bike
Fix,FLP,37.4293093,-122.1713061,-3.0999999046325684,3.9167793,9.789,105.58505,1676507214003,,,105578387576122,2.369703,Bike
Fix,FLP,37.4293061,-122.1712842,-3.0999999046325684,4.027081,9.695,105.75675,1676507214545,,,105578930140758,2.369703,Bike
Fix,GPS,37.4292999569,-122.1712357701,1.7545570291424577,4.183748,5.3877735,107.2352,1676507212999,0.3647173,4.977866,105579648633000,5.5945,Bike
Fix,FLP,37.4293003,-122.1712533,9.997728653114253,4.049942,9.505,106.49147,1676507215088,,,105579472705822,2.379703,Bike
Fix,GPS,37.429290119,-122.1711896956,1.841033718487026,4.348384,5.326651,106.43155,1676507213999,0.3638471,4.8684835,105580648636000,5.540759,Bike
Fix,FLP,37.4292904,-122.1712047,23.540672321598517,4.179247,9.407,104.83927,1676507216173,,,105580557823009,2.5070953,Bike
Fix,GPS,37.4292823239,-122.1711408489,1.7744334349769333,4.5044985,5.10859,104.60402,1676507214999,0.3287715,4.3261447,105581648607000,5.462208,Bike
Fix,FLP,37.4292817,-122.1711521,17.79892610633658,4.3394823,9.313,102.201935,1676507217258,,,105581642963146,2.5170953,Bike
Fix,FLP,37.4292762,-122.1711127,17.79892610633658,4.459789,9.265,103.44121,1676507217800,,,105582185529796,2.5170953,Bike
Fix,GPS,37.4292716443,-122.1710857945,1.9366732640871167,4.593339,5.2921147,104.10494,1676507215999,0.376768,4.6892123,105582648616000,5.4440713,Bike
Fix,FLP,37.4292749,-122.1711066,17.727482964489923,4.478225,9.224,104.85769,1676507218343,,,105582728093517,2.5270953,Bike
Fix,FLP,37.4292653,-122.1710642,17.727482964489923,4.5840034,9.202,104.44647,1676507218886,,,105583270654796,2.5270953,Bike
Fix,GPS,37.4292601215,-122.1710338228,1.8863808960512776,4.5043044,5.447201,104.61196,1676507216999,0.39168638,4.9451203,105583648680000,5.451439,Bike
Fix,FLP,37.4292545,-122.1710073,16.756220153181673,4.527172,9.166,104.34168,1676507219970,,,105584355781750,2.5370953,Bike
Fix,GPS,37.4292492205,-122.1709811008,2.064295093551769,4.593637,5.5748467,104.86424,1676507217999,0.4042956,4.956278,105584648643000,5.4930058,Bike
Fix,FLP,37.4292459,-122.1709642,16.756220153181673,4.574709,9.21,104.34799,1676507220514,,,105584898344921,2.570956,Bike
Fix,GPS,37.4292381957,-122.1709270394,2.357000077151808,4.625033,5.636303,102.172104,1676507218999,0.419302,5.1748724,105585648648000,5.537915,Bike
Fix,FLP,37.4292421,-122.1709474,16.756220153181673,4.591441,9.256,104.31924,1676507221056,,,105585440899425,2.580946,Bike
Fix,NLP,37.4287834,-122.1708407,1.399999976158142,,25.363,,1676507221708,,,105586092000000,8.904727,Bike
Fix,FLP,37.4292372,-122.1709217,18.82098381977378,4.6366024,9.282,102.23834,1676507221598,,,105585983471203,2.3658602,Bike
Fix,FLP,37.4292226,-122.1708894,18.82098381977378,4.687879,9.457,103.54165,1676507222142,,,105586526033947,2.3658602,Bike
Fix,GPS,37.4292298667,-122.1708736005,2.09160198665633,4.6878057,5.583595,101.243095,1676507219999,0.40340158,4.809237,105586648680000,5.560553,Bike
Fix,GPS,37.4292242324,-122.1708246432,1.7151389900236698,4.492952,5.5943747,103.32767,1676507220999,0.39186764,4.9856405,105587648711000,5.6001897,Bike
Fix,FLP,37.429214,-122.1708304,1.399999976158142,4.6878834,9.72,101.84299,1676507223227,,,105587611159252,5.7982693,Bike
Fix,GPS,37.4292167338,-122.1707784461,1.1332661424483663,4.381911,5.5617557,106.70876,1676507221999,0.3832939,5.1543074,105588648767000,5.607832,Bike
Fix,FLP,37.4292098,-122.1707749,-3.0999999046325684,4.5099607,9.815,101.58691,1676507224312,,,105588696284374,2.467718,Bike
Fix,FLP,37.4292066,-122.1707472,-3.0999999046325684,4.375231,9.803,105.2876,1676507224866,,,105589250000000,2.467718,Bike
Fix,GPS,37.429205278,-122.1707380138,0.4514719810938039,3.9316986,5.4758763,107.27247,1676507222999,0.37573278,5.344085,105589648846000,5.6162477,Bike
Fix,FLP,37.4292018,-122.1707228,-3.0999999046325684,4.3695974,10.021,106.558784,1676507225385,,,105589769000000,2.467718,Bike
Fix,GPS,37.4291934217,-122.1706979145,0.188796404311007,4.1016946,5.396534,106.86594,1676507223999,0.38034338,5.1170306,105590648758000,5.5987344,Bike
Fix,FLP,37.4291924,-122.1706897,-3.0999999046325684,3.972656,9.956,106.215515,1676507225939,,,105590323959911,2.4776978,Bike
Fix,FLP,37.4291859,-122.1706599,-3.0999999046325684,4.0804563,9.446,105.041275,1676507227024,,,105591409096935,2.5218854,Bike
Fix,GPS,37.4291809857,-122.1706545919,-0.3612144232186582,4.493405,5.34312,106.614204,1676507224999,0.39065152,4.9354243,105591648988000,5.583412,Bike
Fix,FLP,37.4291756,-122.1706195,14.8868286533094,4.4337664,9.337,105.76797,1676507228109,,,105592494218700,2.5319352,Bike
Fix,GPS,37.4291674541,-122.1706067864,-0.708246465712587,4.6228914,5.3360057,105.32852,1676507225999,0.40510532,4.981733,105592648845000,5.569681,Bike
Fix,FLP,37.4291648,-122.1705816,20.410415229755017,4.602154,9.242,104.94423,1676507228622,,,105593007826061,2.5418954,Bike
Fix,GPS,37.4291545151,-122.1705540831,-0.6928015635321516,4.689039,5.3235173,103.24406,1676507226999,0.4019085,4.90103,105593648767000,5.542661,Bike
Fix,FLP,37.4291618,-122.1705698,21.46360362146028,4.624511,9.244,104.66921,1676507229195,,,105593579348399,2.7079906,Bike
Fix,FLP,37.4291508,-122.1705311,21.46360362146028,4.686711,9.147,104.62177,1676507229737,,,105594121907482,2.7079906,Bike
Fix,GPS,37.4291441762,-122.1704988515,-0.6779230366909073,4.707855,5.3916616,103.413246,1676507227999,0.4316917,5.295168,105594648803000,5.5533056,Bike
Fix,FLP,37.4291456,-122.1705131,20.010415275948617,4.6957197,9.136,105.30216,1676507230279,,,105594664469189,2.7180007,Bike
Fix,FLP,37.4291392,-122.1704734,20.010415275948617,4.722851,8.982,102.395195,1676507230822,,,105595207030895,2.7180007,Bike
Fix,GPS,37.4291329094,-122.1704460634,-0.7923629620823573,4.7024007,5.5042925,104.42025,1676507228999,0.41984278,5.067304,105595648773000,5.5906878,Bike
Fix,FLP,37.4291367,-122.1704524,20.010415275948617,4.7258296,9.004,101.12231,1676507231365,,,105595749592541,2.7279806,Bike
Fix,FLP,37.4291283,-122.1704188,20.010415275948617,4.7048798,9.048,102.5749,1676507231890,,,105596274000000,2.7279806,Bike
Fix,GPS,37.4291223222,-122.1703876629,-0.52401265055592,4.865618,5.4654274,101.6811,1676507229999,0.4071394,4.7720885,105596648860000,5.5605497,Bike
Fix,FLP,37.4291216,-122.1703796,22.78623736162213,4.835993,9.184,101.69265,1676507232450,,,105596834714977,2.7379806,Bike
Fix,GPS,37.4291122814,-122.1703314311,0.0815949343302905,4.9306335,5.454519,102.22603,1676507230999,0.40090433,4.6425385,105597648866000,5.543096,Bike
Fix,FLP,37.4291185,-122.1703534,-3.0999999046325684,4.859744,9.243,101.30869,1676507232993,,,105597377276440,2.7479806,Bike
Fix,FLP,37.4291136,-122.1703254,-3.0999999046325684,4.9207835,9.24,101.52271,1676507233535,,,105597919838024,2.7479806,Bike
Fix,GPS,37.4291045821,-122.1702786039,0.1139542442050982,4.5799036,5.38094,103.768875,1676507231999,0.37293965,4.856641,105598648952000,5.540608,Bike
Fix,FLP,37.4291074,-122.1702936,-7.590509825389155,4.9175296,9.26,103.26354,1676507234078,,,105598462382091,2.5678415,Bike
Fix,FLP,37.4291024,-122.1702665,-7.590509825389155,4.6498785,9.222,104.06455,1676507234619,,,105599004960705,2.5678415,Bike
Fix,GPS,37.4290946594,-122.1702336484,-0.1908612916982515,4.3137217,5.392124,105.871544,1676507232999,0.3871681,5.219011,105599648823000,5.5288286,Bike
Fix,FLP,37.429097,-122.1702373,-3.0999999046325684,4.5888243,9.251,104.80259,1676507235163,,,105599547522228,2.5778315,Bike
Fix,GPS,37.4290846415,-122.1701936135,-0.6078721490886507,4.3036823,5.377834,106.17022,1676507233999,0.3725791,4.8599577,105600648869000,5.535856,Bike
Fix,FLP,37.4290865,-122.1701874,-3.0999999046325684,4.36156,9.259,103.035194,1676507236247,,,105600632644726,2.5878415,Bike
Fix,FLP,37.4290772,-122.1701409,-3.0999999046325684,4.294891,9.204,104.55897,1676507237323,,,105601707000000,2.5878415,Bike
Fix,GPS,37.4290728167,-122.1701516735,-1.107323623074341,4.4269543,5.358712,105.06621,1676507234999,0.36363024,4.593414,105601649156000,5.5010667,Bike
Fix,FLP,37.4290668,-122.1701059,3.5803885841453464,4.405904,9.103,104.70069,1676507237875,,,105602260328564,2.5981016,Bike
Fix,GPS,37.4290605196,-122.170101249,-1.1871769514098152,4.5069222,5.356265,103.10296,1676507235999,0.36178312,4.5473437,105602648898000,5.445544,Bike
Fix,FLP,37.42906,-122.1700866,7.300000190734863,4.4923677,9.082,103.990456,1676507238418,,,105602802889538,2.642032,Bike
Fix,GPS,37.4290494603,-122.1700510968,-0.5777045473549673,4.254678,5.3968782,106.473694,1676507236999,0.34210208,4.557671,105603648961000,5.399713,Bike
Fix,FLP,37.4290556,-122.1700672,3.4609899426838453,4.50951,9.061,103.54375,1676507238960,,,105603345451183,2.652032,Bike
Fix,FLP,37.4290511,-122.1700501,3.4609899426838453,4.307354,9.053,105.32002,1676507239504,,,105603888012646,2.652032,Bike
Fix,GPS,37.4290377889,-122.1700062575,-0.1932077413627373,4.030801,5.2920494,109.36394,1676507237999,0.33227983,4.8031664,105604648937000,5.334334,Bike
Fix,FLP,37.4290437,-122.1700217,-3.0999999046325684,4.260679,9.097,106.01389,1676507240045,,,105604430573864,2.662042,Bike
Fix,FLP,37.4290364,-122.1699949,-3.0999999046325684,4.0676513,9.174,108.37161,1676507240589,,,105604973133434,2.662042,Bike
Fix,FLP,37.4290291,-122.1699699,-3.0999999046325684,4.02943,9.212,110.62077,1676507241131,,,105605515696667,2.662042,Bike
Fix,GPS,37.4290262872,-122.1699668184,0.1250051980712681,3.798268,5.2510233,110.58046,1676507238999,0.34470758,5.0734124,105605648930000,5.309977,Bike
Fix,FLP,37.4290151,-122.1699281,1.399999976158142,3.837739,9.241,110.07795,1676507242207,,,105606591000000,2.672042,Bike
Fix,GPS,37.4290130947,-122.1699296122,0.7653610859662179,4.045418,5.125515,107.36617,1676507239999,0.33333415,4.570491,105606648939000,5.224617,Bike
Fix,FLP,37.4290088,-122.169906,-0.4531425280996544,4.0135446,9.25,106.746445,1676507242764,,,105607149000000,2.8379807,Bike
Fix,FLP,37.4290036,-122.1698825,-0.4531425280996544,4.044929,9.261,105.71509,1676507243285,,,105607669000000,2.8379807,Bike
Fix,GPS,37.4290005674,-122.1698842725,0.9347111914485337,4.562128,5.0932374,106.07324,1676507240999,0.35282445,4.3456903,105607648994000,5.1610265,Bike
Fix,FLP,37.4289925,-122.1698482,1.399999976158142,4.4791627,9.202,106.1004,1676507243843,,,105608228504650,2.8479807,Bike
Fix,GPS,37.4289880455,-122.1698322328,0.9099790633154636,4.7978005,5.064002,106.84783,1676507241999,0.3680401,4.2985926,105608648999000,5.121913,Bike
Fix,FLP,37.4289811,-122.1698035,9.699297109437296,4.773797,9.154,104.441086,1676507244928,,,105609313628185,2.8580408,Bike
Fix,GPS,37.4289747246,-122.1697792905,1.131333978835527,4.7140613,4.9954386,108.231415,1676507242999,0.36794934,4.436231,105609648998000,5.065094,Bike
Fix,FLP,37.4289685,-122.1697477,-0.6326279986873331,4.6984806,9.056,108.83596,1676507246014,,,105610398740001,2.8679907,Bike
Fix,GPS,37.4289605703,-122.1697279329,1.6161050770651644,4.5516376,5.084415,108.420425,1676507243999,0.35887018,4.4484515,105610649027000,5.084518,Bike
Fix,GPS,37.4289482663,-122.1696782132,1.7727143155568106,4.326841,5.024008,105.51956,1676507244999,0.34354365,4.5644417,105611649098000,5.0475783,Bike
Fix,FLP,37.4289507,-122.1696863,-7.35275322918379,4.58537,8.823,106.32001,1676507247099,,,105611483875194,2.8880308,Bike
Fix,FLP,37.4289441,-122.1696618,-7.35275322918379,4.3805194,8.789,104.7823,1676507247623,,,105612007826061,2.8880308,Bike
Fix,GPS,37.4289385032,-122.1696342216,1.7431614963004665,4.134061,5.0820103,105.35139,1676507245999,0.348001,4.78523,105612649071000,5.0835,Bike
Fix,FLP,37.4289381,-122.169635,-7.35275322918379,4.339495,8.724,104.528656,1676507248184,,,105612568998424,2.8880308,Bike
Fix,FLP,37.4289273,-122.1695874,-7.152019975556321,4.151554,8.827,106.35552,1676507249269,,,105613654118175,2.7078416,Bike
Fix,GPS,37.4289283359,-122.1695898826,1.8749711034947096,4.601894,5.025789,108.1654,1676507246999,0.3535721,4.371898,105613649077000,5.0287604,Bike
Fix,FLP,37.428918,-122.1695553,-1.1078382168669163,4.5063405,8.846,108.133194,1676507249811,,,105614196682018,2.7178416,Bike
Fix,GPS,37.4289136653,-122.1695354894,1.9763331109510096,4.790677,5.1653786,108.91135,1676507247999,0.33710784,4.032593,105614649084000,5.0268497,Bike
Fix,FLP,37.4289145,-122.1695458,-3.0999999046325684,4.565956,8.855,108.70207,1676507250354,,,105614739242870,2.7278416,Bike
Fix,GPS,37.4289018348,-122.1694834902,2.0417915433353326,4.660357,5.068249,107.11349,1676507248999,0.35122314,4.3362913,105615649103000,5.0202837,Bike
Fix,FLP,37.4289036,-122.1695024,-3.0999999046325684,4.7588863,8.877,107.01398,1676507250896,,,105615281804149,2.7378516,Bike
Fix,GPS,37.42889095,-122.1694336724,1.9047508259660564,4.766993,5.084528,105.301216,1676507249999,0.3376512,4.252713,105616649207000,5.0396414,Bike
Fix,FLP,37.4288916,-122.1694499,-3.0999999046325684,4.6739073,8.82,106.92987,1676507251982,,,105616366925487,2.7478516,Bike
Fix,FLP,37.4288869,-122.1694209,-3.0999999046325684,4.74235,8.82,106.41001,1676507252524,,,105616909486095,2.7478516,Bike
Fix,GPS,37.4288809768,-122.1693770631,1.976768784980816,4.4980516,5.225812,102.99251,1676507250999,0.35425302,4.560829,105617649132000,5.0619774,Bike
Fix,FLP,37.4288821,-122.1693985,-3.0999999046325684,4.7633743,8.813,106.34007,1676507253067,,,105617452046642,2.792062,Bike
Fix,FLP,37.4288784,-122.1693765,-3.0999999046325684,4.581679,8.815,103.96378,1676507253607,,,105617992000000,2.792062,Bike
Fix,NLP,37.4283245,-122.169126,-4.599999904632568,,22.931,,1676507253412,,,105617796000000,6.5356703,Bike
Fix,GPS,37.4288739101,-122.1693307368,2.073164050995188,4.245183,5.1491427,101.26845,1676507251999,0.35857233,4.703543,105618649271000,5.0881963,Bike
Fix,FLP,37.4288716,-122.1693341,-4.599999904632568,4.5353613,8.77,102.95786,1676507254152,,,105618537167187,3.013898,Bike
Fix,FLP,37.4288652,-122.1692891,-4.599999904632568,4.2572584,8.674,103.663445,1676507255238,,,105619622287487,3.013898,Bike
Fix,GPS,37.4288677597,-122.1692800936,2.5574382536749853,4.5011616,5.3697977,102.25866,1676507252999,0.37339544,4.5095367,105619649197000,5.1467714,Bike
Fix,GPS,37.4288588127,-122.1692261529,2.6117823959143065,4.773491,5.4855084,104.153114,1676507253999,0.3606924,4.2335362,105620649147000,5.1750035,Bike
Fix,FLP,37.4288598,-122.1692408,-4.599999904632568,4.4668164,8.656,102.25125,1676507256322,,,105620707407482,3.7105753,Bike
Fix,GPS,37.4288471395,-122.1691751579,2.25714128350354,4.618786,5.5386343,103.863304,1676507254999,0.3685036,4.574549,105621649215000,5.2218304,Bike
Fix,FLP,37.4288533,-122.1691953,-4.599999904632568,4.6971908,8.838,103.771355,1676507256864,,,105621249967235,3.8287933,Bike
Fix,GPS,37.428835203,-122.169126159,1.7125955899718623,4.425834,5.5003576,104.07406,1676507255999,0.3490312,4.5228987,105622649230000,5.232946,Bike
Fix,FLP,37.4288425,-122.1691413,-4.599999904632568,4.63994,8.881,101.93028,1676507257951,,,105622335083995,3.8387933,Bike
Fix,GPS,37.4288254993,-122.1690763211,1.1499712730491225,4.300439,5.5081177,105.3975,1676507256999,0.33490962,4.5877094,105623649189000,5.2374425,Bike
Fix,FLP,37.4288295,-122.1690916,-4.599999904632568,4.452861,8.899,103.30813,1676507259036,,,105623420207409,3.8488033,Bike
Fix,FLP,37.4288194,-122.1690429,-4.599999904632568,4.3194246,8.991,105.61384,1676507260130,,,105624514000000,3.8488033,Bike
Fix,GPS,37.4288169132,-122.1690306461,1.393130936912485,4.0038614,5.305064,108.09771,1676507257999,0.3434832,4.8512955,105624649200000,5.2076597,Bike
Fix,FLP,37.4288138,-122.1690167,-4.599999904632568,4.071187,9.225,106.90051,1676507260663,,,105625047000000,3.8587832,Bike
Fix,GPS,37.4288075398,-122.1689871022,1.9397285736355336,4.2324376,5.1651144,110.15654,1676507258999,0.32758695,4.273878,105625649283000,5.1452365,Bike
Fix,FLP,37.4288074,-122.1689896,-4.599999904632568,4.0151496,9.315,107.203804,1676507261205,,,105625590448925,3.8687932,Bike
Fix,GPS,37.428794372,-122.1689407561,2.109834866503391,4.4573207,5.2323365,106.6384,1676507259999,0.31634712,4.1697493,105626649285000,5.143104,Bike
Fix,FLP,37.4287946,-122.1689405,-4.599999904632568,4.189615,9.265,109.18795,1676507262291,,,105626675569103,3.8687932,Bike
Fix,GPS,37.4287830506,-122.1688889625,1.9830374803932964,4.652305,5.350935,104.40674,1676507260999,0.30531657,3.8649724,105627649287000,5.15171,Bike
Fix,FLP,37.4287819,-122.1688935,-1.1665115469934548,4.4226923,9.207,108.86856,1676507263375,,,105627760688854,3.8888032,Bike
Fix,GPS,37.4287733521,-122.1688359127,2.044584685934966,4.628361,5.3975325,106.17118,1676507261999,0.31616542,4.1091623,105628649332000,5.1660852,Bike
Fix,FLP,37.428773,-122.1688528,-2.4495142329418584,4.631809,9.258,104.4379,1676507263919,,,105628303248974,3.8988132,Bike
Fix,FLP,37.4287653,-122.168808,-2.4495142329418584,4.634123,9.325,103.99571,1676507265004,,,105629388368603,3.8988132,Bike
Fix,GPS,37.4287634095,-122.1687847664,2.390715443864183,4.751306,5.5163827,105.69824,1676507262999,0.36764374,4.4868755,105629649397000,5.2209783,Bike
Fix,FLP,37.4287589,-122.1687669,-1.754452236677409,4.7230487,9.355,103.75544,1676507265545,,,105629930923534,3.6316335,Bike
Fix,GPS,37.4287566398,-122.1687345349,2.41983508169943,4.804491,5.2397175,105.029945,1676507263999,0.35762966,4.4963655,105630649349000,5.1884522,Bike
Fix,FLP,37.4287553,-122.1687486,-1.3717646194493511,4.7459054,9.335,103.94502,1676507266089,,,105630473486766,3.6416337,Bike
Fix,FLP,37.4287489,-122.1687129,-1.3717646194493511,4.77817,9.285,104.521255,1676507266622,,,105631007826061,3.6416337,Bike
Fix,GPS,37.4287464922,-122.1686784186,2.441876977504637,4.8093114,5.2957234,104.51253,1676507264999,0.36233452,4.6824903,105631649331000,5.1950173,Bike
Fix,FLP,37.4287461,-122.1686991,-0.7853140469903082,4.7989907,9.302,104.867744,1676507267173,,,105631558594677,3.6516337,Bike
Fix,GPS,37.4287390306,-122.1686287393,2.510887525816865,4.5760894,5.124954,103.796684,1676507265999,0.3429685,4.5510697,105632649361000,5.1533623,Bike
Fix,FLP,37.4287368,-122.1686403,-2.7174137794743274,4.821301,9.378,103.70585,1676507268259,,,105632643724560,3.6616535,Bike
Fix,FLP,37.4287315,-122.1685981,-2.7174137794743274,4.6083264,9.301,103.20174,1676507268802,,,105633186283642,3.6616535,Bike
Fix,GPS,37.428731146,-122.1685839109,2.687376887289133,4.452604,5.1582556,101.53872,1676507266999,0.40935966,5.3212876,105633649342000,5.2007575,Bike
Fix,FLP,37.4287307,-122.1685912,1.399999976158142,4.599196,9.284,102.68368,1676507269344,,,105633728842174,3.6716337,Bike
Fix,FLP,37.4287245,-122.1685525,1.399999976158142,4.4717674,9.211,102.51106,1676507269887,,,105634271404246,3.6716337,Bike
Fix,GPS,37.4287219754,-122.1685364573,2.530529955426316,4.536014,5.2297645,103.18419,1676507267999,0.40513435,5.0673137,105634649457000,5.2226963,Bike
Fix,FLP,37.4287199,-122.1685228,-2.7174137794743274,4.507398,9.103,103.36712,1676507270428,,,105634813959850,3.8505952,Bike
Fix,GPS,37.4287121981,-122.1684854719,1.96928289181988,4.565184,5.302252,105.22378,1676507268999,0.381217,4.7146907,105635649516000,5.2812505,Bike
Fix,FLP,37.4287154,-122.1685,-6.9617304225043455,4.524029,9.049,104.316086,1676507270971,,,105635356518505,3.8605752,Bike
Fix,GPS,37.4286998936,-122.1684343862,1.8151032672492435,4.5541916,5.4073796,108.13927,1676507269999,0.40578896,5.165891,105636649512000,5.356475,Bike
Fix,FLP,37.4287043,-122.1684476,-7.423478936975215,4.5695777,9.07,103.312035,1676507272057,,,105636441635204,3.8705852,Bike
Fix,GPS,37.4286869046,-122.1683818444,1.9006514429774175,4.6790657,5.485746,107.67291,1676507270999,0.41732368,5.2142057,105637649427000,5.439594,Bike
Fix,FLP,37.4286912,-122.1683953,-7.242116828031612,4.5438743,9.091,107.095535,1676507273141,,,105637526751110,3.8805852,Bike
Fix,GPS,37.4286725311,-122.1683299857,1.7390060765725652,4.6103663,5.5379252,107.92882,1676507271999,0.43507686,5.4588304,105638649446000,5.517452,Bike
Fix,FLP,37.428675,-122.1683385,-4.599999904632568,4.6709375,9.274,108.043785,1676507274227,,,105638611864025,3.8905852,Bike
Fix,FLP,37.4286665,-122.1683105,-4.599999904632568,4.6335025,9.232,107.81622,1676507274769,,,105639153000000,3.8905852,Bike
Fix,GPS,37.4286597609,-122.1682789109,1.738388027397003,4.519381,5.5907154,106.628716,1676507272999,0.44208887,5.482874,105639649480000,5.606356,Bike
Fix,FLP,37.4286588,-122.1682828,-4.599999904632568,4.6202703,9.274,108.1476,1676507275312,,,105639696981823,3.672742,Bike
Fix,FLP,37.4286511,-122.1682489,-4.599999904632568,4.542271,9.37,107.115715,1676507275854,,,105640239539440,3.672742,Bike
Fix,GPS,37.4286501088,-122.1682273665,1.9159905547697575,4.1793466,5.577349,107.90923,1676507273999,0.42335755,5.8669147,105640649486000,5.645047,Bike
Fix,FLP,37.428648,-122.1682338,-2.657583467796343,4.5344706,9.407,107.120384,1676507276398,,,105640782096813,3.682762,Bike
Fix,FLP,37.4286396,-122.1681944,-2.657583467796343,4.212977,9.577,108.457886,1676507276940,,,105641324653942,3.682762,Bike
Fix,GPS,37.4286383854,-122.168182682,2.108895925345183,3.9791853,5.5641155,110.82755,1676507274999,0.40576115,5.776233,105641649473000,5.670533,Bike
Fix,FLP,37.4286355,-122.1681756,-4.599999904632568,4.0175705,9.669,110.21487,1676507277482,,,105641867211315,3.6927319,Bike
Fix,FLP,37.4286287,-122.1681515,-4.599999904632568,3.9802446,9.715,111.4174,1676507278025,,,105642409768200,3.6927319,Bike
Fix,GPS,37.428624972,-122.1681432074,1.6998821306574343,3.7474003,5.6547937,113.72561,1676507275999,0.41878402,6.331213,105642649534000,5.7495494,Bike
Fix,FLP,37.4286217,-122.16813,-2.473600398172522,3.8020709,9.706,111.22087,1676507278568,,,105642952328197,3.702712,Bike
Fix,GPS,37.4286110694,-122.1681043743,1.0213547507056795,3.9991152,5.611903,102.89479,1676507276999,0.39983007,5.834858,105643649582000,5.7944145,Bike
Fix,FLP,37.4286158,-122.168109,1.399999976158142,3.7777498,9.695,106.584595,1676507279110,,,105643494881786,3.712812,Bike
Fix,FLP,37.4286103,-122.1680888,1.399999976158142,3.9776053,9.787,101.8598,1676507279622,,,105644007826061,3.712812,Bike
Fix,GPS,37.4286032896,-122.1680593206,0.3406932627810968,4.294887,5.6281447,95.57155,1676507277999,0.4148274,5.521156,105644649560000,5.8266954,Bike
Fix,FLP,37.428607,-122.1680658,5.384798443500436,4.0053134,9.874,97.27677,1676507280195,,,105644579995006,3.722722,Bike
Fix,FLP,37.4286048,-122.1680416,5.384798443500436,4.2532163,9.884,94.677635,1676507280729,,,105645114000000,3.722722,Bike
Fix,GPS,37.4286005381,-122.1680073381,0.341768080072914,4.4071145,5.6657314,94.20479,1676507278999,0.38680822,5.2382526,105645649601000,5.872418,Bike
Fix,FLP,37.428603,-122.1680127,7.300000190734863,4.28975,9.89,94.96758,1676507281281,,,105645665107799,3.732722,Bike
Fix,FLP,37.4285993,-122.1679759,7.300000190734863,4.3852944,9.824,96.16558,1676507281823,,,105646207663952,3.732722,Bike
Fix,GPS,37.4285982297,-122.1679546778,0.8123704220062998,4.34302,5.8421693,100.07302,1676507279999,0.41412777,5.558072,105646649532000,5.9374356,Bike
Fix,FLP,37.4285977,-122.1679663,-8.46716446366058,4.3974323,9.695,97.30535,1676507282366,,,105646750220348,3.742722,Bike
Fix,GPS,37.4285918342,-122.167906737,0.9154136579586708,4.1494527,6.0192304,106.913086,1676507280999,0.41778994,5.628609,105647649585000,6.004739,Bike
Fix,FLP,37.4285946,-122.1679198,-4.599999904632568,4.331569,9.749,100.25928,1676507282907,,,105647292776256,3.752732,Bike
Fix,FLP,37.4285862,-122.1678784,-4.599999904632568,4.160529,9.813,104.589645,1676507283992,,,105648377876598,3.752732,Bike
Fix,GPS,37.4285825678,-122.1678596442,0.8625826773019066,4.239259,5.9696383,107.69897,1676507281999,0.42794147,5.798155,105648649603000,6.0198946,Bike
Fix,FLP,37.4285752,-122.1678299,-4.599999904632568,4.2302785,9.926,105.415565,1676507285070,,,105649454000000,3.762722,Bike
Fix,GPS,37.4285737589,-122.1678122184,0.1980233078780163,4.07399,5.9931164,105.33862,1676507282999,0.4264847,5.958219,105649649619000,6.0449743,Bike
Fix,GPS,37.4285676016,-122.1677613686,-0.0363625509890962,4.179526,6.027857,105.806564,1676507283999,0.46864474,6.351565,105650649624000,6.0832505,Bike
Fix,FLP,37.4285643,-122.1677714,-4.599999904632568,4.090771,10.113,106.381615,1676507286164,,,105650548110546,3.782732,Bike
Fix,FLP,37.4285624,-122.1677488,-4.599999904632568,4.155197,10.192,106.3865,1676507286705,,,105651090666027,3.782732,Bike
Fix,NLP,37.4280227,-122.1662674,,,699.999,,1676507286577,,,105650962000000,,Bike
Fix,GPS,37.4285569721,-122.1677132618,0.5225399104181009,4.043093,6.125108,110.75221,1676507284999,0.47960785,6.4619756,105651649621000,6.158356,Bike
Fix,FLP,37.4285581,-122.1677187,-4.599999904632568,4.1634393,10.365,107.91941,1676507287249,,,105651633216564,3.699609,Bike
Fix,GPS,37.4285440556,-122.1676665906,0.8358844216022221,4.0124035,6.1239185,111.88422,1676507285999,0.4742332,6.5584226,105652649687000,6.207287,Bike
Fix,FLP,37.4285483,-122.1676732,-4.599999904632568,4.0532684,10.425,108.60892,1676507288334,,,105652718331737,3.709609,Bike
Fix,FLP,37.4285389,-122.1676457,-4.599999904632568,4.018263,10.462,109.41304,1676507288875,,,105653260886852,3.709609,Bike
Fix,GPS,37.4285300419,-122.1676226787,0.4906958361937285,4.3455353,6.1361804,111.454346,1676507286999,0.437809,5.8674684,105653649646000,6.2319856,Bike
Fix,GPS,37.4285165417,-122.1675749125,0.1458314663606404,4.267897,6.259219,110.830765,1676507287999,0.4645814,5.9226775,105654649686000,6.312983,Bike
Fix,FLP,37.4285224,-122.1675941,-4.599999904632568,4.2865286,10.511,110.939384,1676507289961,,,105654345997021,3.729599,Bike
Fix,FLP,37.4285138,-122.167566,-4.599999904632568,4.2796726,10.603,109.57797,1676507290504,,,105654888551341,3.729599,Bike
Fix,FLP,37.4285086,-122.1675467,-4.599999904632568,4.280222,10.812,108.05225,1676507291047,,,105655431107494,3.729599,Bike
Fix,GPS,37.4285046104,-122.1675250801,-0.322495756376747,4.2968583,6.3331575,109.56508,1676507288999,0.47631207,6.1240783,105655649653000,6.405817,Bike
Fix,GPS,37.4284955299,-122.1674786563,-0.175632329242461,4.203046,6.4225883,110.001686,1676507289999,0.4425102,6.0343776,105656649788000,6.495552,Bike
Fix,FLP,37.4284962,-122.167497,-4.599999904632568,4.2791085,11.122,110.65308,1676507292131,,,105656516218700,3.749609,Bike
Fix,GPS,37.4284852195,-122.167429344,0.1924762823265944,4.0765915,6.4611683,113.3288,1676507290999,0.43773907,6.0714893,105657649717000,6.588438,Bike
Fix,FLP,37.4284858,-122.1674476,-4.599999904632568,4.2138906,11.116,109.89923,1676507293216,,,105657601330456,3.7299256,Bike
Fix,FLP,37.4284782,-122.1674182,-4.599999904632568,4.0969133,11.189,112.49873,1676507293758,,,105658143886486,3.7299256,Bike
Fix,GPS,37.4284722761,-122.1673819749,0.3350151264465451,4.1885204,6.5197,112.17094,1676507291999,0.45444512,6.268613,105658649754000,6.673205,Bike
Fix,FLP,37.4284714,-122.1673956,-4.599999904632568,4.07737,11.385,114.02017,1676507294301,,,105658686442577,3.7399156,Bike
Fix,FLP,37.4284614,-122.1673597,-4.599999904632568,4.1800985,11.329,111.057335,1676507294843,,,105659228998669,3.7399156,Bike
Fix,GPS,37.4284602144,-122.1673349131,0.8439802277785449,4.3117223,6.523423,106.48405,1676507292999,0.45741335,6.05186,105659649753000,6.7289467,Bike
Fix,FLP,37.4284591,-122.1673479,-4.599999904632568,4.1964903,11.379,109.96415,1676507295387,,,105659771555126,3.7499056,Bike
Fix,FLP,37.4284508,-122.1673149,-4.599999904632568,4.302543,11.448,107.73895,1676507295929,,,105660314108287,3.7499056,Bike
Fix,GPS,37.4284457507,-122.1672838482,0.3778777036573623,4.023831,6.394628,105.47209,1676507293999,0.4554304,6.3912053,105660649770000,6.7058015,Bike
Fix,FLP,37.4284381,-122.1672574,-4.599999904632568,4.066333,11.477,104.64819,1676507297015,,,105661399224010,3.7599256,Bike
Fix,GPS,37.4284325263,-122.1672381422,-0.592381467700304,4.1785393,6.5676727,106.70553,1676507294999,0.49662933,6.7043266,105661649791000,6.815502,Bike
Fix,FLP,37.428434,-122.1672385,-1.77554030150403,4.148644,11.436,103.828835,1676507297556,,,105661941783336,3.7699156,Bike
Fix,FLP,37.4284281,-122.1672068,-1.77554030150403,4.182856,11.543,100.85174,1676507298100,,,105662484337108,3.7699156,Bike
Fix,GPS,37.428418993,-122.1671933116,-1.5427401171979849,4.2408,6.72148,108.41746,1676507295999,0.5304394,6.8614507,105662649808000,6.939954,Bike
Fix,FLP,37.4284213,-122.1671799,-0.688150115524401,4.1921463,11.584,105.90233,1676507298622,,,105663007826061,3.7799156,Bike
Fix,GPS,37.428405015,-122.167145626,-1.6938489933950722,4.3426247,7.0235815,110.51742,1676507296999,0.5675077,7.0870457,105663649761000,7.1139073,Bike
Fix,FLP,37.4284137,-122.1671589,-0.688150115524401,4.18824,11.592,112.259796,1676507299184,,,105663569449840,3.7799156,Bike
Fix,FLP,37.4284037,-122.1671325,-0.2483012430816984,4.3191476,11.748,112.460884,1676507299727,,,105664111994335,3.9127219,Bike
Fix,FLP,37.4283967,-122.16711,-0.2483012430816984,4.3405666,11.997,112.03896,1676507300270,,,105664654562450,3.9127219,Bike
Fix,GPS,37.4283901259,-122.167095841,-2.113278412900022,4.158899,6.926511,112.31626,1676507297999,0.5241165,6.9471607,105664649830000,7.180044,Bike
Fix,FLP,37.4283873,-122.1670853,-0.2483012430816984,4.2024617,12.045,112.929146,1676507300784,,,105665169000000,3.923042,Bike
Fix,GPS,37.4283760255,-122.1670566711,-2.041351581463587,4.2399116,6.8485007,116.92788,1676507298999,0.56875473,7.0071197,105665650089000,7.21122,Bike
Fix,FLP,37.4283778,-122.167064,1.399999976158142,4.13794,12.028,120.58114,1676507301355,,,105665739675243,3.9327219,Bike
Fix,FLP,37.4283664,-122.1670372,1.399999976158142,4.1948705,12.062,124.14343,1676507301897,,,105666282231579,3.9327219,Bike
Fix,GPS,37.4283523176,-122.1670114361,-0.8310211259394392,4.2753663,6.950838,128.2177,1676507299999,0.59592915,7.340355,105666649823000,7.300056,Bike
Fix,GPS,37.4283206526,-122.1669701681,0.2348705151181697,4.5754743,7.0835686,143.97408,1676507300999,0.6074452,7.1869264,105667649903000,7.395909,Bike
Fix,FLP,37.4283405,-122.1669896,1.399999976158142,4.2649384,12.353,137.3698,1676507302982,,,105667367344433,3.952722,Bike
Fix,FLP,37.4283186,-122.1669686,1.399999976158142,4.514513,12.33,142.43253,1676507303525,,,105667909900829,3.952722,Bike
Fix,GPS,37.4282821084,-122.1669361518,1.4816752596464868,4.5931354,7.1145334,152.34383,1676507301999,0.5642769,6.8768916,105668649899000,7.3786087,Bike
Fix,FLP,37.4283029,-122.166954,1.399999976158142,4.564646,12.399,142.75424,1676507304068,,,105668452459666,3.9627318,Bike
Fix,FLP,37.4282768,-122.1669309,1.399999976158142,4.625241,12.347,148.4402,1676507304610,,,105668995013317,3.9627318,Bike
Fix,GPS,37.428242228,-122.1669071737,2.051192403974826,4.5628715,6.8178997,151.09203,1676507302999,0.5192987,6.2739377,105669649894000,7.255339,Bike
Fix,FLP,37.4282679,-122.166925,1.399999976158142,4.623584,12.291,150.17426,1676507305153,,,105669537569042,3.9727418,Bike
Fix,FLP,37.4282404,-122.1669053,1.399999976158142,4.586778,12.238,150.01158,1676507305695,,,105670080125439,3.9727418,Bike
Fix,GPS,37.4282085115,-122.166875859,1.054274186760218,4.4494762,6.433867,141.97594,1676507303999,0.48312244,5.999495,105670649867000,7.0877357,Bike
Fix,FLP,37.4282266,-122.1668947,-4.599999904632568,4.5640306,12.224,145.58472,1676507306238,,,105670622681530,3.982712,Bike
Fix,FLP,37.4282064,-122.166875,-4.599999904632568,4.4994874,12.186,138.28923,1676507306761,,,105671145000000,3.982712,Bike
Fix,GPS,37.428187312,-122.1668332989,-0.7292727501416536,4.7431383,6.1255283,130.3735,1676507304999,0.44497067,5.198169,105671649909000,6.916922,Bike
Fix,FLP,37.4281905,-122.1668547,-4.599999904632568,4.5077796,12.069,128.51118,1676507307322,,,105671707793285,3.992722,Bike
Fix,FLP,37.4281738,-122.1668216,-4.599999904632568,4.67432,11.869,123.42685,1676507307865,,,105672250343273,3.992722,Bike
Fix,GPS,37.4281679283,-122.1667837757,-2.8122766013557188,4.934809,6.0124407,121.70696,1676507305999,0.44415537,5.130632,105672649929000,6.899285,Bike
Fix,FLP,37.428154,-122.166767,-4.599999904632568,4.941262,11.561,114.403336,1676507308951,,,105673335460583,4.002732,Bike
Fix,GPS,37.4281479416,-122.1667287682,-4.997317773955808,5.1287847,5.8398676,117.578316,1676507306999,0.4689552,5.4020076,105673649935000,6.7622604,Bike
Fix,FLP,37.4281503,-122.1667451,-4.599999904632568,5.123478,11.084,116.94465,1676507309265,0.4689552,5.4020076,105673649935000,4.012722,Bike
Fix,GPS,37.4281327228,-122.1666711926,-6.502690991848892,4.779154,5.801548,116.25571,1676507307999,0.4892824,6.37301,105674649972000,6.66852,Bike
Fix,FLP,37.4281319,-122.1666865,-9.864647484342283,4.983495,10.563,116.427284,1676507310265,,,105674649972000,4.022732,Bike
Fix,FLP,37.4281205,-122.1666527,-9.864647484342283,3.6686993,10.326,176.86444,1676507310790,,,105675175627391,4.022732,Bike
Fix,GPS,37.428129353,-122.1666190262,-6.801459374343736,3.9170098,5.785404,101.94363,1676507308999,0.5299453,8.780746,105675650120000,6.5914507,Bike
Fix,FLP,37.4281192,-122.1666562,-8.628288311094238,3.9791377,10.432,195.88628,1676507311333,,,105675718182384,4.032732,Bike
Fix,FLP,37.4281093,-122.1666294,-8.628288311094238,3.75219,10.305,118.51009,1676507311875,,,105676260736400,4.032732,Bike
Fix,GPS,37.4281410681,-122.1665746978,-6.094700918988335,3.5949802,5.785423,85.109665,1676507309999,0.46872887,8.472344,105676650032000,6.48992,Bike
Fix,FLP,37.4281206,-122.1665921,-9.195985482080175,3.6482203,10.135,95.06567,1676507312420,,,105676805000000,4.0427217,Bike
Fix,FLP,37.4281288,-122.1665553,-9.195985482080175,3.5941682,9.951,86.9706,1676507312960,,,105677345847606,4.0427217,Bike
Fix,GPS,37.4281624312,-122.1665304069,-5.264742819821584,3.7469494,5.821128,74.71867,1676507310999,0.4293396,7.036516,105677650147000,6.394082,Bike
Fix,GPS,37.4281858174,-122.1664811175,-4.321607343317588,3.99408,6.036574,76.50295,1676507311999,0.45484105,6.435084,105678650018000,6.427419,Bike
Fix,FLP,37.4281496,-122.1665053,-4.599999904632568,3.7140477,10.273,76.81679,1676507314046,,,105678430956920,4.0627217,Bike
Fix,FLP,37.4281713,-122.1664591,-4.599999904632568,3.9664915,10.214,85.29894,1676507315131,,,105679516065868,4.0627217,Bike
Fix,GPS,37.4282065555,-122.1664451137,-4.380689216567106,4.106508,6.0305014,89.16499,1676507312999,0.45982814,6.3435383,105679650034000,6.4259853,Bike
Fix,FLP,37.4281882,-122.1664212,1.399999976158142,4.0809045,10.23,91.2363,1676507315674,,,105680058608532,4.072722,Bike
Fix,GPS,37.4282154622,-122.1664053976,-3.768169694156783,4.495263,6.157403,104.6263,1676507313999,0.48756567,6.3161445,105680650014000,6.4624805,Bike
Fix,FLP,37.4281925,-122.1664095,5.062593203942001,4.081009,10.245,94.706055,1676507316217,,,105680601172374,3.989619,Bike
Fix,FLP,37.4281968,-122.1663852,5.062593203942001,4.3578362,10.004,100.49784,1676507316758,,,105681143727977,3.989619,Bike
Fix,GPS,37.4282113888,-122.1663597006,-4.00535305276101,4.8564606,6.2185636,112.64131,1676507314999,0.45340982,5.25982,105681650078000,6.4872537,Bike
