Fix,Provider,LatitudeDegrees,LongitudeDegrees,AltitudeMeters,SpeedMps,AccuracyMeters,BearingDegrees,UnixTimeMillis,SpeedAccuracyMps,BearingAccuracyDegrees,elapsedRealtimeNanos,VerticalAccuracyMeters,TransitType
Fix,FLP,37.42807,-122.1744848,3.1000001430511475,0.323517,17.957,238.14474,1675977991721,,,13184414000000,6.2989526,Bike
Fix,GPS,37.4278622392,-122.1748819731,20.39791735837865,0.0,36.486343,,1675977996514,0.9008292,,13188324503771,50.409313,Bike
Fix,FLP,37.4278959,-122.1748336,3.1000001430511475,6.3213596,23.508,237.7029,1675977995630,0.9008292,,13188324503771,6.3389025,Bike
Fix,NLP,37.4279039,-122.1748215,3.1000001430511475,,22.883,,1675977991721,,,13184414000000,6.3248057,Bike
Fix,GPS,37.4277890323,-122.1748332264,16.081112067846348,0.0,37.58755,,1675977997371,0.9549936,,13189350109566,55.74619,Bike
Fix,FLP,37.4278659,-122.1748574,3.1000001430511475,0.0041474984,33.529,,1675977996688,,,13189382960986,6.322449,Bike
Fix,GPS,37.4277965781,-122.1748479485,25.293308444055278,0.0,33.598366,,1675977998371,20.0,,13190332476876,43.930435,Bike
Fix,FLP,37.4278432,-122.1748467,3.1000001430511475,0.008592181,34.358,,1675977997232,,,13189925623767,6.331459,Bike
Fix,GPS,37.4278142119,-122.1748697193,27.96170583440931,0.0,26.12294,,1675977999371,20.0,,13191338632516,35.447723,Bike
Fix,FLP,37.4278273,-122.174839,5.043181935275733,0.008988746,33.729,,1675977998317,,,13191010928210,6.341469,Bike
Fix,FLP,37.4278222,-122.1748302,5.043181935275733,0.00397966,32.189,,1675977998860,,,13191553580249,6.341469,Bike
Fix,FLP,37.427821,-122.1748279,6.681888130894578,0.0038190894,29.685,,1675977999403,,,13192096235278,6.3484592,Bike
Fix,GPS,37.4278385388,-122.1748878569,32.290089219823415,0.0,18.073692,,1675978001000,0.5975553,,13192969368967,29.729012,Bike
Fix,FLP,37.4278213,-122.1748243,6.764817839329105,0.0068567963,27.43,,1675977999910,,,13192603829883,6.358449,Bike
Fix,FLP,37.4278216,-122.1748206,6.764817839329105,0.010658176,24.415,,1675978000488,,,13193181519519,6.358449,Bike
Fix,FLP,37.4278217,-122.174819,6.764817839329105,0.011204323,18.926,,1675978001031,,,13193724185778,6.358449,Bike
Fix,GPS,37.4278380247,-122.1748856395,31.619620355525942,0.0,15.648259,,1675978002000,0.45220283,,13193991602773,26.530762,Bike
Fix,FLP,37.4278217,-122.1748174,5.425905921496195,0.008877627,12.852,,1675978001573,,,13194266835437,6.368469,Bike
Fix,NLP,37.4279148,-122.1748522,3.1000001430511475,,25.133,,1675978001969,,,13194663000000,5.528658,Bike
Fix,FLP,37.4278233,-122.1748166,3.1000001430511475,0.009935225,11.983,,1675978002115,,,13194809481677,5.82916,Bike
Fix,GPS,37.4278391636,-122.1748779731,33.153062287823325,0.0,13.939462,,1675978003000,0.46585315,,13194928756000,24.054396,Bike
Fix,FLP,37.4278242,-122.1748159,3.1000001430511475,0.00017284967,9.651,,1675978002659,,,13195352131518,5.83207,Bike
Fix,GPS,37.4278413339,-122.1748748092,33.34034767094405,0.0,12.661265,,1675978004000,0.50123763,,13195928747000,21.288393,Bike
Fix,FLP,37.4278241,-122.174816,3.1000001430511475,0.000345211,9.518,,1675978003201,,,13195894778247,5.84208,Bike
Fix,FLP,37.4278239,-122.174816,3.1000001430511475,0.0005492116,8.677,,1675978003744,,,13196437423755,5.84208,Bike
Fix,GPS,37.4278474543,-122.17486836,32.24355521143658,0.0,11.487822,,1675978005000,20.0,,13196928761000,19.373238,Bike
Fix,FLP,37.4278238,-122.1748161,-2.5465425291857717,0.0006624537,8.431,,1675978004286,,,13196980068286,5.977949,Bike
Fix,GPS,37.4278487743,-122.1748664611,31.81748608171409,0.0,11.085335,,1675978006000,0.5094175,,13197928989000,18.232712,Bike
Fix,FLP,37.4278233,-122.1748165,-0.7830030234521814,0.0020212473,8.207,,1675978005371,,,13198065353686,6.0426083,Bike
Fix,FLP,37.4278229,-122.1748167,-0.7830030234521814,0.0033674384,8.183,,1675978005910,,,13198603829883,6.0426083,Bike
Fix,GPS,37.4278476698,-122.174864206,32.215402317653776,0.0,10.724768,,1675978007000,0.44951367,,13198928817000,17.022566,Bike
Fix,NLP,37.4278274,-122.1748672,3.1000001430511475,,26.794,,1675978006987,,,13199681000000,4.7641315,Bike
Fix,FLP,37.4278223,-122.1748171,3.1000001430511475,0.001824985,8.361,,1675978007000,,,13199693273303,5.5397053,Bike
Fix,GPS,37.4278465482,-122.1748654302,32.42988909278001,0.0,10.477163,,1675978008000,0.4736617,,13199928826000,16.100266,Bike
Fix,GPS,37.4278481435,-122.1748694865,32.5353133263087,0.0,10.328305,,1675978009000,0.45854887,,13200928798000,15.469503,Bike
Fix,FLP,37.4278216,-122.174818,6.28494926880559,0.004678185,8.742,,1675978008085,,,13200778547229,5.3622093,Bike
Fix,FLP,37.4278214,-122.1748185,6.28494926880559,0.009167661,8.917,,1675978008631,,,13201324000000,5.3622093,Bike
Fix,GPS,37.4278522568,-122.1748685318,32.13923627662597,0.0,10.075769,,1675978010000,20.0,,13201928931000,14.77476,Bike
Fix,FLP,37.4278211,-122.1748191,5.140251636467376,0.015644355,9.101,,1675978009170,,,13201863816516,5.5637655,Bike
Fix,GPS,37.4278552847,-122.1748710747,31.35074388756494,0.0,9.697289,,1675978011000,20.0,,13202928847000,13.873691,Bike
Fix,FLP,37.4278182,-122.1748201,3.1000001430511475,0.014003347,9.117,,1675978010256,,,13202949079089,5.6317983,Bike
Fix,FLP,37.4278166,-122.1748211,3.1000001430511475,0.012900526,9.162,,1675978010798,,,13203491711657,5.6317983,Bike
Fix,GPS,37.4278624607,-122.1748727165,30.57653423479785,1.2599387,9.536988,4.909185,1675978012000,0.44429862,17.196888,13203928867000,13.363841,Bike
Fix,FLP,37.4278157,-122.1748217,3.1000001430511475,0.009804975,9.271,,1675978011341,,,13204034340869,5.5837655,Bike
Fix,NLP,37.4281193,-122.1747034,-1.3000000715255735,,39.424,,1675978012036,,,13204729000000,3.2143178,Bike
Fix,FLP,37.4278141,-122.1748252,3.1000001430511475,0.48856375,9.16,313.25583,1675978011883,,,13204576966663,5.403018,Bike
Fix,GPS,37.4278774939,-122.1748746734,30.575783652099517,1.2070631,9.389543,7.828396,1675978013000,0.47070324,16.775227,13204928878000,13.084319,Bike
Fix,FLP,37.4278161,-122.1748249,3.1000001430511475,0.48803398,9.074,313.97372,1675978012426,,,13205119596728,5.4102855,Bike
Fix,GPS,37.4278910033,-122.1748786396,31.310208875309428,0.922201,8.783282,356.87726,1675978014000,0.4541414,24.936815,13205928956000,12.434915,Bike
Fix,FLP,37.4278185,-122.1748288,3.1000001430511475,0.7860315,8.924,326.8714,1675978012968,,,13205662222949,5.4915705,Bike
Fix,FLP,37.4278198,-122.1748294,3.1000001430511475,0.8002577,8.747,336.28073,1675978013511,,,13206204848620,5.4915705,Bike
Fix,GPS,37.4279050715,-122.1748840896,30.8929596546486,1.3669925,7.8845186,352.11264,1675978015000,0.38153914,14.367489,13206928937000,11.634616,Bike
Fix,FLP,37.4278188,-122.1748324,26.29160640026339,0.8300504,8.498,333.22046,1675978014054,,,13206747473071,5.501963,Bike
Fix,FLP,37.4278191,-122.1748389,26.29160640026339,1.0336447,8.423,325.191,1675978015139,,,13207832719226,5.501963,Bike
Fix,GPS,37.4279188436,-122.1748766188,31.05870280748624,1.4672946,7.3866706,351.50122,1675978016000,0.40290865,14.184681,13207928945000,10.987311,Bike
Fix,FLP,37.4278161,-122.1748457,28.159521343708576,1.222713,8.281,325.47733,1675978015681,,,13208375340808,5.5049815,Bike
Fix,GPS,37.4279400284,-122.1748758183,31.646290504479417,2.1363616,6.85235,10.12127,1675978017000,0.3428201,10.0,13208928944000,10.197157,Bike
Fix,FLP,37.4278161,-122.174849,-8.099465103838511,1.2684535,8.085,330.53754,1675978016224,,,13208917959155,5.4503355,Bike
Fix,NLP,37.4279707,-122.1749001,-0.1000000014901161,,18.003,,1675978017083,,,13209776000000,2.0290763,Bike
Fix,FLP,37.4278183,-122.1748556,-4.5798899097525805,1.5398926,8.036,338.1879,1675978016767,,,13209460581286,5.1240535,Bike
Fix,GPS,37.427965774,-122.1748694545,31.236812425627,1.9732114,6.608165,16.897865,1675978018000,0.44549328,12.681497,13209928884000,9.795473,Bike
Fix,FLP,37.4278211,-122.1748579,-0.1000000014901161,1.5469166,7.912,338.0571,1675978017310,,,13210003200427,3.8058312,Bike
Fix,FLP,37.4278598,-122.1748604,-0.1000000014901161,1.7839233,8.097,357.4793,1675978017851,,,13210545818591,3.8058312,Bike
Fix,GPS,37.4279819368,-122.1748482052,31.98656528635369,1.9866005,6.4495134,27.967108,1675978019000,0.43911302,12.177022,13210929272000,9.4488735,Bike
Fix,FLP,37.4278759,-122.1748588,-0.1000000014901161,1.8720071,8.284,5.6487994,1675978018395,,,13211088436023,2.4312778,Bike
Fix,FLP,37.4279153,-122.1748516,-0.1000000014901161,1.9987533,8.451,13.849475,1675978018909,,,13211603829883,2.4312778,Bike
Fix,GPS,37.4279993119,-122.1748260783,30.845855909542088,2.5745564,6.3608227,26.965368,1675978020000,0.40155438,10.0,13211929226000,9.1575365,Bike
Fix,FLP,37.4279582,-122.1748377,-0.1000000014901161,2.2901042,8.641,17.694082,1675978020023,,,13212716286792,2.4407778,Bike
Fix,GPS,37.4280238505,-122.1748071293,31.298157382214985,2.89433,6.3860936,26.502623,1675978021000,0.4488556,10.0,13212928966000,9.061761,Bike
Fix,FLP,37.4279986,-122.1748212,5.930098889900854,2.8328369,9.111,20.18758,1675978021093,,,13213786000000,2.63609,Bike
Fix,GPS,37.4280635722,-122.1748018953,29.43176633496322,3.4690492,6.3164234,14.97462,1675978022000,0.3438604,10.0,13213928993000,8.820178,Bike
Fix,NLP,37.4264585,-122.17833,,,899.999,,1675978021006,,,13213700000000,,Bike
Fix,FLP,37.4280517,-122.1747982,20.31373892779081,3.4104495,9.749,12.279789,1675978022197,,,13214890000000,4.4340463,Bike
Fix,GPS,37.428109446,-122.1747910884,28.66920708224232,3.9057527,6.162631,14.733563,1675978023000,0.3445897,10.0,13214928983000,8.555124,Bike
Fix,FLP,37.4280985,-122.1747876,32.830709162460494,3.8316336,9.938,16.256586,1675978022735,,,13215429352649,4.443046,Bike
Fix,GPS,37.4281540044,-122.1747710047,28.102769047973663,4.574829,6.0386276,32.35676,1675978024000,0.3016704,10.0,13215928980000,8.35975,Bike
Fix,FLP,37.4281045,-122.1747864,31.290180641369176,3.8551245,9.935,20.996054,1675978023277,,,13215971962634,4.4530463,Bike
Fix,FLP,37.4281466,-122.1747709,31.290180641369176,4.34457,9.813,34.648575,1675978023821,,,13216514573657,4.4530463,Bike
Fix,GPS,37.4282032013,-122.1747207081,24.84849379526197,3.977811,5.833949,29.96986,1675978025000,0.30748323,10.0,13216929096000,7.98091,Bike
Fix,FLP,37.4281553,-122.1747672,-1.3000000715255735,4.473685,9.731,40.919262,1675978024364,,,13217057181018,4.463066,Bike
Fix,FLP,37.4281944,-122.1747354,-1.3000000715255735,4.1467285,9.768,30.839478,1675978024906,,,13217599793811,4.463066,Bike
Fix,GPS,37.4282497788,-122.1747119312,22.04717747640038,3.9601717,5.339913,16.325459,1675978026000,0.028955119,10.0,13217929044000,7.4523096,Bike
Fix,FLP,37.4282281,-122.1747179,-10.546068521649405,4.0615053,9.663,20.412811,1675978025448,,,13218142403674,4.473106,Bike
Fix,FLP,37.4282531,-122.1747097,-10.546068521649405,4.0126276,9.578,12.224048,1675978025992,,,13218686000000,4.473106,Bike
Fix,GPS,37.4282942491,-122.1747025643,20.175503999104187,4.1847234,5.121918,15.449381,1675978027000,0.052140284,10.0,13218929046000,6.993957,Bike
Fix,FLP,37.4282961,-122.1746998,-8.30943300538074,4.117683,9.099,13.727169,1675978026533,,,13219227622485,4.484046,Bike
Fix,GPS,37.4283356343,-122.1746788072,18.70179304974776,4.012075,5.1217976,26.970701,1675978028000,0.045936313,10.0,13219929102000,6.6276755,Bike
Fix,FLP,37.428308,-122.174695,-1.3000000715255735,4.1371713,8.94,18.162804,1675978027077,,,13219770231067,4.4930463,Bike
Fix,GPS,37.4283655126,-122.1746420048,17.180684014661534,3.82441,5.1216755,40.79017,1675978029000,0.025802396,10.0,13220929085000,6.281129,Bike
Fix,FLP,37.4283483,-122.1746666,-0.1000000014901161,4.010364,8.695,39.0035,1675978028162,,,13220855447864,4.504056,Bike
Fix,GPS,37.4283908216,-122.1746057254,16.38289888936179,3.8335686,5.1112995,50.893555,1675978030000,0.02279478,10.0,13221929120000,6.075303,Bike
Fix,FLP,37.4283786,-122.1746288,3.1000001430511475,3.8763907,8.639,45.069798,1675978029247,,,13221940663440,4.514046,Bike
Fix,GPS,37.4284015655,-122.1745622569,15.276521797811856,3.8603396,5.111331,71.46096,1675978031000,0.028666604,10.0,13222929149000,5.856979,Bike
Fix,FLP,37.4284015,-122.174589,-0.1000000014901161,3.8908055,8.458,60.50914,1675978030332,,,13223025877307,4.523066,Bike
Fix,FLP,37.4284065,-122.174541,-0.1000000014901161,3.8751314,8.513,78.2563,1675978030875,,,13223568483996,4.523066,Bike
Fix,GPS,37.4284138816,-122.1745191161,14.87639588705544,4.159427,5.1113605,79.152725,1675978032000,0.34303516,10.0,13223929195000,5.6730065,Bike
Fix,FLP,37.4284033,-122.1745331,3.1000001430511475,3.855315,8.558,83.31965,1675978031417,,,13224111089709,4.533616,Bike
Fix,FLP,37.4284091,-122.1744901,3.1000001430511475,4.1332765,8.579,84.69031,1675978031960,,,13224653695117,4.533616,Bike
Fix,GPS,37.4284104248,-122.1744698134,14.396512579106822,4.276337,5.11139,92.9622,1675978033000,0.07167881,10.0,13224929099000,5.436569,Bike
Fix,FLP,37.4284046,-122.1744428,8.758646153325266,4.2302747,8.627,95.77078,1675978033044,,,13225738905078,4.543046,Bike
Fix,GPS,37.4284072999,-122.1744202371,14.26808434677419,4.409777,5.11142,97.93794,1675978034000,0.3648772,10.0,13225929220000,5.3106775,Bike
Fix,FLP,37.4283929,-122.1743917,24.42487699590265,4.3704977,8.497,102.42119,1675978034131,,,13226824113086,4.5530562,Bike
Fix,GPS,37.4283989097,-122.1743669899,14.212989139970537,5.091913,5.1114492,108.449875,1675978035000,0.30121696,10.0,13226929141000,5.2159023,Bike
Fix,FLP,37.4283819,-122.174352,31.44132972752557,4.935089,8.449,106.324684,1675978034673,,,13227366716907,4.564046,Bike
Fix,GPS,37.4283845392,-122.1743120486,14.082659828902797,5.1268477,5.111479,108.07049,1675978036000,0.31015486,10.0,13227929437000,5.1103573,Bike
Fix,FLP,37.4283825,-122.1743259,30.64148756912762,5.120536,8.087,107.858604,1675978035236,0.31015486,10.0,13227929437000,4.573046,Bike
Fix,GPS,37.4283747709,-122.1742552566,14.47755894795408,5.166899,4.3746033,101.83346,1675978037000,0.058215693,10.0,13228929537000,4.933176,Bike
Fix,FLP,37.4283728,-122.1742604,10.223735122005117,5.1704655,7.529,101.21858,1675978036235,0.058215693,10.0,13228929537000,4.584046,Bike
Fix,GPS,37.4283636806,-122.1741991827,13.834889677214584,5.040783,4.374446,104.82711,1675978038000,0.024475439,10.0,13229929315000,4.7529936,Bike
Fix,FLP,37.4283637,-122.1742004,-8.193824609673669,5.0394826,6.916,103.921814,1675978037236,0.024475439,10.0,13229929315000,4.594086,Bike
Fix,GPS,37.4283500131,-122.1741423244,13.333667083519504,4.888695,4.3742886,99.62847,1675978039000,0.248083,10.0,13230929565000,4.743893,Bike
Fix,FLP,37.4283511,-122.174144,-4.97988415325122,5.108773,6.569,100.79741,1675978038236,,,13230929565000,4.604046,Bike
Fix,FLP,37.4283434,-122.1741202,-4.97988415325122,4.636365,6.354,77.978745,1675978038820,,,13231513105578,4.604046,Bike
Fix,GPS,37.4283434027,-122.1740900931,13.114292038555366,4.7160697,4.3741307,97.03508,1675978040000,0.024825526,10.0,13231929247000,4.598721,Bike
Fix,FLP,37.4283458,-122.1741125,-0.1000000014901161,4.663235,6.676,66.92059,1675978039361,,,13232055706592,4.614136,Bike
Fix,GPS,37.4283367603,-122.1740363317,12.72756971705563,4.591237,4.3941426,104.83304,1675978041000,0.22136216,10.0,13232929363000,4.60344,Bike
Fix,FLP,37.4283395,-122.1740461,-0.1000000014901161,4.642155,6.574,90.250854,1675978040446,,,13233140908008,4.624066,Bike
Fix,FLP,37.4283262,-122.1740053,-0.1000000014901161,4.574373,6.9,101.23719,1675978040989,,,13233683508166,4.624066,Bike
Fix,GPS,37.4283202677,-122.1739771367,12.520824528447775,4.582026,4.2227597,110.43574,1675978042000,0.020970559,10.0,13233929246000,4.4462547,Bike
Fix,FLP,37.4283073,-122.1739436,3.1000001430511475,4.552507,7.454,109.35558,1675978042075,,,13234768707080,4.633046,Bike
Fix,GPS,37.4283016886,-122.1739262039,12.211978797564276,4.6115313,4.2492514,113.39967,1675978043000,0.01986926,10.0,13234929306000,4.321517,Bike
Fix,FLP,37.4282946,-122.1739155,-0.1000000014901161,4.5931263,7.247,110.867905,1675978042618,,,13235311306262,4.643486,Bike
Fix,GPS,37.4282850288,-122.1738731549,11.631470739197704,4.6549263,4.2491193,108.38445,1675978044000,0.018943148,10.0,13235929273000,4.1978903,Bike
Fix,FLP,37.4282882,-122.1738989,-0.1000000014901161,4.6299214,7.2,109.96969,1675978043160,,,13235853904590,4.653106,Bike
Fix,GPS,37.4282739459,-122.1738200232,11.058843631527164,4.7205625,4.2489867,102.67748,1675978045000,0.018294906,10.0,13236929292000,4.0977535,Bike
Fix,FLP,37.4282716,-122.1738393,-0.1000000014901161,4.696988,6.914,103.84185,1675978044246,,,13236939100940,4.663056,Bike
Fix,FLP,37.4282653,-122.1738024,-0.1000000014901161,4.7314854,6.898,101.981415,1675978044788,,,13237481686877,4.663056,Bike
Fix,FLP,37.4282608,-122.1737732,-0.1000000014901161,4.7324386,6.859,101.47565,1675978045329,,,13238022000000,4.663056,Bike
Fix,GPS,37.428264311,-122.1737699869,10.508833638263258,4.7699575,4.248854,102.556366,1675978046000,0.016978435,10.0,13237929313000,3.9930334,Bike
Fix,GPS,37.4282546537,-122.1737157391,10.17448297406357,4.74898,4.248722,103.47301,1675978047000,0.017564857,10.0,13238929329000,3.9052439,Bike
Fix,FLP,37.4282491,-122.1737235,3.1000001430511475,4.7520633,6.799,104.30196,1675978046415,,,13239109488879,4.6840563,Bike
Fix,GPS,37.4282468816,-122.1736656329,9.857134072673638,4.449889,4.2485895,103.98934,1675978048000,0.01614974,10.0,13239929367000,3.7906308,Bike
Fix,FLP,37.4282411,-122.173685,-0.1000000014901161,4.7517676,6.868,103.11545,1675978046959,,,13239652085681,4.694046,Bike
Fix,FLP,37.4282402,-122.1736665,-0.1000000014901161,4.5338287,6.942,102.96988,1675978047506,,,13240200000000,4.694046,Bike
Fix,FLP,37.4282342,-122.1736337,-0.1000000014901161,4.4585643,6.933,104.276955,1675978048044,,,13240737277148,4.694046,Bike
Fix,GPS,37.4282380256,-122.1736243505,9.53984618486573,3.772898,4.2484565,105.693306,1675978049000,0.018125203,10.0,13240929358000,3.6929955,Bike
Fix,FLP,37.4282299,-122.1736145,3.1000001430511475,3.9178712,6.919,105.3938,1675978048586,,,13241279872851,4.7040863,Bike
Fix,GPS,37.4282295617,-122.1735889877,8.992146447301332,3.1435935,4.2483244,108.296974,1675978050000,0.013912277,10.0,13241929410000,3.6100998,Bike
Fix,FLP,37.428224,-122.1735901,3.1000001430511475,3.7948122,6.852,105.87235,1675978049129,,,13241822467761,4.714046,Bike
Fix,GPS,37.428221485,-122.17355893,8.844698741629765,2.7187665,4.248193,112.73265,1675978051000,0.016112702,10.0,13242929437000,3.5337124,Bike
Fix,FLP,37.4282177,-122.1735502,3.1000001430511475,3.2069247,6.794,107.916916,1675978050213,,,13242907657275,4.7241063,Bike
Fix,FLP,37.4282078,-122.1735239,3.1000001430511475,2.7769227,6.762,111.47957,1675978051298,,,13243992845019,4.7241063,Bike
Fix,GPS,37.4282125475,-122.1735304678,8.644243215332214,3.206532,4.24806,110.78621,1675978052000,0.22844046,10.0,13243929363000,3.6710649,Bike
Fix,FLP,37.4282023,-122.1735111,6.06740923706144,3.128715,6.835,109.124374,1675978051823,,,13244517351489,4.733046,Bike
Fix,GPS,37.4282033399,-122.1734977073,8.484473212902737,3.4878104,4.4394007,108.7043,1675978053000,0.2765466,10.0,13244929539000,3.811295,Bike
Fix,FLP,37.4281983,-122.1734955,9.03940147792398,3.1963365,6.863,107.81865,1675978052385,,,13245078028491,4.7430563,Bike
Fix,GPS,37.4281948918,-122.1734540089,8.162013587550158,3.9847677,4.438913,103.819176,1675978054000,0.06520748,10.0,13245929462000,3.7483397,Bike
Fix,FLP,37.4281939,-122.173468,-0.1000000014901161,3.4486752,6.98,102.79931,1675978052927,,,13245620624988,4.754046,Bike
Fix,FLP,37.4281918,-122.1734468,-0.1000000014901161,3.8917122,7.012,102.848335,1675978053470,,,13246163217822,4.754046,Bike
Fix,GPS,37.428185524,-122.1734060258,8.05016053588136,4.1015177,4.2212114,105.525444,1675978055000,0.015651902,10.0,13246929489000,3.6747584,Bike
Fix,FLP,37.4281873,-122.1734296,-5.693974309197984,3.9489415,6.991,105.9065,1675978054011,,,13246705810229,4.764076,Bike
Fix,FLP,37.4281765,-122.1733731,-5.693974309197984,4.0850167,7.045,107.149,1675978055097,,,13247790995105,4.764076,Bike
Fix,NLP,37.4281969,-122.1730344,-1.899999976158142,,25.501,,1675978055334,,,13248028000000,1.6969148,Bike
Fix,GPS,37.4281724356,-122.1733611287,7.791276205385962,4.2330437,4.2210917,108.81765,1675978056000,0.016000237,10.0,13247929592000,3.6045353,Bike
Fix,FLP,37.4281699,-122.1733451,-5.693974309197984,4.202619,7.034,107.44353,1675978055639,,,13248332238635,4.2033463,Bike
Fix,GPS,37.4281593152,-122.1733111664,7.62452088142786,4.4060273,4.387019,109.14778,1675978057000,0.015070238,10.0,13248929430000,3.5320256,Bike
Fix,FLP,37.4281646,-122.1733254,-1.899999976158142,4.232853,6.989,107.359505,1675978056182,,,13248876181629,2.2905493,Bike
Fix,GPS,37.428149527,-122.1732630204,7.488410552687061,4.4979806,4.0808506,107.60376,1675978058000,0.015752364,10.0,13249929517000,3.4649138,Bike
Fix,FLP,37.4281503,-122.1732786,-0.1000000014901161,4.3747587,6.968,109.23761,1675978057268,,,13249961351123,2.0950797,Bike
Fix,GPS,37.4281397473,-122.1732112695,7.338367703759527,4.6557956,4.256163,104.406906,1675978059000,0.02064332,10.0,13250929796000,3.4076188,Bike
Fix,FLP,37.4281374,-122.1732237,-0.1000000014901161,4.515032,6.883,103.63809,1675978058352,,,13251046549548,2.1044595,Bike
Fix,FLP,37.4281314,-122.1731924,-0.1000000014901161,4.62904,6.926,103.35478,1675978058895,,,13251589143908,2.1044595,Bike
Fix,GPS,37.4281291812,-122.1731590068,7.091134110059979,4.8063936,4.246996,104.60465,1675978060000,0.017403955,10.0,13251929523000,3.3464952,Bike
Fix,FLP,37.4281263,-122.173154,-0.1000000014901161,4.7662425,6.997,103.60624,1675978059438,,,13252131738086,2.1144395,Bike
Fix,FLP,37.4281196,-122.1731301,-0.1000000014901161,4.7936254,7.084,104.53154,1675978059981,,,13252674332385,2.1144395,Bike
Fix,GPS,37.4281187884,-122.1731082904,7.041458694830981,4.637161,5.117523,104.30379,1675978061000,0.021819921,10.0,13252929567000,3.289508,Bike
Fix,FLP,37.4281102,-122.1731018,-0.1000000014901161,4.6713667,7.438,104.600945,1675978060522,,,13253216926257,2.1244895,Bike
Fix,FLP,37.4281033,-122.173076,-0.1000000014901161,4.6518903,7.651,103.68475,1675978061066,,,13253759520251,2.1244895,Bike
Fix,GPS,37.4281085153,-122.1730575142,6.826140784589561,4.645874,5.117382,104.227264,1675978062000,0.037929058,10.0,13253929579000,3.2389965,Bike
Fix,FLP,37.4280997,-122.1730457,-0.1000000014901161,4.62972,7.973,104.20052,1675978061609,,,13254302114306,2.1344395,Bike
Fix,GPS,37.4280983843,-122.173005152,6.720034672527475,4.6546416,4.370485,105.1214,1675978063000,0.02562093,10.0,13254929632000,3.205408,Bike
Fix,FLP,37.4280937,-122.173028,-1.899999976158142,4.640245,8.173,105.22029,1675978062151,,,13254844707995,2.1444395,Bike
Fix,FLP,37.4280851,-122.1729935,-1.899999976158142,4.643233,8.23,105.64735,1675978062694,,,13255387301196,2.1444395,Bike
Fix,GPS,37.4280859443,-122.1729557352,6.568140805202847,4.657459,4.370326,108.75756,1675978064000,0.036192082,10.0,13255929601000,3.169741,Bike
Fix,FLP,37.4280817,-122.1729794,-1.899999976158142,4.648405,8.198,107.21061,1675978063235,,,13255929894519,2.1554396,Bike
Fix,FLP,37.4280636,-122.1729148,-1.899999976158142,4.6645994,8.4,107.94855,1675978064322,,,13257015079150,2.1554396,Bike
Fix,GPS,37.4280739581,-122.1729067629,6.478984238094212,4.652075,4.370166,106.84318,1675978065000,0.035387825,10.0,13256929595000,3.1333423,Bike
Fix,FLP,37.4280571,-122.1728826,-0.1000000014901161,4.6667566,8.464,105.14918,1675978064864,,,13257557673083,2.1644495,Bike
Fix,GPS,37.4280638929,-122.1728561517,6.636065044115497,4.6308746,5.1119976,104.43364,1675978066000,0.034373183,10.0,13257929598000,3.1047065,Bike
Fix,FLP,37.4280539,-122.1728609,-0.1000000014901161,4.670483,8.49,103.52859,1675978065407,,,13258100265674,2.1754496,Bike
Fix,FLP,37.4280447,-122.1728248,-0.1000000014901161,4.632248,8.523,103.43062,1675978065949,,,13258642846179,2.1754496,Bike
Fix,GPS,37.428054696,-122.1728057041,6.643719180855977,4.6191893,4.3698463,102.62113,1675978067000,0.02599473,10.0,13258929610000,3.0730853,Bike
Fix,GPS,37.4280470293,-122.1727537431,6.629860215682092,4.6868296,4.9506545,101.34771,1675978068000,0.02704002,10.0,13259929639000,3.051606,Bike
Fix,FLP,37.4280353,-122.1727724,-1.899999976158142,4.6257215,8.286,101.95281,1675978067035,,,13259728045215,2.1944396,Bike
Fix,FLP,37.4280312,-122.1727519,-1.899999976158142,4.673919,8.258,102.634224,1675978067548,,,13260241000000,2.1944396,Bike
Fix,GPS,37.4280390776,-122.1727033308,6.63311901197342,4.743815,4.3695264,102.401825,1675978069000,0.028021617,10.0,13260929616000,3.0263858,Bike
Fix,FLP,37.4280237,-122.1727149,-0.1000000014901161,4.682667,8.236,103.523224,1675978068119,,,13260813225085,2.2044497,Bike
Fix,GPS,37.4280281615,-122.1726521062,6.594859317133099,4.7190247,4.369366,105.2729,1675978070000,0.027702358,10.0,13261929653000,3.000692,Bike
Fix,FLP,37.428015,-122.1726622,-1.899999976158142,4.7296133,8.198,104.14282,1675978069205,,,13261898404285,2.2145996,Bike
Fix,GPS,37.4280189749,-122.1726010684,6.601796298340336,4.743533,4.369206,103.02406,1675978071000,0.027641276,10.0,13262929630000,3.0,Bike
Fix,FLP,37.4280077,-122.1726122,-1.899999976158142,4.7164707,8.147,105.12987,1675978070289,,,13262983588855,2.2244396,Bike
Fix,FLP,37.4280027,-122.1725742,-1.899999976158142,4.7521,7.998,103.30219,1675978070833,,,13263526179248,2.2244396,Bike
Fix,FLP,37.4279987,-122.1725453,-0.1000000014901161,4.7631087,7.7,101.18238,1675978071375,,,13264068769519,2.2344496,Bike
Fix,GPS,37.4280092488,-122.1725486334,6.5003135627300095,4.6369843,4.369046,99.837395,1675978072000,0.27001202,10.0,13263929722000,3.2070296,Bike
Fix,FLP,37.4279901,-122.1725058,-0.1000000014901161,4.6435266,7.639,100.130394,1675978071918,,,13264611359851,2.2344496,Bike
Fix,GPS,37.4280040529,-122.1724973365,6.21915299602381,4.6822104,4.368886,99.919174,1675978073000,0.024193773,10.0,13264929711000,3.1740384,Bike
Fix,FLP,37.427983,-122.1724606,-1.899999976158142,4.667744,7.573,101.912506,1675978073002,,,13265696543201,2.2447896,Bike
Fix,GPS,37.4279953542,-122.1724443709,6.175038511377709,4.7106967,4.496809,101.78599,1675978074000,0.026123928,10.0,13265929761000,3.1446607,Bike
Fix,FLP,37.4279704,-122.1724041,-1.899999976158142,4.70372,7.556,104.14045,1675978074088,,,13266781708728,2.2544596,Bike
Fix,GPS,37.4279856295,-122.1723919013,6.15241762670568,4.646631,4.2537317,105.330795,1675978075000,0.021880016,10.0,13266929716000,3.1057138,Bike
Fix,FLP,37.4279594,-122.1723438,-1.899999976158142,4.6393266,7.493,105.5936,1675978075172,,,13267866904651,2.2654595,Bike
Fix,GPS,37.4279693017,-122.1723420433,6.101290483247768,4.6417384,4.244853,112.23801,1675978076000,0.065957986,10.0,13267929766000,3.0775368,Bike
Fix,FLP,37.4279528,-122.1723194,-0.1000000014901161,4.600001,7.347,109.5878,1675978075716,,,13268409490039,2.2744396,Bike
Fix,FLP,37.4279442,-122.1722966,12.267495400099314,4.6004543,7.286,113.90268,1675978076259,,,13268952079577,2.2844496,Bike
Fix,GPS,37.4279355046,-122.1723075762,6.054534777026192,4.656689,4.218548,140.2658,1675978077000,0.037084527,10.0,13268929940000,3.0444567,Bike
Fix,FLP,37.4279229,-122.1722806,12.267495400099314,4.70314,7.187,137.89612,1675978076800,,,13269494668933,2.2844496,Bike
Fix,GPS,37.4279006127,-122.1722736518,6.090081275127285,4.244351,4.459933,163.55452,1675978078000,0.355056,10.0,13269929792000,3.2576683,Bike
Fix,FLP,37.4279047,-122.1722793,18.81517461343084,4.704807,7.151,149.99922,1675978077344,,,13270037258044,2.2954595,Bike
Fix,FLP,37.4278785,-122.1722683,18.81517461343084,4.312653,7.129,168.4249,1675978077868,,,13270561000000,2.2954595,Bike
Fix,GPS,37.4278538684,-122.1722647041,5.971108314483852,4.671676,4.552473,183.54294,1675978079000,0.31724352,10.0,13270929766000,3.4735322,Bike
Fix,FLP,37.4278586,-122.1722716,22.44533969217231,4.134157,7.122,184.81348,1675978078429,,,13271122435962,2.3044496,Bike
Fix,GPS,37.4278079651,-122.1722691605,6.124818759850569,4.9972906,5.161246,184.54167,1675978080000,0.34879225,10.0,13271929800000,3.6934605,Bike
Fix,FLP,37.4278267,-122.1722753,21.1143683400152,4.579537,7.001,190.00252,1675978078971,,,13271665024646,2.3144596,Bike
Fix,FLP,37.4278055,-122.1722742,21.1143683400152,4.930409,7.1,187.04634,1675978079514,,,13272207613208,2.3144596,Bike
Fix,GPS,37.4277591883,-122.172279942,6.358784093882199,4.61959,5.5935707,194.45934,1675978081000,0.3071591,10.0,13272929781000,3.8882022,Bike
Fix,FLP,37.4277769,-122.1722749,22.11245053961227,4.9906163,7.183,185.84294,1675978080057,,,13272750201587,2.3244395,Bike
Fix,FLP,37.4277274,-122.1722856,22.11245053961227,4.6171913,7.585,195.11337,1675978081141,,,13273835377673,2.3244395,Bike
Fix,GPS,37.4277083493,-122.1723027022,6.310429678427615,4.877407,5.7297564,199.27832,1675978082000,0.2991131,10.0,13273929784000,4.056153,Bike
Fix,FLP,37.4276944,-122.1723011,22.233545685420168,4.7999997,7.72,199.64697,1675978081684,,,13274377962634,2.224283,Bike
Fix,GPS,37.4276629286,-122.1723237772,6.544970822057716,5.1835246,5.872584,199.75755,1675978083000,0.35868135,10.0,13274929798000,4.245041,Bike
Fix,FLP,37.427675,-122.1723144,22.233545685420168,5.17552,7.608,199.06358,1675978082235,0.35868135,10.0,13274929798000,2.2342832,Bike
Fix,GPS,37.427616498,-122.1723478605,6.903126887190595,5.0845847,5.9572153,195.95409,1675978084000,0.40602288,10.0,13275929860000,4.4234195,Bike
Fix,FLP,37.4276223,-122.1723423,5.499855134096528,5.0879574,7.551,195.14581,1675978083235,0.40602288,10.0,13275929860000,2.2452931,Bike
Fix,GPS,37.4275601708,-122.1723632982,6.930261051020708,4.8606477,5.3130174,194.10414,1675978085000,0.07796161,10.0,13276929858000,4.177732,Bike
Fix,FLP,37.4275703,-122.1723612,-11.675664298943474,4.9164724,7.744,194.45952,1675978084236,,,13276929858000,2.2542732,Bike
Fix,FLP,37.427547,-122.1723691,-11.675664298943474,4.8674707,7.74,193.91411,1675978084822,,,13277515941150,2.2542732,Bike
Fix,GPS,37.4275095733,-122.1723723435,6.832913168522253,4.660005,4.923681,191.6187,1675978086000,0.08166169,10.0,13277929867000,4.0871363,Bike
Fix,FLP,37.4275358,-122.1723721,-11.675664298943474,4.869476,8.175,191.90115,1675978085365,,,13278058533008,2.2642732,Bike
Fix,GPS,37.4274616777,-122.1723805016,6.861675610235157,4.204275,5.1832767,184.0175,1675978087000,0.2844847,10.0,13278929855000,4.171918,Bike
Fix,FLP,37.4274897,-122.1723794,-6.358014392206073,4.6856656,8.129,190.82845,1675978085907,,,13278601122302,2.2743032,Bike
Fix,FLP,37.4274443,-122.1723847,-6.358014392206073,4.259121,8.289,184.23407,1675978086993,,,13279686304187,2.2743032,Bike
Fix,GPS,37.4274247694,-122.1723831108,6.785781211774926,3.8141592,5.111993,184.3138,1675978088000,0.028273437,10.0,13279929924000,4.067706,Bike
Fix,FLP,37.4274008,-122.1723843,-1.899999976158142,3.8540988,8.762,185.63321,1675978088078,,,13280771486560,2.2842932,Bike
Fix,GPS,37.4273929191,-122.1723858016,6.618202502698374,3.6465669,4.5282845,189.09563,1675978089000,0.044550423,10.0,13280929943000,3.9840472,Bike
Fix,FLP,37.427378,-122.1723883,3.334322738246684,3.6624143,8.95,188.36946,1675978088621,,,13281314078113,2.295443,Bike
Fix,GPS,37.4273593713,-122.1723914733,6.50122053099456,3.769865,4.987743,188.92986,1675978090000,0.33048785,10.0,13281930010000,4.088651,Bike
Fix,FLP,37.4273653,-122.1723919,3.666473219303121,3.6519158,8.822,189.0909,1675978089163,,,13281856669116,2.3043132,Bike
Fix,FLP,37.4273483,-122.1723942,3.666473219303121,3.750713,8.788,188.77539,1675978089723,,,13282416000000,2.3043132,Bike
Fix,GPS,37.4273234965,-122.1723987265,6.663937821922996,4.4530363,5.4320474,201.4665,1675978091000,0.30133778,10.0,13282929996000,4.2001615,Bike
Fix,FLP,37.4273285,-122.1723983,32.46652316161158,3.751901,8.484,192.7254,1675978090248,,,13282941840076,2.315283,Bike
Fix,GPS,37.4272829907,-122.1724207236,6.762000775114,4.362289,5.6432066,207.28409,1675978092000,0.3454759,10.0,13283929986000,4.2983627,Bike
Fix,FLP,37.4272941,-122.1724139,32.46652316161158,4.182709,8.678,206.31416,1675978091334,,,13284027033923,2.325303,Bike
Fix,GPS,37.4272432209,-122.1724468451,6.924148212049431,4.330258,5.7650604,201.82475,1675978093000,0.3622919,10.0,13284930110000,4.406399,Bike
Fix,FLP,37.4272538,-122.1724392,27.786025002004,4.409494,8.684,204.49947,1675978092418,,,13285112215503,2.334273,Bike
Fix,FLP,37.4272214,-122.1724546,27.786025002004,4.3744717,8.819,194.27682,1675978092961,,,13285654805591,2.334273,Bike
Fix,GPS,37.4272049968,-122.172466883,6.981181825357377,4.3659673,5.864889,194.23889,1675978094000,0.399757,10.0,13285930050000,4.511557,Bike
Fix,FLP,37.4271935,-122.1724649,24.21336798582256,4.363159,9.092,192.76775,1675978093504,,,13286197396228,2.344293,Bike
Fix,GPS,37.4271668743,-122.172477305,7.035871303164251,4.4148827,5.835124,191.46313,1675978095000,0.3440516,10.0,13286930043000,4.5931463,Bike
Fix,FLP,37.427179,-122.1724699,24.21336798582256,4.370817,9.275,192.9183,1675978094046,,,13286739986377,2.3543131,Bike
Fix,FLP,37.4271555,-122.1724776,24.21336798582256,4.4012384,9.398,193.7986,1675978094589,,,13287282564197,2.3543131,Bike
Fix,GPS,37.4271266125,-122.172490544,6.914816778984216,4.270879,5.81717,198.15399,1675978096000,0.3317471,10.0,13287930305000,4.6708627,Bike
Fix,FLP,37.42714,-122.1724838,24.21336798582256,4.391538,9.524,197.02457,1675978095132,,,13287825165515,2.364293,Bike
Fix,FLP,37.4271177,-122.1724939,24.21336798582256,4.2920265,9.566,197.90997,1675978095641,,,13288335080554,2.364293,Bike
Fix,GPS,37.4270878694,-122.1725084683,6.959352921336123,4.2264585,5.8014865,199.17418,1675978097000,0.29937926,10.0,13288930384000,4.7512,Bike
Fix,FLP,37.4270995,-122.172502,18.378606135754037,4.2892127,9.555,197.16176,1675978096216,,,13288910344470,2.375283,Bike
Fix,FLP,37.4270797,-122.172511,18.378606135754037,4.24391,9.63,197.64482,1675978096720,,,13289414000000,2.375283,Bike
Fix,FLP,37.4270584,-122.1725203,18.378606135754037,4.2369127,9.77,197.49008,1675978097246,,,13289940000000,2.375283,Bike
Fix,GPS,37.4270484341,-122.1725233918,6.969940504419889,4.049212,5.6415935,196.42618,1675978098000,0.26180068,10.0,13289930050000,4.8030987,Bike
Fix,GPS,37.4270115636,-122.1725379086,6.710573105163021,4.3517947,5.693084,197.27779,1675978099000,0.28037298,10.0,13290930043000,4.8788433,Bike
Fix,FLP,37.4270178,-122.1725365,7.05849188231192,4.0687814,9.952,199.56677,1675978098387,,,13291080699145,2.395313,Bike
Fix,GPS,37.4269770924,-122.1725576796,7.087860105371363,4.2752495,5.74424,208.95657,1675978100000,0.2619578,10.0,13291930063000,4.949455,Bike
Fix,FLP,37.4269889,-122.1725496,4.943124322640486,4.2901683,9.985,198.6264,1675978098930,,,13291623287280,2.404313,Bike
Fix,FLP,37.4269747,-122.1725569,4.943124322640486,4.2363167,9.986,205.35614,1675978099472,,,13292165879627,2.404313,Bike
Fix,GPS,37.4269449053,-122.1725883812,7.053936172076024,4.2395267,5.659711,207.69289,1675978101000,0.31043914,10.0,13292930090000,5.0341315,Bike
Fix,FLP,37.4269545,-122.1725706,16.56875876841825,4.2304783,10.014,212.39322,1675978100015,,,13292708463122,2.414303,Bike
Fix,FLP,37.4269403,-122.1725842,16.56875876841825,4.284022,9.948,207.76768,1675978100558,,,13293251050464,2.414303,Bike
Fix,GPS,37.4269099482,-122.1726114037,7.066923390539191,4.213645,5.689331,192.32593,1675978102000,0.31717885,10.0,13293930144000,5.1327634,Bike
Fix,FLP,37.4269176,-122.1725985,20.26229191609745,4.2973504,9.974,197.29315,1675978101100,,,13293793637927,2.4252932,Bike
Fix,GPS,37.4268709945,-122.1726149785,7.407797931151915,4.192965,5.791338,178.40305,1675978103000,0.3534299,10.0,13294930097000,5.2477193,Bike
Fix,FLP,37.4268769,-122.1726142,20.26229191609745,4.231126,9.814,187.3701,1675978102184,,,13294878811938,2.4252932,Bike
Fix,FLP,37.4268533,-122.1726168,19.623037696414315,4.1768,9.887,178.67068,1675978102728,,,13295421398425,2.435373,Bike
Fix,FLP,37.4268355,-122.1726137,19.623037696414315,4.1556187,9.926,172.03603,1675978103269,,,13295963985278,2.435373,Bike
Fix,GPS,37.4268357527,-122.1726063956,6.91038584607668,4.046876,5.962122,160.84142,1675978104000,0.30824977,10.0,13295930264000,5.353843,Bike
Fix,FLP,37.4268073,-122.1726,19.623037696414315,3.988291,9.953,156.7134,1675978103813,,,13296506571704,2.444283,Bike
Fix,GPS,37.4268033251,-122.1725837851,6.5300131310829945,4.468674,6.049677,140.35057,1675978105000,0.3378942,10.0,13296930164000,5.4386334,Bike
Fix,FLP,37.4268043,-122.172593,18.795928660234097,4.018234,10.015,148.73602,1675978104355,,,13297049158130,2.454293,Bike
Fix,FLP,37.4267836,-122.1725693,18.795928660234097,4.3469825,10.019,133.37329,1675978104898,,,13297591744556,2.454293,Bike
Fix,GPS,37.4267718552,-122.1725428322,6.931618057930189,4.576522,6.1070404,130.37828,1675978106000,0.33498532,10.0,13297930123000,5.4791913,Bike
Fix,FLP,37.4267663,-122.1725372,22.911001155321536,4.529858,10.091,129.09814,1675978105440,,,13298134327746,2.464273,Bike
Fix,GPS,37.4267458151,-122.1724972337,6.911707368128457,4.720292,6.3104086,128.8075,1675978107000,0.37296876,10.0,13298930369000,5.5817966,Bike
Fix,FLP,37.4267571,-122.1725204,22.911001155321536,4.586056,10.173,125.357765,1675978105983,,,13298676916370,2.474293,Bike
Fix,FLP,37.4267419,-122.1724944,22.911001155321536,4.6777806,10.277,128.17696,1675978106526,,,13299219502307,2.474293,Bike
Fix,GPS,37.4267215381,-122.172444399,7.523579725815224,4.672886,6.326316,126.6359,1675978108000,0.36472377,10.0,13299930276000,5.65612,Bike
Fix,FLP,37.4267288,-122.1724745,5.987846444227898,4.7103786,10.322,130.63509,1675978107068,,,13299762088245,2.484343,Bike
Fix,FLP,37.4267188,-122.1724518,5.987846444227898,4.7164187,10.37,128.19106,1675978107600,,,13300293000000,2.484343,Bike
Fix,GPS,37.4266999863,-122.1723897417,7.55517650215384,4.4534755,6.1594877,116.20893,1675978109000,0.2641653,10.0,13300930515000,5.7004566,Bike
Fix,FLP,37.4267062,-122.1724232,-1.899999976158142,4.6821404,10.361,126.66374,1675978108154,,,13300847259875,2.4953232,Bike
Fix,GPS,37.4266875346,-122.1723412383,7.625261075658416,4.435832,6.0000105,101.63671,1675978110000,0.2234546,10.0,13301930245000,5.7194047,Bike
Fix,FLP,37.4266848,-122.1723684,-1.899999976158142,4.56604,10.405,111.95461,1675978109239,,,13301932430835,2.5042932,Bike
Fix,GPS,37.4266831157,-122.1722896745,7.998508553887665,4.316143,5.4335003,99.05245,1675978111000,0.026711062,10.0,13302930278000,5.370748,Bike
Fix,FLP,37.4266802,-122.1723081,-1.899999976158142,4.4562874,10.405,97.02053,1675978110324,,,13303017602771,2.5142732,Bike
Fix,FLP,37.4266809,-122.1722627,-1.899999976158142,4.332648,10.267,94.535675,1675978110867,,,13303560188159,2.5142732,Bike
Fix,GPS,37.4266834218,-122.1722383672,8.281668488861113,4.062927,5.792082,109.79378,1675978112000,0.3034873,10.0,13303930204000,5.383688,Bike
Fix,FLP,37.4266798,-122.1722353,6.796001780869503,4.054739,10.127,103.308044,1675978111408,,,13304102761890,2.5242732,Bike
Fix,GPS,37.4266693705,-122.1721875546,8.5014245295206,3.4723082,6.06057,131.26633,1675978113000,0.36657616,10.0,13304930454000,5.441546,Bike
Fix,FLP,37.4266749,-122.1722104,12.61771062514086,4.020113,10.022,109.64273,1675978111951,,,13304645359058,2.5343032,Bike
Fix,FLP,37.4266681,-122.1721941,12.61771062514086,3.6125176,10.04,126.591095,1675978112494,,,13305187944263,2.5343032,Bike
Fix,GPS,37.4266476648,-122.172161917,8.537744158778004,3.30181,6.3403945,168.73842,1675978114000,0.37234902,10.0,13305930267000,5.4844217,Bike
Fix,FLP,37.42665,-122.1721701,12.61771062514086,3.5179086,9.933,152.32515,1675978113036,,,13305730529468,2.5343032,Bike
Fix,FLP,37.426635,-122.1721606,19.928982178810426,3.3316846,10.03,168.89494,1675978113579,,,13306273114673,2.5442932,Bike
Fix,GPS,37.4266165019,-122.1721596259,7.7627579407404115,2.8291647,6.279608,185.90002,1675978115000,0.32593256,10.0,13306930315000,5.502073,Bike
Fix,FLP,37.4266247,-122.1721601,17.846853644149235,3.248156,10.04,183.3261,1675978114122,,,13306815700061,2.555293,Bike
Fix,FLP,37.4266066,-122.1721621,17.846853644149235,2.87866,10.103,189.66373,1675978114642,,,13307335080554,2.555293,Bike
Fix,GPS,37.4265800286,-122.1721750797,6.706052754918183,2.8210974,6.2025604,202.36217,1675978116000,0.3137384,10.0,13307930385000,5.540189,Bike
Fix,FLP,37.426593,-122.1721666,9.9383260103505,2.8245082,10.235,197.1345,1675978115206,,,13307900871020,2.564273,Bike
Fix,FLP,37.4265697,-122.1721794,9.9383260103505,2.8202846,10.306,202.1024,1675978115749,,,13308443456714,2.564273,Bike
Fix,GPS,37.4265457255,-122.1721957535,6.544995463735874,3.1315937,6.220316,191.02965,1675978117000,0.2976239,10.0,13308930315000,5.6004343,Bike
Fix,FLP,37.4265597,-122.172186,9.9383260103505,2.8279495,10.394,202.63626,1675978116293,,,13308986042163,2.5742931,Bike
Fix,FLP,37.4265376,-122.1721974,9.9383260103505,3.1045594,10.452,191.35826,1675978116834,,,13309528627856,2.5742931,Bike
Fix,GPS,37.4265113314,-122.1722072429,6.311804917016792,3.1589375,6.2949734,188.22284,1675978118000,0.33577138,10.0,13309930359000,5.639465,Bike
Fix,FLP,37.426522,-122.1722016,5.161564738836852,3.1352174,10.454,187.48465,1675978117378,,,13310071212146,2.585333,Bike
Fix,GPS,37.4264743815,-122.172219491,6.649014881680251,3.0969439,6.3646383,185.80435,1675978119000,0.3470956,10.0,13310930336000,5.684103,Bike
Fix,FLP,37.426491,-122.1722087,-10.013185423656708,3.1576374,10.571,185.5861,1675978117920,,,13310613798816,2.594293,Bike
Fix,FLP,37.4264798,-122.1722117,-10.013185423656708,3.1163285,10.586,184.35416,1675978118463,,,13311156386829,2.594293,Bike
Fix,GPS,37.4264373403,-122.1722177936,7.762893600661225,3.4095051,5.8902106,173.66104,1675978120000,0.05922503,10.0,13311930443000,5.399891,Bike
Fix,FLP,37.4264552,-122.1722153,-4.190923060596049,3.1014607,10.632,181.83202,1675978119005,,,13311698969348,2.604283,Bike
Fix,FLP,37.4264368,-122.1722147,-4.190923060596049,3.3468466,10.622,174.8968,1675978119547,,,13312241559803,2.604283,Bike
Fix,GPS,37.4263926433,-122.1722218838,7.206581516733871,3.4324481,5.369064,174.59,1675978121000,0.033503007,10.0,13312930396000,5.2545257,Bike
Fix,FLP,37.4264126,-122.17221,2.6624783304237525,3.3759105,10.526,166.2375,1675978120091,,,13312784139514,2.615313,Bike
Fix,FLP,37.4263873,-122.1722105,2.6624783304237525,3.430145,10.403,173.12807,1675978120633,,,13313326724536,2.615313,Bike
Fix,GPS,37.4263583159,-122.1722228049,7.164960855483054,3.4512782,5.6437798,193.37057,1675978122000,0.31964314,10.0,13313930394000,5.2883525,Bike
Fix,FLP,37.4263778,-122.1722136,4.236771152599502,3.4172695,10.333,179.89337,1675978121176,,,13313869309192,2.624283,Bike
Fix,FLP,37.4263539,-122.172219,4.236771152599502,3.402614,10.231,191.9556,1675978121718,,,13314411890796,2.624283,Bike
Fix,GPS,37.4263281115,-122.1722375564,6.636568273245002,3.6351132,5.3365273,199.6708,1675978123000,0.04776009,10.0,13314930470000,5.1928506,Bike
Fix,FLP,37.4263358,-122.1722274,7.064561114014012,3.4140356,10.128,200.22403,1675978122261,,,13314954478381,2.634303,Bike
Fix,FLP,37.4263153,-122.1722404,7.064561114014012,3.5966277,10.024,201.69147,1675978122803,,,13315497060657,2.634303,Bike
Fix,GPS,37.4262945936,-122.1722575983,6.716278791916819,4.042,5.150652,204.24376,1675978124000,0.05285539,10.0,13315930692000,5.1417303,Bike
Fix,FLP,37.4263012,-122.1722492,12.170328429146204,3.6344042,9.882,201.93732,1675978123346,,,13316039647083,2.644293,Bike
Fix,FLP,37.4262722,-122.1722689,31.528593030650622,3.9260762,9.605,205.11467,1675978123888,,,13316582231067,2.654303,Bike
Fix,GPS,37.4262563614,-122.1722798526,6.8314429550748486,4.0626817,4.9844446,202.91304,1675978125000,0.057128694,10.0,13316930470000,5.0795035,Bike
Fix,FLP,37.4262673,-122.1722737,31.528593030650622,3.980447,9.581,206.36415,1675978124430,,,13317124815112,2.654303,Bike
Fix,FLP,37.4262318,-122.1722936,31.528593030650622,4.073139,9.293,199.66614,1675978124974,,,13317667398852,2.654303,Bike
Fix,GPS,37.4262187689,-122.1723012521,6.8198577740558335,3.8257458,5.3981714,200.16777,1675978126000,0.29014486,10.0,13317930468000,5.1567464,Bike
Fix,FLP,37.426193,-122.1723092,7.325036414415202,3.8550322,9.153,198.89124,1675978126059,,,13318752565356,2.674303,Bike
Fix,GPS,37.426186785,-122.1723154894,7.053290430619603,3.5921474,5.0778885,199.74622,1675978127000,0.050888702,10.0,13318930493000,5.0638943,Bike
Fix,FLP,37.4261753,-122.1723173,7.325036414415202,3.6361523,9.112,199.01736,1675978126602,,,13319295149035,2.674303,Bike
Fix,GPS,37.4261637774,-122.172326309,7.176845052391555,3.1097395,4.8662105,199.37718,1675978128000,0.028764157,10.0,13319930564000,4.990921,Bike
Fix,FLP,37.4261614,-122.1723238,4.995711314365394,3.6033642,9.055,199.64726,1675978127144,,,13319837730823,2.684293,Bike
Fix,GPS,37.4261394502,-122.1723354715,7.159633154702667,2.5638444,5.3377323,194.08214,1675978129000,0.2684866,10.0,13320930511000,5.0665364,Bike
Fix,FLP,37.426133,-122.1723394,4.995711314365394,3.1664953,8.986,198.2928,1675978128229,,,13320922883960,2.695323,Bike
Fix,FLP,37.42612,-122.1723441,4.995711314365394,2.62167,8.826,194.62805,1675978128772,,,13321465477466,2.695323,Bike
Fix,GPS,37.4261192107,-122.1723428013,6.956488790361798,2.1290069,5.6683483,192.1621,1675978130000,0.27725646,10.0,13321930497000,5.169847,Bike
Fix,FLP,37.4261151,-122.1723451,5.1474063926388425,2.5843062,8.751,192.5232,1675978129314,,,13322008059253,2.704283,Bike
Fix,FLP,37.426102,-122.17235,5.1474063926388425,2.175475,8.817,186.67845,1675978129857,,,13322550640674,2.704283,Bike
Fix,GPS,37.4261040208,-122.1723452387,6.774825487608705,2.0662637,5.954299,172.19684,1675978131000,0.30561054,10.0,13322930525000,5.3079486,Bike
Fix,FLP,37.4260968,-122.1723502,11.703740096198146,2.128613,8.954,176.77054,1675978130399,,,13323093222278,2.714303,Bike
Fix,FLP,37.4260859,-122.1723461,11.703740096198146,2.0579393,9.082,160.24129,1675978130942,,,13323635797961,2.714303,Bike
Fix,GPS,37.4260894537,-122.1723415827,6.657723602690867,2.2005486,6.113883,133.8216,1675978132000,0.35670954,10.0,13323930559000,5.4533477,Bike
Fix,FLP,37.4260736,-122.1723281,17.98156111178993,2.1405578,9.305,119.00314,1675978132027,,,13324720964954,2.724283,Bike
Fix,GPS,37.4260795549,-122.1723179054,6.5346505236648085,3.1607478,6.2083926,111.646706,1675978133000,0.3211486,10.0,13324930971000,5.4749384,Bike
Fix,FLP,37.426072,-122.1723121,25.401382600838105,2.9376976,9.585,109.58786,1675978132569,,,13325263545581,2.735343,Bike
Fix,FLP,37.426068,-122.1722925,25.401382600838105,3.13197,9.689,105.65128,1675978133112,,,13325806125842,2.735343,Bike
Fix,GPS,37.4260640898,-122.1722824713,7.6210616765853745,3.3969746,6.1608424,109.44195,1675978134000,0.31994772,10.0,13325930569000,5.4875903,Bike
Fix,FLP,37.4260646,-122.1722743,24.917844558881093,3.334013,9.957,106.81373,1675978133645,,,13326339000000,2.7453332,Bike
Fix,GPS,37.4260547142,-122.1722280229,8.236531308395806,4.282355,5.534711,105.16815,1675978135000,0.057867356,10.0,13326930629000,5.210663,Bike
Fix,FLP,37.4260602,-122.172255,2.476454103806091,3.3994308,10.35,105.28919,1675978134198,,,13326891287830,2.7553332,Bike
Fix,FLP,37.4260486,-122.1722028,2.476454103806091,4.189428,10.366,104.17385,1675978135263,,,13327957000000,2.7553332,Bike
Fix,GPS,37.4260423956,-122.1721773735,8.621218702874774,4.2279797,5.020452,102.23408,1675978136000,0.057614423,10.0,13327930616000,5.0176244,Bike
Fix,FLP,37.4260411,-122.1721623,-1.899999976158142,4.2407455,10.179,102.60273,1675978135826,,,13328519025256,2.7653031,Bike
Fix,GPS,37.426028627,-122.17212138,8.536460641839906,4.2767982,4.598202,105.52092,1675978137000,0.032285273,10.0,13328930623000,4.866498,Bike
Fix,FLP,37.4260375,-122.1721398,-3.808556353355101,4.23621,10.152,102.83511,1675978136368,,,13329061594348,2.775293,Bike
Fix,FLP,37.4260265,-122.1720955,-3.808556353355101,4.248364,9.879,106.30905,1675978136911,,,13329604183704,2.775293,Bike
Fix,GPS,37.4260163322,-122.1720665248,8.491534009914051,4.27523,4.8891377,108.54765,1675978138000,0.30414084,10.0,13329930846000,4.884072,Bike
Fix,FLP,37.426012,-122.1720458,-1.899999976158142,4.280526,9.57,107.739784,1675978137996,,,13330689342089,2.784683,Bike
Fix,GPS,37.4260008913,-122.1720133812,8.524254064253096,4.414708,5.0610847,113.812965,1675978139000,0.29500762,10.0,13330930639000,4.890875,Bike
Fix,FLP,37.4259991,-122.1720062,2.1630529800935534,4.360346,9.07,112.01645,1675978138537,,,13331231920215,2.795283,Bike
Fix,GPS,37.4259854671,-122.1719649386,8.627484721087445,4.7185388,5.296481,109.78411,1675978140000,0.323029,10.0,13331930676000,4.9060597,Bike
Fix,FLP,37.4259922,-122.1719891,5.220726656306596,4.3963833,8.69,114.03245,1675978139080,,,13331774498401,2.8042932,Bike
Fix,FLP,37.4259834,-122.1719618,5.220726656306596,4.6788054,8.744,110.45464,1675978139623,,,13332317076221,2.8042932,Bike
Fix,FLP,37.4259761,-122.1719347,5.220726656306596,4.731814,8.741,108.49092,1675978140166,,,13332859654834,2.8042932,Bike
Fix,GPS,37.4259708453,-122.171896864,8.562672922264753,5.2301474,4.889019,104.02226,1675978141000,0.06083091,10.0,13332930703000,4.765014,Bike
Fix,FLP,37.4259664,-122.1718871,-1.899999976158142,5.178994,8.718,104.42467,1675978140709,,,13333402232715,2.8142831,Bike
Fix,GPS,37.4259553737,-122.1718342667,8.513834652616037,5.0662746,4.6476607,106.042694,1675978142000,0.099783026,10.0,13333930764000,4.673774,Bike
Fix,FLP,37.4259586,-122.1718508,-1.899999976158142,5.0682893,8.348,105.98473,1675978141237,0.099783026,10.0,13333930764000,2.825303,Bike
Fix,GPS,37.4259455478,-122.1717788878,8.450422848276581,4.974992,4.361934,103.4974,1675978143000,0.097043976,10.0,13334930757000,4.601098,Bike
Fix,FLP,37.4259457,-122.1717844,1.990181848592755,4.9770803,7.955,103.10054,1675978142237,0.097043976,10.0,13334930757000,2.8343132,Bike
Fix,GPS,37.4259346169,-122.1717239729,7.32231373305357,4.8766847,4.3573565,101.85312,1675978144000,0.02423374,10.0,13335930897000,4.0204115,Bike
Fix,FLP,37.4259348,-122.1717264,2.5492457049577624,5.21017,7.771,101.508286,1675978143236,,,13335930897000,2.845293,Bike
Fix,FLP,37.425929,-122.1717003,2.5492457049577624,2.2164853,7.706,215.2839,1675978143820,,,13336513010608,2.845293,Bike
Fix,GPS,37.425923603,-122.1716696902,7.219876182235662,4.857712,4.3571906,104.750114,1675978145000,0.03136615,10.0,13336930731000,3.6318395,Bike
Fix,FLP,37.4259256,-122.1717072,4.720138886585097,3.8917325,7.94,239.65218,1675978144362,,,13337055587207,2.8543031,Bike
Fix,FLP,37.4259143,-122.171681,4.720138886585097,3.9706779,7.759,112.142586,1675978144905,,,13337598161486,2.8543031,Bike
Fix,GPS,37.4259145752,-122.1716172412,9.205498228606862,4.759293,4.357025,107.531685,1675978146000,0.052238557,10.0,13337930777000,3.347909,Bike
Fix,FLP,37.4259113,-122.171627,5.584303428021691,4.720489,7.371,106.98949,1675978145447,,,13338140740772,2.0042288,Bike
Fix,GPS,37.4259035839,-122.1715647305,8.812697561265448,4.974554,4.630615,105.583885,1675978147000,0.32992738,10.0,13338930772000,3.3119962,Bike
Fix,FLP,37.4259054,-122.1715889,6.424281188612859,4.7533135,7.539,107.04008,1675978145989,,,13338683317493,2.0286112,Bike
Fix,FLP,37.4259023,-122.1715703,6.424281188612859,4.9245763,7.564,105.95375,1675978146493,,,13339187000000,2.0286112,Bike
Fix,FLP,37.4258947,-122.1715245,6.424281188612859,4.990103,7.928,100.966324,1675978147075,,,13339768470569,2.0286112,Bike
Fix,GPS,37.4258938524,-122.1715087916,8.977467076309665,5.4728894,4.9806323,104.1966,1675978148000,0.311056,10.0,13339930806000,3.2809107,Bike
Fix,FLP,37.4258941,-122.1715158,14.55478432551277,5.44152,7.66,103.735146,1675978147237,0.311056,10.0,13339930806000,1.9735056,Bike
Fix,GPS,37.4258861691,-122.1714468132,9.00858214086672,5.3092318,5.285049,102.72332,1675978149000,0.31728116,10.0,13340931126000,3.5039415,Bike
Fix,FLP,37.4258849,-122.1714501,24.78606749866845,5.311196,7.467,102.06796,1675978148238,0.31728116,10.0,13340931126000,1.9594973,Bike
Fix,GPS,37.4258746343,-122.1713873131,8.70808267605024,5.3141565,5.110077,104.89804,1675978150000,0.029685613,10.0,13341930819000,3.2110558,Bike
Fix,FLP,37.4258747,-122.1713886,10.841479760099794,5.3127246,6.781,103.933685,1675978149237,0.029685613,10.0,13341930819000,2.1729336,Bike
Fix,GPS,37.4258658877,-122.1713312808,9.175870548833206,5.0594926,4.980713,104.60532,1675978151000,0.022000996,10.0,13342930989000,3.0093083,Bike
Fix,FLP,37.4258651,-122.1713309,9.12531718259877,5.060408,6.369,104.01605,1675978150236,0.022000996,10.0,13342930989000,2.527055,Bike
Fix,GPS,37.4258573373,-122.1712797464,8.76090773047341,5.0106072,5.1099663,103.07178,1675978152000,0.022236401,10.0,13343931166000,3.0,Bike
Fix,FLP,37.4258562,-122.1712782,5.676337858761173,5.0113273,5.894,103.03303,1675978151238,0.022236401,10.0,13343931166000,2.3422658,Bike
Fix,GPS,37.4258447371,-122.1712279451,8.564514512682905,4.8565426,5.109911,105.96817,1675978153000,0.023608398,10.0,13344931119000,3.0,Bike
Fix,FLP,37.4258441,-122.1712248,3.740791780353284,4.9646616,6.172,104.715034,1675978152238,,,13344931119000,2.2012975,Bike
Fix,FLP,37.4258373,-122.171194,3.740791780353284,4.7596655,6.595,90.78086,1675978152817,,,13345510732897,2.2012975,Bike
Fix,GPS,37.4258328955,-122.171176625,8.629382834127599,4.7617626,5.109854,106.61014,1675978154000,0.035993878,10.0,13345930885000,3.0,Bike
Fix,FLP,37.4258378,-122.1711894,-1.44729871360137,4.775709,7.14,85.685555,1675978153360,,,13346053304736,2.2050843,Bike
Fix,GPS,37.4258216176,-122.171124868,7.482816001165543,4.639912,5.424807,102.89647,1675978155000,0.023815267,10.0,13346930874000,3.0,Bike
Fix,FLP,37.4258309,-122.1711419,-9.28732556708185,4.669764,7.848,99.993744,1675978153902,,,13346595879505,2.2998962,Bike
Fix,GPS,37.425815971,-122.1710757838,7.059425790961621,4.559789,5.109739,97.93468,1675978156000,0.057257224,10.0,13347930875000,3.0,Bike
Fix,FLP,37.4258209,-122.1710878,-7.432011061929572,4.6543794,8.056,98.223305,1675978154988,,,13347681028797,2.302457,Bike
Fix,GPS,37.4258090636,-122.1710221349,7.316918819942781,4.5400224,4.7763586,99.00947,1675978157000,0.0365426,10.0,13348930925000,3.0,Bike
Fix,FLP,37.4258129,-122.1710361,-3.428698060491925,4.574832,8.573,96.82094,1675978156072,,,13348766177356,2.3678834,Bike
Fix,FLP,37.4258085,-122.1710039,-3.428698060491925,4.5260367,8.92,99.825264,1675978156615,,,13349308751453,2.3678834,Bike
Fix,GPS,37.4257950347,-122.1709736784,7.0705863771878175,4.247453,4.7973843,106.82164,1675978158000,0.023029469,10.0,13349930951000,3.0,Bike
Fix,FLP,37.4258049,-122.1709872,-1.694367474677037,4.5258417,8.818,102.23677,1675978157158,,,13349851325733,2.338167,Bike
Fix,GPS,37.425778496,-122.1709314914,6.985164972996143,3.991978,4.3807235,115.4068,1675978159000,0.027884034,10.0,13350930892000,3.0,Bike
Fix,FLP,37.4257906,-122.1709325,0.1565501700696643,4.271448,8.52,107.81638,1675978158242,,,13350936476306,2.3023093,Bike
Fix,FLP,37.4257747,-122.1709043,0.1565501700696643,4.0227156,8.427,115.585396,1675978158786,,,13351479047412,2.3023093,Bike
Fix,GPS,37.4257640901,-122.1708912784,7.433486686520822,3.590009,4.3807,129.35905,1675978160000,0.29418096,10.0,13351930975000,3.0,Bike
Fix,FLP,37.4257648,-122.1708893,0.6887071525009887,4.0018396,8.403,120.66838,1675978159328,,,13352021609668,2.1908216,Bike
Fix,GPS,37.4257421642,-122.1708635299,8.632849297602524,4.0289707,4.641879,153.91985,1675978161000,0.3257876,10.0,13352930988000,3.0,Bike
Fix,FLP,37.4257398,-122.1708554,3.3034844668026366,3.7197366,8.091,137.04182,1675978160413,,,13353106768848,2.3682806,Bike
Fix,GPS,37.4257057125,-122.1708442636,8.776750854571032,4.3001213,5.2329526,177.72417,1675978162000,0.35306287,10.0,13353931002000,3.0,Bike
Fix,FLP,37.4257172,-122.1708414,12.62833877065804,3.997141,7.909,157.37164,1675978160956,,,13353649342578,2.5931885,Bike
Fix,FLP,37.4257024,-122.1708394,12.62833877065804,4.2455344,8.023,171.26363,1675978161497,,,13354191916309,2.5931885,Bike
Fix,GPS,37.4256616308,-122.1708409943,8.430119665476163,4.7783895,5.576362,191.38959,1675978163000,0.34415242,10.0,13354931021000,3.0,Bike
Fix,FLP,37.4256788,-122.1708422,19.96595966262956,4.1978817,8.17,186.334,1675978162041,,,13354734489795,2.321474,Bike
Fix,FLP,37.4256359,-122.1708538,19.96595966262956,4.62115,8.348,197.85423,1675978163126,,,13355819636463,2.321474,Bike
Fix,GPS,37.4256100361,-122.1708500435,7.888241566480116,5.099056,5.8822484,195.57841,1675978164000,0.37322235,10.0,13355931066000,3.1621041,Bike
Fix,FLP,37.4255883,-122.1708669,27.43061790583606,5.09124,8.598,192.5499,1675978164147,,,13356840000000,2.272301,Bike
Fix,GPS,37.4255563812,-122.1708652462,7.988093397333251,4.956321,6.1274414,190.03491,1675978165000,0.34370598,10.0,13356931077000,3.3348253,Bike
Fix,FLP,37.4255698,-122.1708663,22.845128008728004,4.962471,8.425,190.15392,1675978164237,0.34370598,10.0,13356931077000,2.498421,Bike
Fix,GPS,37.4255065559,-122.1708786167,8.502711974353758,4.996709,6.4482965,190.27632,1675978166000,0.45642558,10.0,13357931336000,3.5122707,Bike
Fix,FLP,37.4255206,-122.1708777,22.845128008728004,5.0832925,8.807,190.04659,1675978165237,,,13357931336000,2.3316698,Bike
Fix,FLP,37.4255001,-122.1708852,22.845128008728004,2.9076483,9.149,321.09424,1675978165770,,,13358464679248,2.3316698,Bike
Fix,GPS,37.4254531196,-122.1708921689,7.623972964663509,5.2552967,6.5177407,189.91145,1675978167000,0.45169887,10.0,13358931048000,3.6504774,Bike
Fix,FLP,37.4254725,-122.1708905,21.99946374618681,5.1074286,8.982,189.91727,1675978166238,0.45169887,10.0,13358931048000,2.3012974,Bike
Fix,GPS,37.4253920654,-122.1709106246,8.01913730211732,5.6575537,6.3463497,193.50652,1675978168000,0.35324633,10.0,13359931017000,3.7343247,Bike
Fix,FLP,37.4254062,-122.1709067,21.99946374618681,5.650508,8.712,192.85448,1675978167238,0.35324633,10.0,13359931017000,2.3519862,Bike
Fix,GPS,37.4253338099,-122.1709267934,8.390652351240732,5.604428,6.3831005,195.64943,1675978169000,0.38297203,10.0,13360931242000,3.8176677,Bike
Fix,FLP,37.425343,-122.1709245,22.79344328386217,5.6035023,8.246,194.9251,1675978168238,0.38297203,10.0,13360931242000,2.3641677,Bike
Fix,GPS,37.4252808155,-122.1709445989,7.323891916445887,5.5691905,6.3459134,197.78175,1675978170000,0.38352725,10.0,13361931084000,3.8724535,Bike
Fix,FLP,37.4252862,-122.1709432,22.83499372404449,5.568088,7.869,196.92867,1675978169238,0.38352725,10.0,13361931084000,2.2000992,Bike
Fix,GPS,37.4252296202,-122.1709636861,7.321008015797686,5.6877074,6.361144,195.9826,1675978171000,0.38263208,10.0,13362931278000,3.9024072,Bike
Fix,FLP,37.4252331,-122.1709628,21.288644252388277,5.6878424,7.654,195.06532,1675978170238,0.38263208,10.0,13362931278000,2.2952676,Bike
Fix,GPS,37.425177868,-122.1709810387,8.31787451667942,5.537971,6.337537,195.07059,1675978172000,0.35242108,10.0,13363931146000,3.937509,Bike
Fix,FLP,37.4251802,-122.1709804,22.83499372404449,5.539641,6.354,195.01526,1675978171237,0.35242108,10.0,13363931146000,2.348213,Bike
Fix,GPS,37.4251282837,-122.1709973685,7.709192529023221,5.876136,6.249836,191.5841,1675978173000,0.34614205,10.0,13364931279000,3.9614992,Bike
Fix,FLP,37.4251298,-122.1709971,25.103856444097083,5.8758855,6.335,191.14125,1675978172238,0.34614205,10.0,13364931279000,2.3572495,Bike
Fix,GPS,37.4250816773,-122.1710085203,7.776570033127936,5.840074,6.3419037,187.61201,1675978174000,0.343112,10.0,13365931393000,3.9717185,Bike
Fix,FLP,37.4250802,-122.171009,16.781929945714523,5.8422103,6.327,187.1847,1675978173237,0.343112,10.0,13365931393000,2.2021978,Bike
Fix,GPS,37.4250349145,-122.1710171997,7.390290379310863,5.3196816,6.359833,189.82407,1675978175000,0.35021138,10.0,13366931187000,3.9794128,Bike
Fix,FLP,37.4250321,-122.1710172,13.278705482478903,5.322653,6.33,188.95355,1675978174237,0.35021138,10.0,13366931187000,2.3880806,Bike
Fix,GPS,37.4249904509,-122.1710445657,6.654403638860709,5.1383376,5.8354006,196.7989,1675978176000,0.047640383,10.0,13367931210000,3.4886518,Bike
Fix,FLP,37.4249885,-122.1710383,5.679877664569361,5.134176,6.247,195.79825,1675978175237,0.047640383,10.0,13367931210000,3.083565,Bike
Fix,GPS,37.4249495286,-122.171061823,7.342624728860586,4.4118557,6.0983562,194.60283,1675978177000,0.3342737,10.0,13368931536000,3.5068398,Bike
Fix,FLP,37.4249468,-122.171056,5.011891993018423,5.0302405,6.95,194.4519,1675978176238,,,13368931536000,2.5456932,Bike
Fix,GPS,37.4249180085,-122.1710692171,7.839961896765706,4.0630236,5.693792,186.02165,1675978178000,0.07266144,10.0,13369931528000,3.3271172,Bike
Fix,FLP,37.4249189,-122.1710561,6.95936171467612,3.7948716,8.599,107.68246,1675978177373,,,13370066702258,2.698204,Bike
Fix,FLP,37.4249011,-122.1710458,6.95936171467612,3.9476342,8.777,165.71173,1675978177916,,,13370609275684,2.698204,Bike
Fix,GPS,37.4248848381,-122.1710687334,7.966165765121786,3.707853,5.9544716,180.41016,1675978179000,0.31017825,10.0,13370931511000,3.3755276,Bike
Fix,FLP,37.4248812,-122.1710581,9.446565215952909,3.7553093,9.358,176.82338,1675978178458,,,13371151852039,2.8831086,Bike
