Fix,Provider,LatitudeDegrees,LongitudeDegrees,AltitudeMeters,SpeedMps,AccuracyMeters,BearingDegrees,UnixTimeMillis,SpeedAccuracyMps,BearingAccuracyDegrees,elapsedRealtimeNanos,VerticalAccuracyMeters,TransitType
Fix,FLP,37.4274162,-122.17299,-2.799999713897705,0.33647648,18.956,194.36583,1677004010473,,,438802922614034,1.8650253,Bike
Fix,FLP,37.4273231,-122.1730154,-2.799999713897705,1.0634155,21.306,192.64735,1677004010577,,,438803026000000,1.9039232,Bike
Fix,NLP,37.4271763,-122.1729769,0.1000000461935997,,27.658,,1677004015551,,,438808000000000,2.1874056,Bike
Fix,FLP,37.4272752,-122.1730039,-2.799999713897705,1.4433568,23.423,185.83156,1677004015551,,,438808000000000,1.8801045,Bike
Fix,NLP,37.4273319,-122.1729708,0.1000000461935997,,18.089,,1677004020570,,,438813019000000,2.0638335,Bike
Fix,FLP,37.427249,-122.172983,-3.6029700466692343,1.1355687,24.468,179.491,1677004020570,,,438813019000000,1.8975639,Bike
Fix,FLP,37.4273038,-122.1729697,-4.181536533459713,0.6343197,16.783,172.96574,1677004022686,,,438815135665061,1.9102725,Bike
Fix,FLP,37.4273177,-122.1729654,-4.3324381688315725,0.5259603,16.141,169.37086,1677004023229,,,438815678279379,1.9219469,Bike
Fix,GPS,37.4262554489,-122.174199216,15.881978803270044,0.0,399.0,,1677004020969,6.790355,,438816143791404,73.49209,Bike
Fix,FLP,37.4273257,-122.1729631,-6.047412218330855,0.46817914,15.799,166.69963,1677004023771,,,438816220881735,1.925022,Bike
Fix,FLP,37.427333,-122.1729626,-6.047412218330855,0.268224,15.586,161.9625,1677004024314,,,438816763483481,1.925022,Bike
Fix,GPS,37.4268422258,-122.1736680857,29.49837190936414,0.0,399.0,,1677004021969,3.29344,,438817142935976,85.51313,Bike
Fix,NLP,37.4271807,-122.1729438,0.1000000461935997,,20.301,,1677004025621,,,438818070000000,1.8876518,Bike
Fix,FLP,37.4273387,-122.1729642,0.1000000461935997,0.15446594,14.933,172.75978,1677004025399,,,438817848685141,1.8406875,Bike
Fix,GPS,37.4270481982,-122.1734580536,24.77575910770619,0.0,399.0,,1677004022969,3.0841246,,438818161075056,68.364914,Bike
Fix,GPS,37.4271690627,-122.1733210633,23.698072370390747,0.0,109.66432,,1677004024016,2.9723833,,438819185635440,51.184975,Bike
Fix,FLP,37.4273329,-122.172964,0.1000000461935997,0.14402975,14.706,177.15132,1677004026484,,,438818933885458,1.8484392,Bike
Fix,FLP,37.4273271,-122.1729635,0.1000000461935997,0.1468561,14.173,178.09727,1677004027017,,,438819466867575,1.8484392,Bike
Fix,GPS,37.4272250169,-122.1732397177,23.397785751918853,0.0,63.530365,,1677004025016,2.001399,,438820194813582,59.776516,Bike
Fix,FLP,37.4273235,-122.1729632,0.1000000461935997,0.14583609,14.101,178.57086,1677004027570,,,438820019084616,1.8843833,Bike
Fix,GPS,37.4272622826,-122.1731700776,22.35672472384528,0.0,45.84354,,1677004026016,2.1408422,,438821181026514,42.44685,Bike
Fix,FLP,37.4273173,-122.1729627,-16.50413778341769,0.13854958,13.908,178.87173,1677004028655,,,438821104283407,1.9114337,Bike
Fix,GPS,37.427269999,-122.1731209872,16.91086573014259,0.0,41.23652,,1677004027016,20.0,,438822169564030,29.379248,Bike
Fix,FLP,37.4273138,-122.1729626,-16.50413778341769,0.13272619,13.722,178.86617,1677004029740,,,438822189467001,1.9201483,Bike
Fix,NLP,37.4271978,-122.1729977,0.1000000461935997,,20.315,,1677004030632,,,438823081000000,2.4527574,Bike
Fix,FLP,37.4273149,-122.1729591,-11.964035323806236,0.11817317,13.412,178.27646,1677004030283,,,438822732075033,1.8793783,Bike
Fix,GPS,37.4273255317,-122.1730768974,9.773121400482893,2.482775,31.984116,29.841589,1677004028016,0.9762003,19.33673,438823160359197,22.066267,Bike
Fix,FLP,37.427313,-122.1729571,2.966613191734609,0.16153999,12.931,188.41078,1677004030825,,,438823274672140,2.0945137,Bike
Fix,GPS,37.4273836084,-122.1730117123,4.951983478536878,2.1802843,21.770714,31.641565,1677004029000,0.932961,21.01454,438824154973374,18.280802,Bike
Fix,FLP,37.4273132,-122.172956,2.7684837922552816,0.20722945,12.68,195.97925,1677004031368,,,438823817268820,2.2990804,Bike
Fix,GPS,37.4273935062,-122.1729815936,5.634713893383039,1.1795139,18.159424,34.79078,1677004030000,0.7396447,30.530167,438825127249000,15.869539,Bike
Fix,FLP,37.4273157,-122.1729563,0.1000000461935997,0.2573788,12.227,201.09935,1677004032453,,,438824902461874,2.2841644,Bike
Fix,GPS,37.427406785,-122.172971059,4.163315892823631,0.8678862,15.64133,32.12028,1677004031000,0.69593334,37.083332,438826127278000,15.411141,Bike
Fix,FLP,37.4273187,-122.1729592,0.1000000461935997,0.29307285,11.614,204.99017,1677004033538,,,438825987652853,2.2173889,Bike
Fix,GPS,37.4274147387,-122.1729628833,4.281387665105985,0.72943467,23.98836,32.12028,1677004032000,1.2442102,19.0062,438827127332000,15.34063,Bike
Fix,FLP,37.4273222,-122.1729636,-2.802324228612825,0.31985083,11.136,208.03297,1677004034623,,,438827072843344,2.1990817,Bike
Fix,NLP,37.4272272,-122.1730012,0.1000000461935997,,22.44,,1677004035670,,,438828119000000,1.898094,Bike
Fix,GPS,37.4274208582,-122.1729594192,5.037156017690543,0.67371583,21.504679,32.12028,1677004033000,1.1483853,20.099422,438828127378000,15.355933,Bike
Fix,FLP,37.4273241,-122.1729662,-2.6503720198414413,0.34089282,10.535,210.1195,1677004035709,,,438828158035666,2.2091017,Bike
Fix,FLP,37.4273275,-122.1729689,0.1000000461935997,0.3560465,9.931,212.01508,1677004036251,,,438828700631185,2.238898,Bike
Fix,GPS,37.4274224805,-122.1729622539,6.894187471081523,0.8354148,18.825768,333.73706,1677004034000,1.0682945,38.2251,438829127356000,15.021643,Bike
Fix,FLP,37.4273294,-122.1729691,-2.332360504355826,0.35296586,9.911,212.35674,1677004036794,,,438829243211935,2.248878,Bike
Fix,GPS,37.4274351653,-122.1729726073,5.892343460691436,0.88357395,18.763597,351.91116,1677004035000,1.0864884,34.614956,438830127380000,14.603675,Bike
Fix,FLP,37.4273305,-122.172971,2.4205074009156817,0.3461357,9.899,213.0257,1677004037336,,,438829785801718,2.0121176,Bike
Fix,FLP,37.4273326,-122.1729729,2.4205074009156817,0.30047265,9.783,224.47223,1677004038422,,,438830871001669,2.0121176,Bike
Fix,GPS,37.4274502148,-122.1729775112,4.5857353745910725,0.0,37.4949,351.91116,1677004036000,1.7861505,68.56272,438831127369000,14.138327,Bike
Fix,FLP,37.4273361,-122.1729727,0.1000000461935997,0.19606566,9.563,225.14125,1677004038964,,,438831413595419,2.3052843,Bike
Fix,GPS,37.4274522588,-122.1729807403,4.278098932363493,0.0,42.393394,351.91116,1677004037000,1.8101287,42.821003,438832127345000,14.061093,Bike
Fix,FLP,37.4273372,-122.1729729,7.229199563036559,0.1795363,9.449,225.67189,1677004039507,,,438831956188254,2.278888,Bike
Fix,NLP,37.4272028,-122.1729898,0.1000000461935997,,23.754,,1677004040732,,,438833181000000,2.5216599,Bike
Fix,FLP,37.4273395,-122.1729742,0.1000000461935997,0.12715247,9.167,259.1561,1677004040592,,,438833041373861,2.3394911,Bike
Fix,GPS,37.4274583819,-122.17297506,3.6626496286815833,0.0,37.96843,351.91116,1677004038000,2.0294707,180.0,438833127572000,13.902645,Bike
Fix,FLP,37.4273404,-122.1729752,0.1000000461935997,0.11826937,8.99,268.56732,1677004041134,,,438833583966635,2.3394911,Bike
Fix,GPS,37.4274655964,-122.1729664649,3.0588646611192183,0.0,21.423788,351.91116,1677004039000,1.4249381,180.0,438834127440000,13.92309,Bike
Fix,FLP,37.4273404,-122.1729759,0.1000000461935997,0.11515357,8.815,268.89175,1677004041677,,,438834126558615,2.3660488,Bike
Fix,FLP,37.4273406,-122.1729775,0.1000000461935997,0.10925648,8.445,269.68085,1677004042220,,,438834669151144,2.3660488,Bike
Fix,GPS,37.4274729159,-122.1729542035,3.631621126792368,0.4855169,15.252522,351.91116,1677004040000,0.6831235,84.24609,438835127454000,13.76905,Bike
Fix,FLP,37.427341,-122.1729787,0.1000000461935997,0.106717624,8.252,269.7963,1677004042762,,,438835211746359,2.245947,Bike
Fix,GPS,37.4274720982,-122.1729488935,3.412021561327792,0.0,42.483715,351.91116,1677004041000,1.7104874,35.37236,438836127454000,13.792554,Bike
Fix,FLP,37.4273415,-122.1729807,0.1000000461935997,0.12064778,8.07,267.1736,1677004043847,,,438836296930442,2.2569668,Bike
Fix,GPS,37.4274700997,-122.1729592856,1.836700879622029,0.0,24.926874,351.91116,1677004042000,1.4627175,77.13066,438837127491000,13.807539,Bike
Fix,FLP,37.4273415,-122.172982,0.1000000461935997,0.13476211,7.932,264.00308,1677004044390,,,438836839507773,2.2113688,Bike
Fix,FLP,37.4273409,-122.1729824,0.1000000461935997,0.0990454,7.894,,1677004044933,,,438837382111349,2.2113688,Bike
Fix,NLP,37.4272993,-122.17303,0.1000000461935997,,15.305,,1677004045754,,,438838203000000,2.3659499,Bike
Fix,GPS,37.4274007769,-122.1730300334,2.6314827771661182,0.55300206,11.886759,351.91116,1677004043000,0.6301968,78.33416,438838127507000,13.592885,Bike
Fix,FLP,37.4273405,-122.1729823,-3.1880761531107424,0.06696829,7.877,,1677004045475,,,438837924702353,2.2203388,Bike
Fix,GPS,37.4273755435,-122.1730409817,2.5225248654344954,0.6258276,10.622092,351.91116,1677004044000,0.6034991,64.3457,438839127640000,13.319077,Bike
Fix,FLP,37.4273388,-122.172984,-2.900017551988938,0.05517083,7.591,,1677004046560,,,438839009884726,2.2446022,Bike
Fix,GPS,37.4273581369,-122.17303426,4.259967065017221,0.6693307,9.932727,351.91116,1677004045000,0.64878976,62.835396,438840127631000,12.761681,Bike
Fix,FLP,37.4273345,-122.1729848,-32.53523318905559,0.31724304,7.5,201.42326,1677004047646,,,438840095063497,2.248313,Bike
Fix,GPS,37.4273567613,-122.1730207679,4.562256005844212,1.0726765,9.517132,97.44923,1677004046000,0.59116155,29.403957,438841127558000,12.354308,Bike
Fix,FLP,37.4273276,-122.1729837,-11.98582681290409,0.48257104,7.434,186.83913,1677004048731,,,438841180247336,2.2555795,Bike
Fix,GPS,37.4273561319,-122.1730049815,3.480111980107652,1.484974,9.31442,108.14953,1677004047000,0.5954099,20.682217,438842127539000,12.143398,Bike
Fix,FLP,37.4273191,-122.1729813,-10.74301367577396,0.7564158,7.353,184.18907,1677004049816,,,438842265426718,2.265571,Bike
Fix,NLP,37.427044,-122.1744275,,,800.0,,1677004049956,,,438842405000000,,Bike
Fix,FLP,37.4273088,-122.1729782,-10.74301367577396,1.1105025,7.254,180.24728,1677004050359,,,438842808008017,2.265571,Bike
Fix,GPS,37.4273519829,-122.1729842119,3.461197369616861,1.3884001,9.185553,104.32935,1677004048000,0.6568851,23.11639,438843127510000,12.01797,Bike
Fix,FLP,37.4273022,-122.1729771,-11.639370137581636,1.2540306,7.071,171.75359,1677004050900,,,438843350605978,2.275561,Bike
Fix,GPS,37.4273426059,-122.1729622156,5.772044003885959,1.8424336,9.198907,102.49952,1677004049000,0.70624006,18.028507,438844127541000,11.909669,Bike
Fix,FLP,37.427299,-122.1729761,5.540296236779959,1.2850611,7.056,165.5586,1677004051444,,,438843893197959,2.285581,Bike
Fix,FLP,37.4272926,-122.1729734,5.540296236779959,1.4245465,7.014,154.60875,1677004051986,,,438844435781943,2.285581,Bike
Fix,GPS,37.4273418146,-122.1729267264,8.00357280692831,3.2963705,9.274736,91.571724,1677004050000,0.7618344,10.0,438845127753000,11.948688,Bike
Fix,FLP,37.4272914,-122.1729717,28.019370633547798,1.5096382,6.967,146.51237,1677004052529,,,438844978373495,2.295581,Bike
Fix,FLP,37.4272863,-122.172959,28.019370633547798,1.9945337,7.56,122.48458,1677004053071,,,438845520954550,2.295581,Bike
Fix,GPS,37.4273424253,-122.172890698,8.97948469741363,3.2334495,9.1541395,87.02132,1677004051000,0.5185641,10.0,438846127854000,11.660455,Bike
Fix,FLP,37.4272859,-122.1729485,0.1000000461935997,2.363057,8.138,111.81646,1677004053613,,,438846063551718,2.305571,Bike
Fix,GPS,37.4273390135,-122.1728570564,9.360279011125352,1.9601617,9.067195,91.567276,1677004052000,0.4843087,13.500133,438847127660000,11.406564,Bike
Fix,FLP,37.4272807,-122.1729198,2.749582765198156,2.6856399,8.983,107.89758,1677004054699,,,438847148730490,2.315571,Bike
Fix,FLP,37.4272797,-122.1728997,2.749582765198156,2.392381,10.093,104.58053,1677004055241,,,438847691319845,2.315571,Bike
Fix,NLP,37.4272821,-122.1727443,0.1000000461935997,,26.613,,1677004055707,,,438848156000000,2.3158057,Bike
Fix,GPS,37.4273394758,-122.1728335436,9.750491085736098,1.4364539,9.07392,81.17008,1677004053000,0.54564106,20.616573,438848127655000,11.3773155,Bike
Fix,FLP,37.4272822,-122.17289,9.956845565730347,2.1746182,11.992,102.80116,1677004055784,,,438848233911643,2.158592,Bike
Fix,GPS,37.4273455286,-122.1728052881,8.384357342462723,1.3036369,8.909506,78.05957,1677004054000,0.54583997,23.650948,438849127635000,11.147667,Bike
Fix,FLP,37.4272828,-122.1728666,13.0261686716119,1.7909234,13.972,88.743904,1677004056851,,,438849300991171,2.2466278,Bike
Fix,GPS,37.4273452342,-122.1727886317,8.616899144488253,0.6206132,8.781363,78.05957,1677004055000,0.50804245,59.23515,438850127623000,10.981005,Bike
Fix,FLP,37.4272884,-122.1728452,11.221010670950172,1.5390617,15.419,79.163895,1677004057412,,,438849861662070,2.1773357,Bike
Fix,GPS,37.4273457586,-122.1727724352,7.922385075848977,0.5578024,8.675547,78.05957,1677004056000,0.5116034,103.03619,438851127648000,10.913997,Bike
Fix,FLP,37.4272903,-122.1728296,6.223870839950457,1.1439372,17.214,81.08029,1677004058497,,,438850946853964,2.1873047,Bike
Fix,FLP,37.4272903,-122.1728244,6.223870839950457,0.92920923,18.359,81.427666,1677004059017,,,438851466867575,2.1873047,Bike
Fix,FLP,37.4272903,-122.1728191,6.223870839950457,0.80092883,18.966,82.78997,1677004059583,,,438852032031210,2.1873047,Bike
Fix,GPS,37.4273437762,-122.1727625437,7.216835301898467,0.56923014,8.776569,78.05957,1677004057000,0.77407223,180.0,438852128038000,11.124743,Bike
Fix,GPS,37.4273419727,-122.1727540665,6.259378916177521,0.64727473,8.984175,78.05957,1677004058000,1.0258867,43.41719,438853127692000,11.346927,Bike
Fix,FLP,37.4272884,-122.1728072,2.4812812020920703,0.674399,20.894,93.336205,1677004060668,,,438853117202414,2.2073147,Bike
Fix,FLP,37.4272807,-122.1727932,2.4812812020920703,0.68119943,21.768,91.92434,1677004061210,,,438853659785422,2.2073147,Bike
Fix,GPS,37.4273166291,-122.1727449703,5.549399784526748,1.2989627,9.196616,78.05957,1677004059000,1.1681349,53.207058,438854127653000,11.643605,Bike
Fix,FLP,37.4272749,-122.1727871,-2.7209764161618537,0.6819475,22.102,93.391655,1677004061753,,,438854202384054,2.2172947,Bike
Fix,GPS,37.427289032,-122.1727378065,4.138938352044872,0.5023028,9.491413,78.05957,1677004060000,1.0131091,41.08401,438855127709000,11.764727,Bike
Fix,FLP,37.4272394,-122.1727481,8.844003817904266,0.95901656,21.369,111.49823,1677004062838,,,438855287559836,2.2273147,Bike
Fix,NLP,37.4270991,-122.172858,0.1000000461935997,,17.624,,1677004063670,,,438856119000000,1.4182882,Bike
Fix,FLP,37.4272067,-122.1727191,25.84669335238155,0.76944244,19.58,120.52949,1677004063381,,,438855830147482,2.1467466,Bike
Fix,GPS,37.4272519892,-122.1727422895,3.2388638100487044,0.94546854,9.522613,178.45409,1677004061000,0.87611943,28.92117,438856127726000,11.847076,Bike
Fix,FLP,37.4271922,-122.1727106,25.84669335238155,0.77033496,16.378,129.66191,1677004063923,,,438856372734823,2.144913,Bike
Fix,FLP,37.4271859,-122.172707,25.84669335238155,0.8452905,14.288,132.87428,1677004064466,,,438856915319540,2.144913,Bike
Fix,GPS,37.4272074239,-122.1727357234,2.697657871492705,1.3746208,9.442186,177.46625,1677004062000,0.63543326,15.3206005,438857127762000,11.830011,Bike
Fix,FLP,37.4271797,-122.1727037,23.41886879052643,1.0209473,10.082,130.29327,1677004065008,,,438857457909628,2.1557307,Bike
Fix,FLP,37.4271769,-122.1727009,23.41886879052643,1.1092911,9.537,124.506035,1677004065560,,,438858009000000,2.1557307,Bike
Fix,GPS,37.4271681272,-122.1727192316,-0.0797202685403974,1.8353388,8.948928,166.33734,1677004063000,0.57342696,11.975024,438858127819000,11.749075,Bike
Fix,FLP,37.4271739,-122.1726971,21.52021077650008,1.351458,7.334,118.98401,1677004066094,,,438858543084189,2.1638894,Bike
Fix,GPS,37.4271326322,-122.1727094937,-2.2809831491170223,2.7548265,8.905447,160.80658,1677004064000,0.504285,10.0,438859127781000,11.820571,Bike
Fix,FLP,37.4271723,-122.1726946,23.41886879052643,1.4803903,4.732,117.63175,1677004066636,,,438859085671408,2.1734676,Bike
Fix,FLP,37.4271624,-122.1726869,23.41886879052643,1.7896292,5.327,136.05775,1677004067179,,,438859628255392,2.1734676,Bike
Fix,GPS,37.4271001621,-122.1726929764,-3.6208529545668857,3.093943,8.72913,162.26538,1677004065000,0.40924087,10.0,438860128174000,11.798744,Bike
Fix,FLP,37.4271542,-122.1726851,23.80582552239976,2.049416,5.612,145.04927,1677004067721,,,438860170845175,2.260265,Bike
Fix,FLP,37.4271306,-122.172679,23.80582552239976,2.5246685,6.568,155.82077,1677004068264,,,438860713434958,2.260265,Bike
Fix,NLP,37.4267896,-122.1727947,0.1000000461935997,,41.277,,1677004068655,,,438861104000000,1.374245,Bike
Fix,GPS,37.4270598753,-122.1726770895,-3.336157623896184,3.4847007,8.243982,160.51404,1677004066000,0.40023437,10.0,438861127783000,11.567621,Bike
Fix,FLP,37.4271238,-122.1726812,21.135399642259287,2.7565892,7.635,159.05072,1677004068807,,,438861256018759,2.1877098,Bike
Fix,GPS,37.4270177555,-122.1726601511,-2.56949851252446,3.7646441,7.8932714,160.36855,1677004067000,0.40942204,10.0,438862127855000,11.329966,Bike
Fix,FLP,37.4270957,-122.172669,21.135399642259287,2.9727426,9.015,158.82059,1677004069349,,,438861798605673,2.1987097,Bike
Fix,FLP,37.4270794,-122.1726647,21.135399642259287,3.228298,9.351,160.06718,1677004069892,,,438862341192587,2.1987097,Bike
Fix,GPS,37.4269797318,-122.1726497265,-2.353406251503875,3.8333035,7.5771685,171.68842,1677004068000,0.42073408,10.0,438863128000000,11.058092,Bike
Fix,FLP,37.4270521,-122.1726549,10.81412052415859,3.449834,11.204,161.85017,1677004070434,,,438862883779257,2.1797125,Bike
Fix,FLP,37.4270317,-122.172652,10.81412052415859,3.6345181,11.286,164.11041,1677004070957,,,438863406000000,2.1797125,Bike
Fix,GPS,37.4269434868,-122.1726447676,-2.8606993578722744,3.8375072,7.546487,170.5177,1677004069000,0.41771755,10.0,438864127999000,11.085322,Bike
Fix,FLP,37.427002,-122.1726462,21.066135498399056,3.7460263,12.722,166.76576,1677004071519,,,438863968952170,2.1907225,Bike
Fix,FLP,37.4269664,-122.172643,21.066135498399056,3.826972,12.676,169.04607,1677004072062,,,438864511538534,2.1907225,Bike
Fix,GPS,37.4269046878,-122.172634466,-3.251197503752704,3.9006042,7.461123,164.97726,1677004070000,0.4280142,10.0,438865127844000,11.1121025,Bike
Fix,FLP,37.4269563,-122.1726422,27.857747468084654,3.8299963,12.611,168.29645,1677004072605,,,438865054124655,2.1993036,Bike
Fix,FLP,37.4269358,-122.1726377,27.857747468084654,3.859134,12.66,167.27614,1677004073118,,,438865567000000,2.1993036,Bike
Fix,GPS,37.4268673582,-122.1726165662,-3.164346809940681,3.9562674,7.433932,155.42175,1677004071000,0.4889337,10.0,438866127873000,11.1710615,Bike
Fix,FLP,37.4269149,-122.1726313,26.49200630363052,3.8409693,12.564,164.52022,1677004073690,,,438866139296896,2.2097495,Bike
Fix,GPS,37.4268303395,-122.1725819144,-1.804815025043076,4.083089,7.240409,145.00832,1677004072000,0.5476271,10.0,438867127860000,10.799848,Bike
Fix,FLP,37.4268806,-122.172615,26.85344414858685,3.8277235,12.231,156.18416,1677004074775,,,438867224468710,2.2197495,Bike
Fix,FLP,37.4268513,-122.1725933,26.85344414858685,3.8843102,12.072,148.66336,1677004075317,,,438867767054343,2.2197495,Bike
Fix,GPS,37.4268039422,-122.1725490193,-1.655282344384945,4.0703063,7.2214527,137.01186,1677004073000,0.58388025,10.0,438868127891000,10.706538,Bike
Fix,FLP,37.4268458,-122.1725884,25.233255353619555,3.9296277,12.095,147.39204,1677004075859,,,438868309640036,2.2307594,Bike
Fix,FLP,37.4268193,-122.1725636,25.233255353619555,3.996288,11.95,145.65569,1677004076403,,,438868852225302,2.2307594,Bike
Fix,GPS,37.4267755761,-122.1725081796,-1.1912980586318107,4.140218,7.260385,136.15663,1677004074000,0.48105204,10.0,438869127898000,10.583047,Bike
Fix,FLP,37.4267988,-122.1725403,25.233255353619555,4.0882,11.914,143.4411,1677004076945,,,438869394810690,2.2407393,Bike
Fix,GPS,37.4267429101,-122.1724634179,0.2250938387856266,4.2579737,7.1185637,130.7554,1677004075000,0.42211497,10.0,438870128198000,10.083215,Bike
Fix,FLP,37.4267811,-122.1725185,20.989689065149623,4.118379,11.956,141.8083,1677004077488,,,438869937396200,2.2507594,Bike
Fix,FLP,37.4267681,-122.1724988,20.989689065149623,4.2307587,11.951,138.7359,1677004078000,,,438870450000000,2.2507594,Bike
Fix,GPS,37.4267153323,-122.1724168388,0.5220641864754864,4.3371563,6.7942753,124.14669,1677004076000,0.5997547,10.0,438871127934000,9.432882,Bike
Fix,FLP,37.4267481,-122.1724702,20.989689065149623,4.3196225,11.966,124.459274,1677004078572,,,438871022566366,2.2321343,Bike
Fix,GPS,37.4266946574,-122.1723649917,-0.2520892594923498,4.410684,6.6921654,120.37214,1677004077000,0.5546622,10.0,438872128279000,8.931221,Bike
Fix,FLP,37.426724,-122.1724198,-4.358014450223827,4.3730884,11.92,116.90292,1677004079657,,,438872107736044,2.2421143,Bike
Fix,FLP,37.4267021,-122.1723793,-4.358014450223827,4.4532638,11.814,116.88748,1677004080201,,,438872650321005,2.2421143,Bike
Fix,GPS,37.42669547,-122.1723060647,2.6282415453649817,4.477959,6.192542,101.760864,1677004078000,0.102369644,10.0,438873128327000,8.109813,Bike
Fix,FLP,37.4266911,-122.1723582,13.2716455953409,4.4531574,11.582,114.99844,1677004080743,,,438873192905722,2.2521343,Bike
Fix,FLP,37.4266845,-122.1723219,13.2716455953409,4.523611,11.327,106.08493,1677004081292,,,438873741000000,2.2521343,Bike
Fix,FLP,37.4266819,-122.1722984,13.2716455953409,4.4908056,11.089,103.57158,1677004081836,,,438874285000000,2.2521343,Bike
Fix,GPS,37.4266761284,-122.1722659324,2.7464639005404465,4.4465823,6.0346804,107.46328,1677004079000,0.52126145,10.0,438874127988000,7.9270263,Bike
Fix,FLP,37.4266724,-122.1722646,5.58163959511424,4.3980513,10.682,110.99962,1677004082371,,,438874820659384,2.2611344,Bike
Fix,GPS,37.4266669622,-122.1722222328,2.583712480100918,4.3979497,6.217657,108.58811,1677004080000,0.6611237,11.394754,438875127990000,7.8866816,Bike
Fix,FLP,37.4266624,-122.1722345,6.837467478028287,4.4152417,10.28,112.06692,1677004082914,,,438875363243064,2.2711244,Bike
Fix,GPS,37.4266577183,-122.172187416,2.3685097746589827,4.2890244,6.5018463,109.97347,1677004081000,0.75682,14.865417,438876128001000,7.90231,Bike
Fix,FLP,37.426652,-122.1722173,16.03035738619876,4.337535,10.049,124.657646,1677004083456,,,438875905827536,2.2811244,Bike
Fix,FLP,37.4266462,-122.1722064,16.03035738619876,4.3381343,9.936,118.4394,1677004083999,,,438876448411520,2.2811244,Bike
Fix,GPS,37.4266477239,-122.1721577797,2.1215361105703674,4.1674294,6.646802,109.97347,1677004082000,0.9126844,22.552063,438877128006000,7.9773974,Bike
Fix,FLP,37.4266398,-122.1721886,15.896528064791625,4.329755,10.008,105.888626,1677004084541,,,438876990995566,2.2912643,Bike
Fix,GPS,37.4266300804,-122.172135408,1.735898414648583,3.6219342,6.9503336,109.97347,1677004083000,1.002164,10.0,438878128023000,8.092828,Bike
Fix,FLP,37.4266322,-122.1721609,16.03035738619876,4.1133027,10.179,114.615395,1677004085626,,,438878076163473,2.3011143,Bike
Fix,GPS,37.4265806896,-122.1721208837,1.2911806087133364,4.135995,7.27841,109.97347,1677004084000,0.8596313,16.79984,438879128036000,8.249938,Bike
Fix,FLP,37.4266179,-122.1721346,22.599314629954197,3.6890619,10.737,108.60161,1677004086711,,,438879161333762,2.3111243,Bike
Fix,FLP,37.4265974,-122.1721142,22.599314629954197,4.0952663,11.368,104.567154,1677004087758,,,438880207000000,2.368213,Bike
Fix,GPS,37.4265410031,-122.1721089556,0.2385083201869016,4.1461697,7.341338,157.9115,1677004085000,0.5845683,10.0,438880128034000,8.441321,Bike
Fix,FLP,37.4265621,-122.1721021,20.511529745732133,4.1213818,11.99,138.39383,1677004088339,,,438880789083212,2.378293,Bike
Fix,GPS,37.4265021177,-122.1721001634,-0.0279378246074158,4.1564546,7.481808,162.31776,1677004086000,0.4908359,10.0,438881128053000,8.619147,Bike
Fix,FLP,37.4265288,-122.1721031,20.003643352826984,4.231797,12.259,153.33423,1677004088882,,,438881331668357,2.388213,Bike
Fix,FLP,37.4265105,-122.1721079,20.003643352826984,4.1849933,12.384,158.73672,1677004089425,,,438881874251547,2.388213,Bike
Fix,GPS,37.4264624454,-122.1720911597,-0.3136421447700208,4.1827497,7.7101784,164.70274,1677004087000,0.6122458,10.0,438882128062000,8.848701,Bike
Fix,FLP,37.4264856,-122.1721049,16.077531445149816,4.2203593,12.753,164.13261,1677004089967,,,438882416835898,2.3982031,Bike
Fix,FLP,37.4264634,-122.1721131,16.077531445149816,4.1959257,12.822,171.93304,1677004090510,,,438882959418539,2.3982031,Bike
Fix,GPS,37.4264192182,-122.1720896686,-0.235934821161632,4.2301106,7.9278135,165.72365,1677004088000,0.7543936,10.992181,438883128081000,9.148048,Bike
Fix,FLP,37.4264285,-122.1721341,14.786492951932445,4.199214,13.148,171.39915,1677004091016,,,438883466867575,2.4176044,Bike
Fix,GPS,37.4263754945,-122.1721011497,0.320341700170289,4.2864604,8.123644,175.1931,1677004089000,0.62450075,10.0,438884128113000,9.388979,Bike
Fix,FLP,37.4264197,-122.1721442,0.1000000461935997,4.222872,13.365,174.04082,1677004091595,,,438884044590292,2.4276047,Bike
Fix,FLP,37.4263936,-122.1721549,0.1000000461935997,4.2797723,13.592,177.38753,1677004092138,,,438884587176169,2.4276047,Bike
Fix,FLP,37.4263712,-122.1721648,0.1000000461935997,4.2840786,13.896,180.58136,1677004092680,,,438885129763144,2.4276047,Bike
Fix,GPS,37.4263306283,-122.1721208634,0.0607009789457476,4.364601,8.328416,186.18211,1677004090000,0.6370827,10.0,438885128146000,9.729209,Bike
Fix,GPS,37.4262886802,-122.1721468892,0.0661113866124592,4.42513,8.41008,189.74478,1677004091000,0.4826561,10.0,438886128128000,10.108472,Bike
Fix,FLP,37.4263314,-122.1721836,-7.578472928841613,4.3327847,14.17,188.24547,1677004093765,,,438886214935934,2.4476845,Bike
Fix,FLP,37.4262997,-122.1721998,-7.578472928841613,4.42501,14.64,188.07047,1677004094308,,,438886757528891,2.4476845,Bike
Fix,GPS,37.4262517233,-122.1721612392,-0.6889288456142472,4.406638,8.419663,184.33426,1677004092000,0.498174,10.0,438887128178000,10.305379,Bike
Fix,FLP,37.4262897,-122.1722037,-4.484871662152493,4.4325247,14.921,186.26903,1677004094851,,,438887300114340,2.4586246,Bike
Fix,GPS,37.426215953,-122.1721753976,-1.370314821809588,4.373923,8.483944,188.26123,1677004093000,0.4653063,10.0,438888128425000,10.439067,Bike
Fix,FLP,37.4262494,-122.1722094,0.1000000461935997,4.412313,15.643,184.59236,1677004095393,,,438887842702597,2.4676147,Bike
Fix,FLP,37.4262285,-122.1722134,0.1000000461935997,4.3773026,15.773,186.51752,1677004095936,,,438888385290976,2.4676147,Bike
Fix,FLP,37.4262115,-122.1722155,0.1000000461935997,4.363631,15.966,180.86815,1677004096478,,,438888927879660,2.4676147,Bike
Fix,GPS,37.426177167,-122.1721856146,-1.0398429032910033,4.3570933,8.5794325,181.78218,1677004094000,0.61850137,10.0,438889128193000,10.6875305,Bike
Fix,FLP,37.426162,-122.1722087,6.565492187063356,4.31215,16.385,169.10316,1677004097564,,,438890013060996,2.4786646,Bike
Fix,GPS,37.4261486001,-122.1721939533,-1.6844604431958623,4.2628994,8.705959,181.78218,1677004095000,0.92358625,20.945633,438890128286000,10.988295,Bike
Fix,FLP,37.4261164,-122.1721973,10.118250525345536,4.2451982,16.548,162.77054,1677004098649,,,438891098221945,2.4876146,Bike
Fix,GPS,37.4261209426,-122.1721943828,-1.7306946558292198,4.141825,9.005388,169.8141,1677004096000,0.9155917,16.180174,438891128242000,11.34237,Bike
Fix,FLP,37.4260831,-122.1721883,18.348350726941128,4.1393776,16.501,159.06233,1677004099191,,,438891640804953,2.4976046,Bike
Fix,GPS,37.4260913655,-122.1721830383,-1.2685014201081792,4.065741,9.303287,156.3646,1677004097000,0.9362985,13.817438,438892128257000,11.570181,Bike
Fix,FLP,37.4260805,-122.1721875,18.348350726941128,4.1171713,16.437,153.19879,1677004099734,,,438892183410116,2.5076346,Bike
Fix,FLP,37.4260537,-122.1721738,18.348350726941128,4.069063,16.422,152.8051,1677004100276,,,438892725998556,2.5076346,Bike
Fix,GPS,37.426055074,-122.1721577485,0.9155500013866896,4.0905986,9.219886,152.79012,1677004098000,0.93934226,13.966217,438893128234000,11.325637,Bike
Fix,FLP,37.4260485,-122.1721723,19.7363739802029,4.0557995,16.418,151.25159,1677004100819,,,438893268586691,2.5186446,Bike
Fix,FLP,37.4260275,-122.1721571,19.7363739802029,4.077212,16.06,150.29501,1677004101359,,,438893809000000,2.5186446,Bike
Fix,GPS,37.4260313268,-122.1721114548,0.1096951510097249,4.14333,9.066279,135.54858,1677004099000,0.83401567,10.025034,438894128414000,10.863434,Bike
Fix,FLP,37.4260109,-122.1721305,25.51480675195674,4.1116467,15.57,139.75403,1677004101904,,,438894353765402,2.554594,Bike
Fix,GPS,37.4260085719,-122.1720572386,-0.3042000617460995,4.2450104,8.682098,123.790115,1677004100000,0.77095497,10.0,438895128263000,10.042792,Bike
Fix,FLP,37.4259989,-122.1721124,19.875966454175035,4.131642,15.461,137.30626,1677004102447,,,438894896350119,2.564614,Bike
Fix,FLP,37.4259923,-122.1720897,19.875966454175035,4.270309,14.95,126.63994,1677004102996,,,438895445000000,2.564614,Bike
Fix,NLP,37.4259357,-122.1719647,1.0,,34.966,,1677004103662,,,438896111000000,2.7121017,Bike
Fix,FLP,37.4259827,-122.1720624,15.245358154117303,4.2656755,14.735,120.951294,1677004103531,,,438895981525107,2.1965826,Bike
Fix,GPS,37.4259925528,-122.1719970574,-0.5762075167814942,4.363059,8.246868,111.986755,1677004101000,0.59839594,10.0,438896128289000,9.3136215,Bike
Fix,FLP,37.4259747,-122.1720178,15.245358154117303,4.3866634,14.003,110.771904,1677004104075,,,438896524112265,2.1965826,Bike
Fix,GPS,37.4259811966,-122.1719403027,-0.0305330605259994,4.4451604,8.001036,106.42582,1677004102000,0.49152967,10.0,438897128733000,8.891086,Bike
Fix,FLP,37.4259755,-122.1720089,-7.275253093265931,4.3796225,13.619,109.13795,1677004104617,,,438897066699179,2.2322474,Bike
Fix,GPS,37.4259822066,-122.1718772038,0.11142842649972,4.5501165,7.596012,100.55002,1677004103000,0.07133794,10.0,438898128418000,8.05843,Bike
Fix,FLP,37.4259653,-122.1719543,-6.099756118755536,4.4332237,13.1,109.35011,1677004105702,,,438898151872763,2.2551088,Bike
Fix,FLP,37.4259618,-122.1718985,-6.099756118755536,4.5641503,12.877,104.35522,1677004106245,,,438898694459189,2.2551088,Bike
Fix,GPS,37.4259752295,-122.1718185628,0.0674690643082429,4.6150556,7.5392694,104.462746,1677004104000,0.39627156,10.0,438899128331000,7.920425,Bike
Fix,FLP,37.4259615,-122.1718753,-4.943529393049232,4.5476665,12.744,105.099525,1677004106788,,,438899237032187,2.4445522,Bike
Fix,FLP,37.4259571,-122.1718202,-4.943529393049232,4.590244,12.229,106.325264,1677004107330,,,438899779622030,2.4445522,Bike
Fix,GPS,37.4259635297,-122.1717657498,0.0103901405175255,4.641521,7.571726,108.57554,1677004105000,0.46732363,10.0,438900128360000,7.8274007,Bike
Fix,FLP,37.4259479,-122.1717651,-3.899158624205846,4.6287627,11.782,107.4291,1677004108415,,,438900864803915,2.4545522,Bike
Fix,GPS,37.4259449715,-122.1717142436,0.1794683894064049,4.6787157,7.6369343,111.39527,1677004106000,0.4388118,10.0,438901128346000,7.7331786,Bike
Fix,FLP,37.4259388,-122.1717222,3.5558307648540435,4.673682,11.32,107.47214,1677004108958,,,438901407389609,2.4645321,Bike
Fix,GPS,37.425929187,-122.1716582065,0.244906366110704,4.7342176,7.691083,105.52387,1677004107000,0.4626964,10.0,438902128376000,7.646616,Bike
Fix,FLP,37.4259365,-122.1717084,9.800585672433089,4.7001095,11.086,104.28776,1677004109499,,,438901949975119,2.4745522,Bike
Fix,FLP,37.4259247,-122.1716702,9.800585672433089,4.7410336,10.891,104.80929,1677004110017,,,438902466867575,2.4745522,Bike
Fix,GPS,37.4259163404,-122.1715964375,0.3987679778648565,4.814563,7.6110606,99.97977,1677004108000,0.442764,10.0,438903128390000,7.5432434,Bike
Fix,FLP,37.4259192,-122.1716531,23.4404665574624,4.751582,10.859,103.378,1677004110585,,,438903035142477,2.4845521,Bike
Fix,FLP,37.4259057,-122.1715999,23.4404665574624,4.8089304,10.566,102.90283,1677004111671,,,438904120315634,2.4845521,Bike
Fix,GPS,37.4259041575,-122.1715340655,0.5996793460661278,4.891757,7.555997,100.84182,1677004109000,0.43821082,10.0,438904128550000,7.4728446,Bike
Fix,FLP,37.4258927,-122.1715473,23.423533168111405,4.872787,10.651,104.796684,1677004112212,,,438904662900351,2.4945421,Bike
Fix,GPS,37.4258964156,-122.1714706994,0.8504788305450196,4.961052,7.470427,103.906235,1677004110000,0.48220026,10.0,438905128413000,7.3971515,Bike
Fix,FLP,37.4258896,-122.1715389,-2.5666569782459163,4.85731,10.675,108.70061,1677004112756,,,438905205484823,2.5045621,Bike
Fix,FLP,37.4258777,-122.1714903,-2.5666569782459163,4.974369,10.726,108.211716,1677004113299,,,438905748067465,2.5045621,Bike
Fix,GPS,37.4258829711,-122.1714116731,0.0395135762555181,5.003824,7.1371965,107.17528,1677004111000,0.056478377,10.0,438906128627000,7.0681405,Bike
Fix,FLP,37.4258753,-122.1714761,-2.5666569782459163,4.9892898,10.763,106.606674,1677004113841,,,438906290653708,2.515532,Bike
Fix,GPS,37.4258696644,-122.1713565183,1.651852183955546,5.1893673,6.4315696,106.24153,1677004112000,0.029167723,10.0,438907128462000,6.388323,Bike
Fix,FLP,37.4258673,-122.1713802,-2.5666569782459163,5.1886573,10.535,105.96762,1677004114678,0.029167723,10.0,438907128462000,2.525532,Bike
Fix,GPS,37.4258585354,-122.17129944,2.3485093726064354,5.0601277,6.004134,104.646706,1677004113000,0.026039083,10.0,438908128757000,6.0159926,Bike
Fix,FLP,37.4258571,-122.1713083,1.0,5.061865,10.088,104.07021,1677004115678,0.026039083,10.0,438908128757000,2.534542,Bike
Fix,GPS,37.425846467,-122.1712480435,2.855223887069595,4.954573,5.648113,107.003815,1677004114000,0.034533408,10.0,438909128801000,5.686313,Bike
Fix,FLP,37.4258463,-122.1712496,1.0,4.953116,9.389,106.923485,1677004116679,0.034533408,10.0,438909128801000,2.5749955,Bike
Fix,GPS,37.425835979,-122.1711966484,2.4957906118980038,4.7152214,5.3695354,106.46396,1677004115000,0.029096413,10.0,438910128811000,5.418134,Bike
Fix,FLP,37.425834,-122.1711962,1.0,5.0064993,8.785,105.77832,1677004117679,,,438910128811000,2.5850356,Bike
Fix,GPS,37.4258277781,-122.1711448267,2.7709267691961808,4.773222,5.136224,104.07517,1677004116000,0.02955161,10.0,438911128741000,5.1605577,Bike
Fix,FLP,37.4258152,-122.1711659,1.0,3.980282,8.084,175.22694,1677004118774,,,438911223646688,2.5940356,Bike
Fix,FLP,37.4257988,-122.1711324,1.0,4.7713685,8.082,118.427444,1677004119317,,,438911766229513,2.5940356,Bike
Fix,GPS,37.4258202411,-122.1710922628,3.1975252017459472,4.7624907,4.9474497,103.936,1677004117000,0.03885981,10.0,438912128960000,5.0033474,Bike
Fix,FLP,37.4257961,-122.1711065,1.0,4.8418446,8.381,109.9168,1677004119859,,,438912308813253,2.6040056,Bike
Fix,GPS,37.4258108437,-122.1710427284,3.116819987756868,4.73196,4.8042407,107.66159,1677004118000,0.040594712,10.0,438913128529000,4.8613067,Bike
Fix,FLP,37.4257907,-122.1710588,1.0,4.770326,8.294,106.13164,1677004120402,,,438912851400595,2.6150155,Bike
Fix,GPS,37.4258002437,-122.1709911223,3.146943068379937,4.590671,4.661424,108.031944,1677004119000,0.034846686,10.0,438914128506000,4.711355,Bike
Fix,FLP,37.4257844,-122.1710096,1.0,4.711105,8.523,107.036766,1677004121487,,,438913936562948,2.6239955,Bike
Fix,FLP,37.4257812,-122.1709791,1.0,4.5770836,8.822,106.744255,1677004122030,,,438914479146322,2.6239955,Bike
Fix,GPS,37.4257938447,-122.1709479544,3.2308550345012352,3.9119656,4.527882,106.72272,1677004120000,0.039621327,10.0,438915128746000,4.587122,Bike
Fix,FLP,37.4257793,-122.1709662,1.0,4.591628,8.686,106.60535,1677004122572,,,438915021729269,2.6340156,Bike
Fix,GPS,37.4257828377,-122.1709087164,3.529947466943731,3.4803548,4.401601,109.24828,1677004121000,0.028724944,10.0,438916129044000,4.4653025,Bike
Fix,FLP,37.4257725,-122.1709123,1.0,3.9914272,7.761,105.8943,1677004123657,,,438916106894980,2.6440356,Bike
Fix,FLP,37.4257702,-122.1708838,1.0,3.5148425,7.598,108.20939,1677004124200,,,438916649478292,2.6440356,Bike
Fix,GPS,37.4257692607,-122.1708696303,3.5899361428294,3.1322985,4.7267017,114.85943,1677004122000,0.23886117,10.0,438917128574000,4.4693384,Bike
Fix,FLP,37.4257687,-122.1708759,2.6842752937082963,3.4984553,7.546,109.36106,1677004124742,,,438917192060812,2.7200315,Bike
Fix,FLP,37.4257616,-122.1708507,2.6842752937082963,3.1838672,7.281,108.98045,1677004125285,,,438917734643820,2.7200315,Bike
Fix,GPS,37.4257559211,-122.1708323944,3.602489633968647,2.9601984,5.0284514,104.1237,1677004123000,0.25930744,10.0,438918128664000,4.51693,Bike
Fix,FLP,37.4257602,-122.1708454,3.0292579169942258,3.165206,7.23,108.1181,1677004125828,,,438918277225973,2.7300615,Bike
Fix,FLP,37.4257549,-122.1708221,3.0292579169942258,2.9898949,7.315,102.30047,1677004126369,,,438918819810446,2.7300615,Bike
Fix,GPS,37.4257479452,-122.1707904398,3.666840963714749,4.102982,5.191219,91.86738,1677004124000,0.3182193,10.0,438919129172000,4.5602393,Bike
Fix,FLP,37.4257517,-122.1707886,6.897712507642801,3.9643638,7.469,92.317764,1677004126913,,,438919362391073,2.7410514,Bike
Fix,GPS,37.425746962,-122.170743328,4.460495422109626,4.38557,5.1051626,95.20902,1677004125000,0.28527236,10.0,438920128667000,4.580423,Bike
Fix,FLP,37.4257517,-122.1707714,30.90262125483587,4.0714073,7.533,89.47,1677004127455,,,438919904973837,2.7500415,Bike
Fix,FLP,37.4257461,-122.1707423,30.90262125483587,4.311832,7.557,96.0584,1677004127998,,,438920447556357,2.7500415,Bike
Fix,GPS,37.4257438996,-122.1706939456,4.958955645119466,4.447681,5.1773605,98.33805,1677004126000,0.33491662,10.0,438921128610000,4.620139,Bike
Fix,FLP,37.4257398,-122.1707162,29.00169275895245,4.341445,7.594,101.89637,1677004128541,,,438920990138632,2.7600315,Bike
Fix,FLP,37.4257346,-122.1706906,29.00169275895245,4.436663,7.754,101.14748,1677004129051,,,438921500200522,2.7600315,Bike
Fix,NLP,37.4257665,-122.1705485,-1.3000000715255735,,18.751,,1677004129320,,,438921769000000,1.4583155,Bike
Fix,GPS,37.4257362416,-122.1706390525,4.734803629266013,5.063259,5.3269796,101.10553,1677004127000,0.30554563,10.0,438922128652000,4.672579,Bike
Fix,FLP,37.4257303,-122.1706573,25.1519401043266,4.4835196,7.999,100.85382,1677004129626,,,438922075300376,2.437743,Bike
Fix,FLP,37.4257172,-122.1705988,25.1519401043266,5.044407,8.227,101.50065,1677004130715,,,438923165000000,2.437743,Bike
Fix,GPS,37.4257248027,-122.1705808258,4.901315064630103,5.199692,4.822779,102.190216,1677004128000,0.03889006,10.0,438923128860000,4.4497347,Bike
Fix,GPS,37.4257137926,-122.1705182609,4.738585811764533,5.140957,4.4787445,104.07717,1677004129000,0.02538985,10.0,438924128981000,4.297057,Bike
Fix,FLP,37.4257132,-122.1705224,-4.174328574268586,5.139699,7.772,103.933334,1677004131679,0.02538985,10.0,438924128981000,1.7842976,Bike
Fix,GPS,37.4257035063,-122.1704578411,4.595639222503787,5.0845385,4.2158675,104.59686,1677004130000,0.033664107,10.0,438925128682000,4.1656246,Bike
Fix,FLP,37.425703,-122.1704604,-1.3000000715255735,5.0846944,7.242,104.00116,1677004132679,0.033664107,10.0,438925128682000,2.2591429,Bike
Fix,GPS,37.4256921111,-122.1704021739,4.554269830758384,5.037728,3.9112177,103.95911,1677004131000,0.034028273,10.0,438926128921000,4.0433183,Bike
Fix,FLP,37.4256921,-122.1704029,-1.3000000715255735,5.038494,6.704,103.03523,1677004133679,0.034028273,10.0,438926128921000,2.2691429,Bike
Fix,GPS,37.4256823724,-122.1703433073,4.370451629814988,5.024742,3.7716546,101.57804,1677004132000,0.025966363,10.0,438927129129000,3.9370208,Bike
Fix,FLP,37.4256822,-122.1703446,-1.3000000715255735,5.025836,5.44,101.065865,1677004134680,0.025966363,10.0,438927129129000,2.280143,Bike
Fix,GPS,37.4256744694,-122.1702859281,4.020223864894178,5.0052047,3.7716641,94.94444,1677004133000,0.028985135,10.0,438928129048000,3.8447576,Bike
Fix,FLP,37.4256743,-122.1702868,-1.3000000715255735,5.0066953,4.866,94.23896,1677004135680,0.028985135,10.0,438928129048000,2.290183,Bike
Fix,GPS,37.4256708528,-122.1702286793,4.137365284131361,4.7905293,4.326168,86.94464,1677004134000,0.37983784,10.0,438929128739000,3.977111,Bike
Fix,FLP,37.425671,-122.1702293,-1.3000000715255735,5.043653,4.591,89.274185,1677004136679,,,438929128739000,2.300153,Bike
Fix,GPS,37.4256857142,-122.1701713438,4.142078120176968,4.9888425,4.2052693,71.44373,1677004135000,0.08466583,10.0,438930128889000,3.8863285,Bike
Fix,FLP,37.4256695,-122.1701891,1.0,4.810551,6.024,86.39319,1677004137760,,,438930209508993,2.309153,Bike
Fix,FLP,37.4256766,-122.1701438,1.0,4.9046373,6.21,78.01911,1677004138303,,,438930752090292,2.309153,Bike
Fix,GPS,37.4256949177,-122.17011637,3.5671922520794466,4.677715,3.9305656,80.180984,1677004136000,0.0543232,10.0,438931128755000,3.7953548,Bike
Fix,FLP,37.4256801,-122.1701329,4.031425166600208,4.9511285,6.378,76.5676,1677004138845,,,438931294671530,2.319153,Bike
Fix,GPS,37.4257045195,-122.1700595157,3.3507719749021008,5.0039005,3.7952857,78.95997,1677004137000,0.08016113,10.0,438932128800000,3.717615,Bike
Fix,FLP,37.4256888,-122.1700852,7.378748805595151,4.7486677,6.881,77.81887,1677004139387,,,438931837252829,2.329143,Bike
Fix,FLP,37.4257004,-122.1700536,7.378748805595151,4.971901,7.159,76.8789,1677004139930,,,438932379823874,2.329143,Bike
Fix,FLP,37.4257084,-122.1700209,7.378748805595151,5.017161,7.452,77.94361,1677004140473,,,438932922414755,2.329143,Bike
Fix,GPS,37.4257053923,-122.170007981,3.3233155716187626,4.5113835,4.2782793,88.50549,1677004138000,0.062198967,10.0,438933128816000,3.6592298,Bike
Fix,FLP,37.4257104,-122.1699912,7.199494891448104,4.5910277,7.336,84.90057,1677004141015,,,438933464995749,2.339133,Bike
Fix,FLP,37.4257083,-122.1699637,7.199494891448104,4.481395,7.35,93.77338,1677004141558,,,438934007576498,2.339133,Bike
Fix,GPS,37.4256956663,-122.1699606492,3.517990879695956,4.408767,3.7717235,103.93016,1677004139000,0.03195464,10.0,438934128845000,3.5706325,Bike
Fix,FLP,37.4256969,-122.1699325,-3.615284326298095,4.3575635,7.313,105.55223,1677004142101,,,438934550157797,2.350173,Bike
Fix,GPS,37.4256837509,-122.1699132268,3.3199096824530945,4.202541,3.7717333,106.8839,1677004140000,0.05994259,10.0,438935128901000,3.4678109,Bike
Fix,FLP,37.4256893,-122.1699189,-14.13987596047319,4.3694987,7.052,110.786415,1677004142643,,,438935092728964,2.359143,Bike
Fix,FLP,37.4256769,-122.1698847,-14.13987596047319,4.249738,7.033,107.51621,1677004143186,,,438935635317709,2.359143,Bike
Fix,GPS,37.425673081,-122.1698678675,3.024229395936791,4.145474,3.7717428,107.79656,1677004141000,0.028224703,10.0,438936128836000,3.3907275,Bike
Fix,FLP,37.4256749,-122.1698743,-14.13987596047319,4.2378087,6.97,106.685905,1677004143728,,,438936177901816,2.369133,Bike
Fix,FLP,37.4256613,-122.1698189,-14.13987596047319,4.1742625,6.929,105.316605,1677004144794,,,438937243000000,2.369133,Bike
Fix,GPS,37.4256617495,-122.1698213729,3.01199344030212,4.152901,4.009393,106.10568,1677004142000,0.35968572,10.0,438937128890000,3.5308278,Bike
Fix,FLP,37.425655,-122.1697874,-5.330660507293359,4.1487255,6.984,105.06765,1677004145356,,,438937805646689,2.379133,Bike
Fix,GPS,37.4256522616,-122.169776535,3.099752545578342,4.1902347,3.7717626,106.14917,1677004143000,0.049506813,10.0,438938129065000,3.4399636,Bike
Fix,FLP,37.4256455,-122.1697401,1.0,4.1824336,7.02,105.86429,1677004146441,,,438938890809958,2.390203,Bike
Fix,GPS,37.4256414656,-122.1697290345,3.118371921228181,4.379338,4.366051,106.678856,1677004144000,0.3193444,4.4625506,438939128925000,3.565176,Bike
Fix,FLP,37.4256374,-122.1697075,1.0,4.339276,7.029,105.7111,1677004146984,,,438939433391379,1.754783,Bike
Fix,GPS,37.4256340265,-122.1696869254,3.362873734254037,4.2947326,4.131092,103.35738,1677004145000,0.09079028,10.0,438940128870000,3.4935422,Bike
Fix,FLP,37.425634,-122.1696947,-1.3000000715255735,4.374452,7.111,105.53649,1677004147526,,,438939975973044,1.764763,Bike
Fix,FLP,37.4256292,-122.1696696,-1.3000000715255735,4.3155665,7.126,103.48919,1677004148036,,,438940486067343,1.764763,Bike
Fix,FLP,37.4256244,-122.1696438,-1.3000000715255735,4.29953,7.187,103.94867,1677004148611,,,438941061136130,1.764763,Bike
Fix,GPS,37.4256252112,-122.1696385951,3.268847586903824,4.175359,4.5523233,110.19503,1677004146000,0.2950477,4.276753,438941128916000,3.6324785,Bike
Fix,FLP,37.4256183,-122.1696122,-1.3000000715255735,4.151395,7.181,109.438255,1677004149154,,,438941603714682,1.774803,Bike
Fix,GPS,37.4256121966,-122.1695975212,3.4472456656952275,4.1730237,4.7711124,106.30518,1677004147000,0.40245715,5.5794015,438942129201000,3.7647405,Bike
Fix,FLP,37.4256148,-122.1696007,-1.3000000715255735,4.177637,7.156,109.284615,1677004149697,,,438942146301657,1.785763,Bike
Fix,FLP,37.4256071,-122.1695715,-1.3000000715255735,4.194452,7.253,102.98117,1677004150238,,,438942688868063,1.785763,Bike
Fix,GPS,37.4256012762,-122.1695545565,3.90658847716318,3.9821928,5.0060897,105.26149,1677004148000,0.42771405,6.247197,438943128905000,4.026496,Bike
Fix,FLP,37.4256051,-122.1695542,3.5118769869401376,4.1926947,7.404,98.68296,1677004150782,,,438943231461630,1.794763,Bike
Fix,NLP,37.425489,-122.1694187,-1.3000000715255735,,39.579,,1677004151336,,,438943785000000,2.2761247,Bike
Fix,FLP,37.4255985,-122.1695239,8.253826762508957,3.9911885,7.625,103.126144,1677004151325,,,438943774042624,1.5790136,Bike
Fix,GPS,37.4255904104,-122.1695118901,3.6002268838732165,2.645891,5.209046,114.436844,1677004149000,0.43859205,9.080191,438944128952000,4.3511734,Bike
Fix,FLP,37.4255914,-122.1695085,8.253826762508957,3.984136,7.887,105.39459,1677004151867,,,438944316623862,1.5821587,Bike
Fix,FLP,37.4255816,-122.1694841,8.253826762508957,2.8141413,7.928,118.01233,1677004152374,,,438944823000000,1.5821587,Bike
Fix,GPS,37.425577023,-122.1694828877,3.33736080158441,1.507235,5.5378623,138.60477,1677004150000,0.43064797,16.029366,438945129042000,4.6832895,Bike
Fix,FLP,37.4255721,-122.1694712,9.24106451862196,1.5976492,8.19,138.1114,1677004152952,,,438945401786825,1.5933493,Bike
Fix,GPS,37.4255671856,-122.1694722012,2.537757216390728,1.4768896,5.635972,169.98563,1677004151000,0.36001897,14.462505,438946128971000,4.9053254,Bike
Fix,FLP,37.4255674,-122.1694701,8.232310669174026,1.5086725,8.396,151.09338,1677004153495,,,438945944368368,1.6042778,Bike
Fix,GPS,37.4255512689,-122.1694683766,1.7439654896749337,1.7265722,5.7004147,170.46542,1677004152000,0.33066466,12.056661,438947128990000,5.1171837,Bike
Fix,FLP,37.4255522,-122.1694669,5.254909091525263,1.4661194,8.857,176.186,1677004154580,,,438947029531210,1.6143793,Bike
Fix,FLP,37.4255428,-122.1694669,5.254909091525263,1.694162,9.146,162.2772,1677004155122,,,438947572112997,1.6143793,Bike
Fix,GPS,37.4255362994,-122.1694675757,1.222646358740541,1.7186528,5.7412167,170.03055,1677004153000,0.39419994,14.300935,438948129011000,5.2678866,Bike
Fix,FLP,37.4255369,-122.1694641,6.244357488120862,1.7141162,9.261,152.26042,1677004155664,,,438948114694479,1.6233593,Bike
Fix,FLP,37.4255184,-122.1694582,6.244357488120862,1.691063,9.701,181.26347,1677004156748,,,438949197000000,1.6233593,Bike
Fix,GPS,37.4255196457,-122.1694611408,1.270022010645334,2.3744402,5.855587,174.67267,1677004154000,0.39474204,10.362121,438949129031000,5.3979397,Bike
Fix,FLP,37.4255074,-122.1694592,11.609983164163296,2.270562,9.715,187.80281,1677004157254,,,438949703000000,1.6333493,Bike
Fix,GPS,37.4254918893,-122.1694613336,1.879103194619224,2.4681947,5.82742,201.08406,1677004155000,0.39055133,9.460192,438950129038000,5.564207,Bike
Fix,FLP,37.4254965,-122.1694621,11.742719639235226,2.3212843,9.828,205.52042,1677004157836,,,438950285016806,1.6433493,Bike
Fix,GPS,37.425462805,-122.1694739628,3.5517063381556677,2.1536987,5.6785626,212.56201,1677004156000,0.36268514,9.592388,438951129070000,5.654209,Bike
Fix,FLP,37.4254784,-122.169471,-3.940599863803918,2.4489648,9.949,208.13411,1677004158378,,,438950827602438,1.6533493,Bike
Fix,GPS,37.4254397294,-122.1694902535,3.920330400542044,1.7702755,5.5466156,204.21892,1677004157000,0.34277433,10.999652,438952129082000,5.6992936,Bike
Fix,FLP,37.4254529,-122.169488,-3.700679456088864,2.183188,10.004,218.76816,1677004159463,,,438951912765585,1.6633494,Bike
Fix,GPS,37.4254240923,-122.1694987035,4.348743076769848,1.4186147,5.551703,198.66824,1677004158000,0.33243427,13.3595705,438953129100000,5.7538614,Bike
Fix,FLP,37.4254273,-122.1695021,-3.940599863803918,1.7875576,9.949,191.7564,1677004160547,,,438952997931357,1.6733394,Bike
Fix,FLP,37.42542,-122.1695032,-3.940599863803918,1.479411,9.826,191.67818,1677004161115,,,438953564000000,1.6733394,Bike
Fix,GPS,37.4254094654,-122.1695028575,4.426906310266727,1.4746116,5.5643067,199.8451,1677004159000,0.3314893,12.839109,438954129196000,5.7998676,Bike
Fix,FLP,37.4254126,-122.1695037,-1.3000000715255735,1.4104916,9.669,179.75899,1677004161634,,,438954083091208,1.6784374,Bike
Fix,FLP,37.4253943,-122.169505,-1.3000000715255735,1.4711071,9.583,190.85574,1677004162717,,,438955166000000,1.6784374,Bike
Fix,GPS,37.4253965153,-122.1695077755,3.4791999515225296,1.7984464,5.9432883,194.4817,1677004160000,0.38956258,11.891565,438955129244000,5.8715305,Bike
Fix,FLP,37.4253803,-122.1695091,3.4796209667792937,1.7629269,9.633,207.29572,1677004163261,,,438955710834372,1.6884373,Bike
Fix,GPS,37.4253780684,-122.1695098249,2.867934618523144,2.3610783,6.2931304,198.16206,1677004161000,0.41334152,9.489874,438956129182000,6.0258446,Bike
Fix,FLP,37.4253773,-122.1695117,8.877817293010146,1.781376,9.684,210.39581,1677004163804,,,438956253418357,1.6984373,Bike
Fix,FLP,37.4253626,-122.1695183,8.877817293010146,2.302362,9.694,196.85852,1677004164346,,,438956795992147,1.6984373,Bike
Fix,GPS,37.4253512608,-122.1695140844,3.0790780989642634,3.1476808,6.380177,198.97655,1677004162000,0.41102073,6.985208,438957129160000,6.1404757,Bike
Fix,FLP,37.4253388,-122.1695226,23.536394341882684,3.074673,9.786,189.12196,1677004165432,,,438957881148642,1.7084574,Bike
Fix,GPS,37.4253132281,-122.1695224726,3.33708799202471,3.2152562,6.2555523,192.58359,1677004163000,0.38007444,6.3824577,438958129214000,6.1893697,Bike
Fix,FLP,37.4253195,-122.169524,13.627905077025424,3.201209,10.078,187.27446,1677004165974,,,438958423739645,1.7184374,Bike
Fix,FLP,37.4253003,-122.1695253,13.627905077025424,3.1989882,10.317,177.73264,1677004166517,,,438958966320456,1.7184374,Bike
Fix,GPS,37.4252709401,-122.1695211319,3.0507207688492035,3.1678998,6.169346,179.0413,1677004164000,0.38540736,6.918585,438959129144000,6.246528,Bike
Fix,FLP,37.4252614,-122.1695206,10.52408232538869,3.1552548,10.488,186.92567,1677004167602,,,438960051485068,1.7284374,Bike
Fix,GPS,37.425233407,-122.1695171198,3.1095119461814686,3.78528,5.844862,189.89207,1677004165000,0.3620404,5.8398075,438960129367000,6.1343784,Bike
Fix,FLP,37.4252192,-122.1695304,13.627905077025424,3.5900807,10.641,210.09245,1677004168650,,,438961099000000,1.7384374,Bike
Fix,GPS,37.4251950972,-122.1695126361,2.979745782213812,3.9361765,5.5840545,198.60287,1677004166000,0.38026428,5.731807,438961129190000,6.1453605,Bike
Fix,FLP,37.4251843,-122.1695406,13.627905077025424,3.937137,10.554,202.07312,1677004169230,,,438961679224264,1.7484374,Bike
Fix,GPS,37.4251540843,-122.1695202936,3.150477825080107,4.388607,5.438199,199.40628,1677004167000,0.37247103,5.0293555,438962129200000,6.2341137,Bike
Fix,FLP,37.4251763,-122.1695375,15.068986905948812,3.9562898,10.64,197.09941,1677004169772,,,438962221805075,1.7581601,Bike
Fix,FLP,37.4251431,-122.1695414,15.068986905948812,4.310872,10.562,196.83482,1677004170315,,,438962764385886,1.7581601,Bike
Fix,GPS,37.4251101208,-122.1695325429,3.3761023937315136,4.442729,5.468265,198.3778,1677004168000,0.40648144,5.2935925,438963129260000,6.3255625,Bike
Fix,FLP,37.4250968,-122.1695487,15.068986905948812,4.427631,10.209,197.46658,1677004171400,,,438963849547262,1.7681701,Bike
Fix,GPS,37.4250643104,-122.1695450233,3.6261132107516425,4.397707,5.556916,196.7459,1677004169000,0.4015351,10.0,438964129250000,6.3654037,Bike
Fix,FLP,37.4250589,-122.169555,14.899797015587986,4.414172,9.932,195.67532,1677004171943,,,438964392116720,1.7781801,Bike
Fix,FLP,37.4250194,-122.169563,1.0,4.4229493,9.68,189.24995,1677004173028,,,438965477289206,1.7901902,Bike
Fix,FLP,37.424994,-122.1695647,1.0,4.4030395,9.666,183.12617,1677004173570,,,438966019860251,1.7901902,Bike
Fix,GPS,37.4249818193,-122.1695516061,2.372589242439722,3.6540794,5.9040422,178.70386,1677004171000,0.3203065,10.0,438966129297000,6.4702287,Bike
Fix,GPS,37.4249462555,-122.169535069,3.081453559213186,3.4205256,6.0508275,163.24684,1677004172000,0.39353135,10.0,438967129392000,6.5845523,Bike
Fix,FLP,37.4249511,-122.1695574,-5.788628403562122,3.6843004,9.495,166.92093,1677004174656,,,438967105031882,1.8092102,Bike
Fix,FLP,37.4249276,-122.1695373,-5.788628403562122,3.4411852,9.721,156.32143,1677004175198,,,438967647612448,1.8092102,Bike
Fix,GPS,37.4249335212,-122.1694840071,2.8374588528396014,4.1549687,5.628935,107.42035,1677004173000,0.056006156,10.0,438968129348000,6.084007,Bike
Fix,FLP,37.4249252,-122.1695305,-6.0443436819602,3.450861,9.814,148.06363,1677004175741,,,438968190193320,1.8181702,Bike
Fix,GPS,37.424925805,-122.1694299939,2.591732995070801,3.6483357,5.7435293,106.933815,1677004174000,0.26777172,10.0,438969129344000,5.9748464,Bike
Fix,FLP,37.4249134,-122.1694775,-4.28844678382292,4.087811,10.012,108.25702,1677004176826,,,438969275351706,1.8281802,Bike
Fix,FLP,37.4249146,-122.169414,-4.28844678382292,3.6883416,10.021,108.2036,1677004177368,,,438969817935202,1.8281802,Bike
Fix,GPS,37.4249151364,-122.1693828825,2.547320075913802,3.7395272,5.8983326,111.29342,1677004175000,0.31483358,10.0,438970129374000,5.9170136,Bike
Fix,FLP,37.4249056,-122.1693635,-1.3000000715255735,3.7161982,10.203,113.11948,1677004178453,,,438970903096335,1.8481902,Bike
Fix,GPS,37.4248968366,-122.1693410206,2.6287630203133867,3.9758778,5.415543,115.24264,1677004176000,0.03927832,10.0,438971129379000,5.7296143,Bike
Fix,FLP,37.4248893,-122.1693158,-1.3000000715255735,3.9289386,10.133,116.97829,1677004179539,,,438971988257834,1.8481902,Bike
Fix,GPS,37.4248767181,-122.1693024403,2.5541157344771013,3.8353596,5.0390697,124.12343,1677004177000,0.027722398,10.0,438972129354000,5.5692134,Bike
Fix,FLP,37.4248746,-122.169291,-1.3000000715255735,3.8611765,9.857,124.11015,1677004180123,,,438972572000000,1.8581802,Bike
Fix,NLP,37.4249432,-122.1691007,0.2999999821186065,,25.017,,1677004180736,,,438973185000000,1.0,Bike
Fix,GPS,37.4248540402,-122.1692631601,2.526588417633252,3.978524,5.247429,135.2768,1677004178000,0.28316727,10.0,438973129409000,5.50919,Bike
Fix,FLP,37.4248606,-122.1692729,-1.3000000715255735,3.8428648,9.486,130.90784,1677004180623,,,438973073419516,1.8682002,Bike
Fix,FLP,37.4248434,-122.1692418,0.2999999821186065,3.8168418,9.137,132.85455,1677004181165,,,438973615996481,1.2244527,Bike
Fix,GPS,37.4248237209,-122.169228301,2.6310208020363395,4.4797983,5.3825803,129.12172,1677004179000,0.304663,10.0,438974129395000,5.4295316,Bike
Fix,FLP,37.4248398,-122.1692316,0.2999999821186065,3.9251988,9.102,131.88329,1677004181709,,,438974158576315,1.2041034,Bike
Fix,FLP,37.4248169,-122.1692038,0.2999999821186065,4.435929,9.076,128.00577,1677004182252,,,438974701156393,1.2041034,Bike
Fix,GPS,37.4247948474,-122.169184446,2.629632498988371,4.3659663,5.494938,128.73425,1677004180000,0.29450664,10.0,438975129370000,5.399254,Bike
Fix,FLP,37.4248053,-122.1691885,20.560364576328357,4.50033,9.102,128.70285,1677004182794,,,438975243736044,1.2629073,Bike
Fix,FLP,37.4247835,-122.1691621,20.560364576328357,4.4265985,8.985,126.222435,1677004183337,,,438975786316611,1.2629073,Bike
Fix,GPS,37.4247702983,-122.1691436351,2.4870574448313976,3.494693,5.6107407,117.04394,1677004181000,0.34982955,10.0,438976129490000,5.424408,Bike
Fix,FLP,37.4247656,-122.1691315,14.262341443067236,3.662254,8.77,118.04814,1677004183879,,,438976328895285,1.4763916,Bike
Fix,GPS,37.4247535932,-122.1691050817,2.414794592197209,3.7480285,5.892718,123.4304,1677004182000,0.4367021,10.0,438977129443000,5.4953566,Bike
Fix,FLP,37.4247609,-122.1691174,4.707336804857931,3.5528827,8.757,114.68859,1677004184421,,,438976871475546,1.4188484,Bike
Fix,GPS,37.4247362318,-122.1690712748,1.9037529304314385,3.5851305,6.0435004,126.7314,1677004183000,0.42702553,10.0,438978129473000,5.6431737,Bike
Fix,FLP,37.4247417,-122.1690779,-9.174993167583366,3.7110894,9.009,138.14967,1677004185507,,,438977956635641,1.4288584,Bike
Fix,GPS,37.4247178915,-122.1690462709,1.5662654977158932,3.0072258,6.2737427,121.002426,1677004184000,0.47131237,10.0,438979129535000,5.850968,Bike
Fix,FLP,37.4247173,-122.1690484,-5.543771250530995,3.6211605,9.444,125.738335,1677004186591,,,438979041796286,1.4388684,Bike
Fix,GPS,37.4247004474,-122.1690224417,2.457202576862336,2.9888313,6.465868,117.360245,1677004185000,0.40860897,10.0,438980129471000,6.1431866,Bike
Fix,FLP,37.424702,-122.1690147,-5.097239572694448,3.0834544,9.742,113.3539,1677004187677,,,438980126956381,1.4488485,Bike
Fix,FLP,37.4246919,-122.1689946,-5.097239572694448,2.9945438,10.095,113.69975,1677004188220,,,438980669536764,1.4488485,Bike
Fix,GPS,37.4246863218,-122.168992533,3.583746691420312,2.8227565,6.662878,111.40384,1677004186000,0.36223027,10.0,438981129450000,6.360164,Bike
Fix,FLP,37.4246896,-122.1689906,-1.3000000715255735,2.998365,10.246,109.72586,1677004188762,,,438981212117087,1.4588585,Bike
Fix,FLP,37.4246794,-122.1689541,0.2999999821186065,2.8480394,11.032,100.13496,1677004189861,,,438982310000000,1.4688784,Bike
Fix,GPS,37.4246742913,-122.1689642408,3.032869631612304,2.9378178,6.9402704,109.31109,1677004187000,0.38895532,10.0,438982129606000,6.515322,Bike
Fix,FLP,37.4246735,-122.1689307,0.2999999821186065,2.893443,11.19,106.621544,1677004190389,,,438982839847616,1.4699484,Bike
Fix,GPS,37.4246637516,-122.1689299922,2.084348054867578,2.9672973,7.0959234,108.04748,1677004188000,0.39420378,10.0,438983129585000,6.6457405,Bike
Fix,GPS,37.4246522576,-122.1688934293,1.8066834584057472,3.003181,7.04793,108.548676,1677004189000,0.40335387,10.0,438984129574000,6.7675824,Bike
Fix,FLP,37.4246631,-122.1689035,-5.014375429542049,2.9596796,11.362,109.177826,1677004191476,,,438983925020468,1.4888585,Bike
Fix,GPS,37.4246445858,-122.1688675591,0.557720934685467,3.020142,7.1450787,113.66064,1677004190000,0.36024088,10.0,438985129589000,6.8399367,Bike
Fix,FLP,37.4246492,-122.1688679,-5.014375429542049,2.9998446,11.467,112.068245,1677004192560,,,438985010181540,1.4999509,Bike
Fix,GPS,37.4246333162,-122.1688401333,0.1604389761054551,2.5504088,7.3460445,113.31734,1677004191000,0.41393068,10.0,438986129592000,7.002738,Bike
Fix,FLP,37.4246349,-122.1688376,-3.1415314670031904,2.9980924,11.671,127.84232,1677004193646,,,438986095339743,1.5099908,Bike
Fix,GPS,37.4246208912,-122.1688149925,-0.0550295600846418,2.0573306,7.5088415,113.4034,1677004192000,0.4308334,12.190489,438987129610000,7.1763787,Bike
Fix,FLP,37.4246203,-122.168811,-3.071950465986731,2.5878108,12.119,104.80949,1677004194731,,,438987180502035,1.5189408,Bike
Fix,GPS,37.4246122631,-122.168794417,-0.4219491361822613,1.2485073,7.7322273,106.00615,1677004193000,0.49680045,24.179953,438988129630000,7.400433,Bike
Fix,FLP,37.4246127,-122.1687796,-1.3000000715255735,2.0971458,12.727,89.74102,1677004195816,,,438988265663229,1.5289408,Bike
Fix,GPS,37.424606928,-122.168780378,-0.3375095329988362,0.9885072,7.886568,106.00615,1677004194000,0.5077116,13.433185,438989129646000,7.542037,Bike
Fix,FLP,37.4246117,-122.1687625,0.2999999821186065,1.3222772,13.152,92.310295,1677004196359,,,438988808243307,1.5399609,Bike
Fix,FLP,37.4246101,-122.1687623,0.2999999821186065,1.0397941,13.294,103.65963,1677004196901,,,438989350823141,1.5399609,Bike
Fix,FLP,37.4246089,-122.1687583,0.2999999821186065,0.9974779,13.357,104.46495,1677004197444,,,438989893405600,1.5399609,Bike
Fix,GPS,37.4246039694,-122.1687711342,0.1475966627669853,0.8440184,8.060047,106.00615,1677004195000,0.50112146,23.14467,438990129668000,7.6963162,Bike
Fix,GPS,37.4246055653,-122.1687563317,0.1112957596504593,0.5697924,8.269388,106.00615,1677004196000,0.4893578,69.07107,438991129674000,7.9009337,Bike
Fix,FLP,37.4246039,-122.168742,11.897179158313918,0.85715044,13.369,102.907364,1677004198529,,,438990978564719,1.5589409,Bike
Fix,GPS,37.4246064864,-122.1687466168,0.512686709279341,0.3347742,8.450275,106.00615,1677004197000,0.46362457,49.695595,438992129698000,8.1004095,Bike
Fix,FLP,37.4246011,-122.1687307,11.897179158313918,0.59069145,13.044,100.318405,1677004199614,,,438992063720114,1.5589409,Bike
Fix,FLP,37.4246012,-122.1687342,11.96227121491718,0.3568889,12.388,103.301125,1677004200157,,,438992606298727,1.5701009,Bike
Fix,GPS,37.42460918,-122.1687455328,0.1584827903924873,0.3955777,8.639973,106.00615,1677004198000,0.5067212,18.957945,438993129634000,8.28167,Bike
Fix,FLP,37.4246011,-122.168735,9.940038752895523,0.3420583,12.007,111.336815,1677004200699,,,438993148877341,1.5789609,Bike
