Fix,Provider,LatitudeDegrees,LongitudeDegrees,AltitudeMeters,SpeedMps,AccuracyMeters,BearingDegrees,UnixTimeMillis,SpeedAccuracyMps,BearingAccuracyDegrees,elapsedRealtimeNanos,VerticalAccuracyMeters,TransitType
Fix,FLP,37.4274298,-122.1729772,-0.1000000014901161,0.57012033,96.0,23.377396,1677781705204,,,1216511342209158,2.1734166,Bike
Fix,GPS,37.4273914292,-122.1729752591,-11.257785880097517,0.0,2.275333,,1677781705560,0.8423368,,1216512382654796,84.73493,Bike
Fix,FLP,37.4273936,-122.1729753,-0.1000000014901161,0.28391662,3.9,130.47447,1677781706245,0.8423368,,1216512382654796,2.1879816,Bike
Fix,GPS,37.4273866226,-122.1729721047,-11.429279875508186,0.0,6.497351,,1677781706560,1.0312738,,1216513388268607,91.22961,Bike
Fix,FLP,37.4273891,-122.1729724,-0.1000000014901161,0.3432887,5.198,139.30743,1677781707250,1.0312738,,1216513388268607,2.194779,Bike
Fix,GPS,37.4273810181,-122.1729679351,-10.844552087455998,0.0,7.248683,,1677781707560,1.2105073,,1216514426749402,73.8784,Bike
Fix,FLP,37.4273849,-122.1729702,-0.1000000014901161,0.38107336,6.128,145.70792,1677781708288,1.2105073,,1216514426749402,2.2049887,Bike
Fix,NLP,37.4272386,-122.1730818,0.6999999284744263,,15.554,,1677781709093,,,1216515230000000,3.0019455,Bike
Fix,FLP,37.4273817,-122.1729679,0.6999999284744263,0.41268715,7.136,147.01611,1677781709092,1.2105073,,1216515230000000,2.236092,Bike
Fix,GPS,37.4273746417,-122.172964268,-12.002806853937823,0.0,9.604574,,1677781708560,1.1225866,,1216515449002576,70.29679,Bike
Fix,FLP,37.4273796,-122.1729667,0.6999999284744263,0.46419963,7.445,148.39413,1677781709311,1.1225866,,1216515449002576,2.2348168,Bike
Fix,GPS,37.4273994663,-122.1729737309,-12.563672477574944,0.0,3.3206866,,1677781709560,1.0294424,,1216516479267144,81.3572,Bike
Fix,FLP,37.4273917,-122.1729704,-3.0799695728095173,0.12373468,7.051,40.78352,1677781710341,1.0294424,,1216516479267144,2.1999931,Bike
Fix,GPS,37.4274157778,-122.172984846,-12.762242346914018,3.3788664,1.8494391,17.802547,1677781710560,1.0136524,180.0,1216517460882826,66.60602,Bike
Fix,FLP,37.4274104,-122.1729788,-3.0526351764865964,1.1140019,7.051,353.99442,1677781711322,1.0136524,180.0,1216517460882826,2.194103,Bike
Fix,GPS,37.4274399487,-122.1729751434,-12.598039795719568,0.0,10.129679,,1677781711560,1.0067052,,1216518457283909,54.23032,Bike
Fix,FLP,37.4274254,-122.1729787,-2.927604496143537,1.2437276,7.455,356.13474,1677781712319,1.0067052,,1216518457283909,2.2423432,Bike
Fix,GPS,37.427441773,-122.172997449,-2.530773896825129,0.0,14.665731,,1677781712560,20.0,,1216519427891128,46.930656,Bike
Fix,FLP,37.4274373,-122.1729835,-1.7723752690222483,1.2809049,8.788,352.46017,1677781713289,20.0,,1216519427891128,2.25482,Bike
Fix,NLP,37.42722,-122.1730399,-0.1000000014901161,,19.112,,1677781714173,,,1216520311000000,2.9372842,Bike
Fix,FLP,37.4274465,-122.1729872,-0.1000000014901161,1.2654762,10.36,350.41312,1677781714173,20.0,,1216520311000000,2.2745163,Bike
Fix,GPS,37.4274337712,-122.1730099151,-1.489831803632486,0.0,14.103579,,1677781713560,20.0,,1216520453216283,40.892944,Bike
Fix,FLP,37.4274445,-122.1729936,-0.1000000014901161,1.2039423,11.11,343.8871,1677781714315,20.0,,1216520453216283,2.2659414,Bike
Fix,GPS,37.4274199251,-122.1730226367,-0.9387852993947008,0.0,13.217865,,1677781714999,20.0,,1216521897236181,36.467113,Bike
Fix,FLP,37.4274439,-122.1730087,-1.7723752690222483,0.9530364,12.663,327.85086,1677781715760,20.0,,1216521897236181,2.324673,Bike
Fix,GPS,37.4274159744,-122.1730314237,-0.5395734391368813,0.0,12.87982,,1677781715999,0.54971945,,1216522903532528,33.523617,Bike
Fix,FLP,37.4274368,-122.1730215,-3.5274311979844057,0.79917884,14.16,307.8555,1677781716765,0.54971945,,1216522903532528,2.2898214,Bike
Fix,GPS,37.4274103291,-122.1730358907,-0.8889996351563553,0.0,12.102505,,1677781716999,0.575221,,1216523866532000,31.592604,Bike
Fix,FLP,37.4274278,-122.1730317,-2.579837372547217,0.71628124,14.489,286.21988,1677781717728,0.575221,,1216523866532000,2.2956588,Bike
Fix,GPS,37.4274091065,-122.1730407635,-0.5249254349082064,0.0,11.7984915,,1677781717999,0.5830771,,1216524866201000,30.08214,Bike
Fix,FLP,37.4274208,-122.17304,-1.853378082850682,0.69807416,14.011,270.31143,1677781718728,0.5830771,,1216524866201000,2.3056688,Bike
Fix,NLP,37.4272048,-122.1730429,-0.1000000014901161,,22.885,,1677781719197,,,1216525335000000,2.0487933,Bike
Fix,FLP,37.4274153,-122.173043,-0.1000000014901161,0.6938026,12.93,260.14832,1677781719197,0.5830771,,1216525335000000,2.114049,Bike
Fix,GPS,37.4274080982,-122.1730462935,-0.3991927228980841,0.0,11.5725155,,1677781718999,0.6151931,,1216525866181000,28.67538,Bike
Fix,FLP,37.4274127,-122.1730468,-5.577656612161498,0.6997355,12.568,255.97522,1677781719728,0.6151931,,1216525866181000,2.2282112,Bike
Fix,FLP,37.4273629,-122.1729987,-5.577656612161498,0.66850513,11.743,179.50475,1677781719911,,,1216526048798648,2.2282112,Bike
Fix,GPS,37.4274085723,-122.1730466229,0.1833415901474038,0.0,11.505569,,1677781719999,20.0,,1216526866176000,27.527029,Bike
Fix,FLP,37.4273446,-122.1729803,-0.1000000014901161,0.46675077,11.07,179.13254,1677781720453,,,1216526591409854,2.2382112,Bike
Fix,FLP,37.427336,-122.1729707,-0.1000000014901161,0.29809764,10.248,177.70348,1677781720996,,,1216527134012942,2.2382112,Bike
Fix,GPS,37.4274077178,-122.1730508603,0.1973223455538135,0.0,11.5085945,,1677781720999,0.5741903,,1216527866212000,26.75193,Bike
Fix,FLP,37.4273319,-122.1729654,9.405860059901116,0.22610381,9.823,179.95699,1677781721538,,,1216527676615664,2.2598689,Bike
Fix,GPS,37.4274077559,-122.1730491892,2.655478888276172,0.0,10.738884,,1677781721999,0.54155016,,1216528866188000,23.614376,Bike
Fix,FLP,37.4273281,-122.1729598,3.7209200453345233,0.0894467,8.877,,1677781722623,,,1216528761828616,2.2698588,Bike
Fix,GPS,37.4274067959,-122.1730506071,3.468322966411283,0.0,10.479151,,1677781722999,0.75190425,,1216529866235000,22.254366,Bike
Fix,FLP,37.4273273,-122.1729583,4.098851431972292,0.042223666,8.044,,1677781723709,,,1216529847035342,2.2798688,Bike
Fix,NLP,37.4271842,-122.1729938,-0.1000000014901161,,20.896,,1677781724303,,,1216530441000000,2.0417914,Bike
Fix,FLP,37.4273274,-122.1729572,2.5011505864585715,0.016827997,6.769,,1677781724251,,,1216530389636905,2.2308817,Bike
Fix,GPS,37.4274059927,-122.1730583317,5.153289574389493,0.0,10.424942,,1677781723999,0.61486816,,1216530866418000,21.645954,Bike
Fix,FLP,37.4273249,-122.172957,-0.1000000014901161,0.03133995,6.29,,1677781724794,,,1216530932238223,2.224442,Bike
Fix,GPS,37.4274080187,-122.173066212,5.984217254380143,0.0,10.197386,,1677781724999,20.0,,1216531866226000,20.631256,Bike
Fix,FLP,37.4273234,-122.172957,-0.1000000014901161,0.021695858,6.45,,1677781725879,,,1216532017438968,2.2448819,Bike
Fix,FLP,37.427324,-122.1729575,-0.1000000014901161,0.005184952,6.482,,1677781726422,,,1216532560027102,2.2448819,Bike
Fix,GPS,37.4274121174,-122.1730737282,4.610385422333382,0.0,9.914564,,1677781725999,20.0,,1216532866276000,19.471428,Bike
Fix,FLP,37.4273252,-122.1729587,-14.054849380077655,0.003900426,6.512,,1677781726929,,,1216533066464053,2.2548919,Bike
Fix,GPS,37.4274215465,-122.1730754583,3.932323279236027,0.0,9.503101,,1677781726999,20.0,,1216533866467000,18.39391,Bike
Fix,FLP,37.4273252,-122.1729595,18.044705039431413,0.00504136,6.499,,1677781727461,,,1216533598575015,2.2685406,Bike
Fix,FLP,37.4273251,-122.1729605,18.044705039431413,0.00712843,6.446,,1677781728025,,,1216534163000000,2.2685406,Bike
Fix,FLP,37.427325,-122.1729619,18.044705039431413,0.01092618,6.427,,1677781728592,,,1216534730429934,2.2685406,Bike
Fix,GPS,37.4274271624,-122.173070497,3.171288292604827,0.0,8.748633,,1677781727999,20.0,,1216534866450000,16.391129,Bike
Fix,FLP,37.4273238,-122.172964,33.81262933841983,0.013099837,6.281,,1677781729136,,,1216535273025515,2.2785506,Bike
Fix,NLP,37.4272541,-122.1729144,-0.1999998986721038,,23.093,,1677781729333,,,1216535470000000,1.5982938,Bike
Fix,GPS,37.4274216446,-122.1730448337,2.6813994890428123,0.0,8.4807825,,1677781728999,20.0,,1216535866282000,15.266205,Bike
Fix,FLP,37.4273217,-122.1729652,17.355088605575236,0.014732353,6.27,,1677781729677,,,1216535815621463,2.2289143,Bike
Fix,FLP,37.4273188,-122.172966,17.355088605575236,0.013657198,6.214,,1677781730220,,,1216536358216433,2.2289143,Bike
Fix,GPS,37.4274264243,-122.1730116673,-0.2576544210337116,0.0,8.527193,,1677781729999,20.0,,1216536866333000,14.862923,Bike
Fix,FLP,37.4273167,-122.1729672,18.057899132627817,0.014600835,6.266,,1677781730762,,,1216536900802432,2.2387269,Bike
Fix,FLP,37.4273141,-122.1729688,18.057899132627817,0.016604997,6.322,,1677781731283,,,1216537421000000,2.2387269,Bike
Fix,GPS,37.4274238199,-122.1729893519,0.1633665351452824,1.8370167,8.907224,98.92721,1677781730999,0.8626079,20.38647,1216537866318000,14.727969,Bike
Fix,FLP,37.427312,-122.1729707,18.057899132627817,0.018016463,6.456,,1677781731848,,,1216537985999026,2.248589,Bike
Fix,GPS,37.4274188461,-122.1729613677,0.5596047613021363,2.398674,8.908429,104.45835,1677781731999,0.66385347,15.209039,1216538866492000,14.45462,Bike
Fix,FLP,37.4273077,-122.1729759,18.057899132627817,0.63560504,6.693,234.74298,1677781732391,,,1216538528592349,2.248589,Bike
Fix,FLP,37.4273051,-122.1729786,5.094994804579379,0.64731103,7.843,143.41417,1677781733460,,,1216539598575015,2.257223,Bike
Fix,GPS,37.4274169859,-122.1729326489,0.4081564360205378,2.6034327,9.048978,108.668106,1677781732999,0.6783788,14.591531,1216539866346000,14.283207,Bike
Fix,FLP,37.4273091,-122.1729658,-6.489576906462247,1.4999818,9.676,111.75632,1677781734018,,,1216540156365847,2.2013233,Bike
Fix,NLP,37.4272489,-122.1727593,-0.1999998986721038,,27.712,,1677781734288,,,1216540426000000,1.646662,Bike
Fix,GPS,37.427402957,-122.1729032892,0.0803687769999133,2.8281605,9.2246475,124.38568,1677781733999,0.5601209,10.521556,1216540866415000,14.131438,Bike
Fix,FLP,37.4273123,-122.1729523,-4.576703048782143,1.785337,11.933,108.96416,1677781734560,,,1216540698960391,2.1945868,Bike
Fix,GPS,37.4273697696,-122.1728612645,0.611509030822491,3.0366633,9.089685,137.8886,1677781734999,0.4810127,10.0,1216541866384000,13.621176,Bike
Fix,FLP,37.4273089,-122.1729285,-2.356113221811732,2.0562603,13.658,123.671455,1677781735647,,,1216541784142215,2.1386437,Bike
Fix,GPS,37.4273353414,-122.1728324613,-1.061162523297828,3.3603668,8.965572,152.05365,1677781735999,0.46768823,10.0,1216542866346000,12.920241,Bike
Fix,FLP,37.427298,-122.1729033,-0.1999998986721038,2.4005709,14.967,137.17169,1677781736731,,,1216542869322635,1.8191658,Bike
Fix,FLP,37.4272828,-122.1728725,-0.1999998986721038,2.7794392,16.379,143.61526,1677781737273,,,1216543411912295,1.8191658,Bike
Fix,GPS,37.4272871138,-122.1727992514,-0.1638612800332708,3.801621,8.497731,157.52174,1677781736999,0.46447477,10.0,1216543866652000,11.838968,Bike
Fix,FLP,37.4272848,-122.1728649,1.8072295687576412,2.9551373,16.202,146.85779,1677781737816,,,1216543954504215,1.8226556,Bike
Fix,FLP,37.4272692,-122.1728376,1.8072295687576412,3.2289195,16.644,147.67653,1677781738359,,,1216544497090457,1.8226556,Bike
Fix,GPS,37.4271897017,-122.1727749693,0.9637093109304776,3.2591455,7.496627,154.30287,1677781737999,0.38861534,10.0,1216544866406000,10.939491,Bike
Fix,FLP,37.4272626,-122.1728216,3.200700888465171,3.3771105,15.9,146.78694,1677781738901,,,1216545039678836,1.8326355,Bike
Fix,NLP,37.4269248,-122.1728117,-0.1999998986721038,,32.546,,1677781739324,,,1216545462000000,2.2563477,Bike
Fix,FLP,37.4272382,-122.1727995,5.259669986401249,3.4274294,15.282,146.28197,1677781739444,,,1216545582267215,1.786715,Bike
Fix,GPS,37.4271414392,-122.1727507968,1.8119146772321588,3.1211202,7.1410146,149.93118,1677781738999,0.40768647,10.0,1216545866458000,10.336964,Bike
Fix,FLP,37.4271911,-122.1727645,7.771237365180866,3.4117284,13.983,146.56871,1677781739986,,,1216546124854800,1.7881024,Bike
Fix,FLP,37.4271736,-122.1727502,7.771237365180866,3.3837626,13.411,145.51657,1677781740529,,,1216546667442446,1.7881024,Bike
Fix,GPS,37.427095831,-122.1727250129,3.350963348922099,3.008542,6.8331575,150.45346,1677781739999,0.36566952,10.0,1216546866552000,9.9028015,Bike
Fix,FLP,37.427139,-122.1727263,25.160871955912526,3.3125458,13.219,145.97423,1677781741584,,,1216547721000000,1.9537067,Bike
Fix,GPS,37.4270539325,-122.1726956771,3.88389288302816,3.2405717,6.550488,149.93204,1677781740999,0.38419026,10.0,1216547866471000,9.441853,Bike
Fix,FLP,37.427092,-122.1726994,20.791042747821887,3.3366892,12.692,147.5029,1677781742700,,,1216548837789431,1.8078662,Bike
Fix,GPS,37.4270169311,-122.1726653153,3.5269123800298883,3.1879594,6.4128637,149.81906,1677781741999,0.37585273,10.0,1216548866721000,9.24767,Bike
Fix,FLP,37.4270586,-122.172682,23.49358717630461,3.3652442,12.398,148.12885,1677781743243,,,1216549380374881,1.8164071,Bike
Fix,GPS,37.4269792499,-122.172641556,3.3345936768778843,3.589662,6.175093,162.65216,1677781742999,0.40550527,10.0,1216549866501000,9.118291,Bike
Fix,FLP,37.4270375,-122.1726697,23.49358717630461,3.3579848,12.329,149.31937,1677781743784,,,1216549922961062,1.8164071,Bike
Fix,FLP,37.4270055,-122.1726548,23.19551856449833,3.4929838,12.118,153.5439,1677781744327,,,1216550465545962,1.826387,Bike
Fix,GPS,37.4269331938,-122.1726248407,3.420278670164792,4.207597,6.038571,168.72757,1677781743999,0.36708286,10.0,1216550866584000,8.8407135,Bike
Fix,FLP,37.4269916,-122.1726499,19.49313345310381,3.5686412,11.834,156.38618,1677781744871,,,1216551008131228,1.8363771,Bike
Fix,GPS,37.426882883,-122.1726081516,3.962677522244304,4.1626067,5.8397303,171.4741,1677781744999,0.3580393,10.0,1216551866642000,8.556708,Bike
Fix,FLP,37.4269498,-122.1726358,23.19551856449833,3.8650322,11.566,161.60634,1677781745412,,,1216551550715640,1.8453671,Bike
Fix,FLP,37.4269233,-122.1726281,23.19551856449833,4.0410333,11.34,162.74411,1677781745918,,,1216552056101634,1.8453671,Bike
Fix,GPS,37.4268356373,-122.1725943365,5.104532641807057,4.076289,5.71948,168.10616,1677781745999,0.4016738,10.0,1216552866577000,8.353228,Bike
Fix,FLP,37.4268906,-122.1726187,17.103710790959923,4.145866,11.048,163.8682,1677781746461,,,1216552598575015,2.0053778,Bike
Fix,FLP,37.4268662,-122.1726111,17.103710790959923,4.1992736,10.833,163.81429,1677781747040,,,1216553178468081,2.0053778,Bike
Fix,GPS,37.426798006,-122.172574423,6.480517063855868,3.568904,5.794805,139.2108,1677781746999,0.3670892,10.0,1216553866599000,8.348937,Bike
Fix,FLP,37.4268361,-122.1725996,22.01553407387158,4.1936846,10.658,161.89445,1677781747583,,,1216553721040103,1.8663871,Bike
Fix,GPS,37.4267659956,-122.1725305625,8.465096112360792,4.5006704,5.588274,125.52758,1677781747999,0.35329908,10.0,1216554866594000,8.258299,Bike
Fix,FLP,37.4267967,-122.1725714,22.01553407387158,4.097502,10.002,151.2496,1677781748669,,,1216554806217593,1.8763771,Bike
Fix,GPS,37.4267418143,-122.1724881394,7.758440078537107,4.253701,5.465776,123.11386,1677781748999,0.33085278,10.0,1216555866597000,8.107801,Bike
Fix,FLP,37.4267633,-122.1725255,22.01553407387158,4.229827,9.311,139.66557,1677781749753,,,1216555891382815,1.8863971,Bike
Fix,FLP,37.426736,-122.172479,22.01553407387158,4.335747,8.854,132.60902,1677781750295,,,1216556433965640,1.8863971,Bike
Fix,GPS,37.4267186513,-122.1724456712,7.535412522290633,4.4749904,5.362147,123.381905,1677781749999,0.296012,10.0,1216556866611000,7.9166403,Bike
Fix,FLP,37.4267349,-122.1724721,15.168884200609554,4.3759747,8.866,130.63066,1677781750838,,,1216556976544436,1.8963871,Bike
Fix,FLP,37.4267107,-122.1724284,15.168884200609554,4.4409375,8.683,127.787346,1677781751382,,,1216557519129885,1.8963871,Bike
Fix,GPS,37.4266969549,-122.1723976607,6.909598331836883,4.115241,5.1988554,113.423706,1677781750999,0.3040119,10.0,1216557867005000,7.7657013,Bike
Fix,FLP,37.4266923,-122.172381,14.646896729273005,4.47949,8.593,122.301956,1677781752460,,,1216558598575015,1.9064771,Bike
Fix,GPS,37.4266841678,-122.1723489754,6.779790143846122,4.5153546,5.1285057,104.63405,1677781751999,0.29406777,10.0,1216558866741000,7.641868,Bike
Fix,FLP,37.4266853,-122.1723537,-0.1999998986721038,4.5068765,8.376,117.052086,1677781753008,,,1216559146875003,2.0653577,Bike
Fix,GPS,37.4266741927,-122.1722995034,6.230051559530187,3.9634871,5.1913366,103.6326,1677781752999,0.30701762,10.0,1216559866642000,7.527072,Bike
Fix,FLP,37.4266768,-122.1723215,-3.0859133019710825,4.5500684,8.23,113.80566,1677781753551,,,1216559689457095,2.0753577,Bike
Fix,GPS,37.4266641887,-122.1722576743,5.551415383386444,3.4211626,5.2804475,114.509094,1677781753999,0.31973478,10.0,1216560866894000,7.338183,Bike
Fix,FLP,37.4266667,-122.1722749,-3.1284458315380803,4.386399,8.039,110.62256,1677781754636,,,1216560774621829,2.0853577,Bike
Fix,FLP,37.42666,-122.1722564,-3.1284458315380803,4.1280546,8.137,111.9302,1677781755147,,,1216561285000000,2.0853577,Bike
Fix,GPS,37.4266469674,-122.1722220271,5.984961084968655,3.5508974,5.439641,134.46883,1677781754999,0.3673099,10.0,1216561866683000,7.258505,Bike
Fix,FLP,37.426647,-122.1722256,-2.09393325510748,3.9112127,8.096,115.8161,1677781755722,,,1216561859778568,2.0953677,Bike
Fix,FLP,37.4266286,-122.1721964,-0.1999998986721038,3.710101,8.263,124.6521,1677781756264,,,1216562402361758,1.946387,Bike
Fix,GPS,37.4266228983,-122.1721936312,6.107216638746327,3.4147224,5.514973,142.00868,1677781755999,0.32665795,10.0,1216562866795000,7.2241507,Bike
Fix,FLP,37.4266236,-122.1721962,2.639941625826502,3.7169049,8.32,130.28114,1677781756806,,,1216562944936099,1.9565071,Bike
Fix,GPS,37.4265966825,-122.1721657724,5.849545161933585,3.8465457,5.4784765,133.27469,1677781756999,0.3761392,10.0,1216563866713000,7.240224,Bike
Fix,FLP,37.4265979,-122.172166,4.2726802887207285,3.5097792,8.374,130.5805,1677781757892,,,1216564030103579,1.9663771,Bike
Fix,GPS,37.4265712621,-122.1721275685,5.793495174034344,5.067964,7.803733,120.64887,1677781757999,0.47147322,10.0,1216564866710000,7.2321944,Bike
Fix,FLP,37.4265787,-122.1721442,10.605501691831776,3.716224,8.538,130.43018,1677781758434,,,1216564572683352,1.9763771,Bike
Fix,FLP,37.4265711,-122.1721291,10.605501691831776,4.6162605,8.95,121.33141,1677781758977,,,1216565115263369,1.9763771,Bike
Fix,FLP,37.4265598,-122.1721,10.605501691831776,5.0235996,9.187,112.12797,1677781759520,,,1216565657842776,1.9763771,Bike
Fix,GPS,37.4265490544,-122.1720699168,6.544215701959918,5.481131,5.358502,117.433846,1677781758999,0.46808735,10.0,1216565866705000,7.245815,Bike
Fix,FLP,37.4265532,-122.1720823,22.42424499603977,5.442122,8.868,116.68546,1677781759728,0.46808735,10.0,1216565866705000,1.9863771,Bike
Fix,GPS,37.426536411,-122.1720085512,6.789610270609429,5.3368034,5.4852486,100.929634,1677781759999,0.38460544,10.0,1216566866673000,7.1282873,Bike
Fix,FLP,37.4265347,-122.1720153,-0.1999998986721038,5.3440385,8.557,100.60771,1677781760728,0.38460544,10.0,1216566866673000,1.995367,Bike
Fix,GPS,37.4265294684,-122.1719463026,6.941769907807055,5.043804,5.635121,97.46822,1677781760999,0.4430592,10.0,1216567866704000,7.025852,Bike
Fix,FLP,37.4265282,-122.1719498,-2.291933466489006,5.047728,8.074,97.13586,1677781761728,0.4430592,10.0,1216567866704000,2.1553876,Bike
Fix,GPS,37.4265244443,-122.171885201,7.267450082713927,5.0247383,5.7076054,98.480934,1677781761999,0.43442348,10.0,1216568866817000,6.8364124,Bike
Fix,FLP,37.4265237,-122.1718881,-2.291933466489006,5.0247188,7.534,97.97024,1677781762728,0.43442348,10.0,1216568866817000,2.1644378,Bike
Fix,GPS,37.426516297,-122.171823558,7.310015177292434,4.8734126,5.6988072,97.84242,1677781762999,0.41274253,10.0,1216569867107000,6.744679,Bike
Fix,FLP,37.4265178,-122.171828,-0.1999998986721038,5.0666933,7.648,97.38571,1677781763729,,,1216569867107000,2.1753776,Bike
Fix,FLP,37.4265134,-122.1717948,-0.1999998986721038,3.448015,7.348,274.27524,1677781764285,,,1216570423501468,2.1753776,Bike
Fix,GPS,37.4265117169,-122.171766815,6.978252489272622,4.717462,5.7403407,97.4448,1677781763999,0.38799992,10.0,1216570866760000,6.684552,Bike
Fix,FLP,37.4265135,-122.1717998,-0.1999998986721038,4.222755,8.105,276.75415,1677781764829,,,1216570966082339,2.1853776,Bike
Fix,FLP,37.4265087,-122.1717925,-0.1999998986721038,3.5269566,7.939,95.83683,1677781765370,,,1216571508664676,2.1853776,Bike
Fix,GPS,37.4265070394,-122.1717143782,7.152918697063686,4.22173,5.847201,97.30153,1677781764999,0.4193378,10.0,1216571866929000,6.6780663,Bike
Fix,FLP,37.4265034,-122.1717576,3.817224416788285,4.407514,8.406,98.414536,1677781765913,,,1216572051244388,2.046427,Bike
Fix,FLP,37.4264944,-122.1716946,3.817224416788285,4.291729,8.558,99.569786,1677781766455,,,1216572593807925,2.046427,Bike
Fix,GPS,37.4265020341,-122.1716662006,7.127086266338555,3.6253402,6.0896716,96.85897,1677781765999,0.515817,10.0,1216572866768000,6.7862544,Bike
Fix,FLP,37.4264902,-122.1716655,6.775338984434072,3.7287881,8.948,98.76105,1677781766998,,,1216573136403567,2.0563772,Bike
Fix,FLP,37.4264873,-122.1716397,6.775338984434072,3.6448112,9.288,94.83195,1677781767540,,,1216573678987552,2.0563772,Bike
Fix,GPS,37.4264965007,-122.1716240932,6.889756220118209,2.9457397,6.3393087,98.26012,1677781766999,0.49493715,10.0,1216573866772000,6.934557,Bike
Fix,FLP,37.4264841,-122.1716166,6.962852868729215,3.0512145,9.371,99.10084,1677781768083,,,1216574221568606,2.065377,Bike
Fix,GPS,37.426490195,-122.1715894873,6.877838558718336,3.054998,6.5657487,99.687035,1677781767999,0.5220618,10.0,1216574866882000,7.057227,Bike
Fix,FLP,37.426478,-122.1715909,7.357152388934374,2.952527,9.471,105.03197,1677781768626,,,1216574764149417,2.0763772,Bike
Fix,FLP,37.4264723,-122.1715696,7.357152388934374,3.0446613,9.63,100.0611,1677781769168,,,1216575306729739,2.0763772,Bike
Fix,GPS,37.4264851739,-122.1715576672,6.059720649138056,2.5962057,6.708728,101.727356,1677781768999,0.45737797,10.037609,1216575866892000,7.148944,Bike
Fix,FLP,37.4264714,-122.1715585,7.357152388934374,3.055712,9.664,96.32922,1677781769711,,,1216575849310367,2.086447,Bike
Fix,FLP,37.4264695,-122.1715357,7.357152388934374,2.6610596,9.748,103.13843,1677781770253,,,1216576391890628,2.086447,Bike
Fix,GPS,37.4264793763,-122.1715290468,6.222964393508796,2.044248,6.6487656,112.303734,1677781769999,0.45440435,12.163106,1216576866857000,7.318659,Bike
Fix,FLP,37.4264663,-122.1715242,7.55430904619903,2.59941,9.829,110.67426,1677781770796,,,1216576934473880,2.0953772,Bike
Fix,FLP,37.4264608,-122.1715072,7.55430904619903,2.1195242,10.018,114.43587,1677781771343,,,1216577481000000,2.0953772,Bike
Fix,GPS,37.4264630891,-122.1715075913,5.423520914223087,2.315726,6.6368394,133.38876,1677781770999,0.43764478,10.471076,1216577867016000,7.4101734,Bike
Fix,FLP,37.4264549,-122.1714942,7.391109634504062,2.0523117,10.264,125.75011,1677781771881,,,1216578019630862,2.1064272,Bike
Fix,GPS,37.4264424859,-122.1714922553,3.4658995871090146,2.3914607,6.5963993,143.27708,1677781771999,0.48591453,11.981078,1216578866841000,7.486403,Bike
Fix,FLP,37.4264414,-122.1714783,5.368636655686025,2.2573602,10.46,150.33224,1677781772424,,,1216578562210696,2.2653978,Bike
Fix,FLP,37.4264318,-122.1714733,5.368636655686025,2.3665988,10.462,147.30345,1677781772966,,,1216579104790286,2.2653978,Bike
Fix,NLP,37.4263835,-122.1713269,2.38418582e-08,,17.769,,1677781773336,,,1216579474000000,1.4914024,Bike
Fix,FLP,37.4264294,-122.1714697,2.0923985491520227,2.3725548,10.4,138.5998,1677781773509,,,1216579647369571,1.8463169,Bike
Fix,GPS,37.426415322,-122.1714770559,3.4825694033617416,2.5485528,6.524474,159.47636,1677781772999,0.406345,10.067385,1216579866939000,7.4919825,Bike
Fix,FLP,37.426397,-122.1714547,2.38418582e-08,2.5217838,10.242,160.72495,1677781774594,,,1216580732528628,1.8493369,Bike
Fix,GPS,37.4263823569,-122.1714727675,2.409756558764029,2.814387,6.385803,172.95479,1677781773999,0.43538848,10.0,1216580866938000,7.48161,Bike
Fix,FLP,37.426374,-122.1714615,2.0923985491520227,2.7828944,9.991,171.62924,1677781775104,,,1216581242641177,1.8844082,Bike
Fix,GPS,37.4263486497,-122.1714749018,1.747585613109084,3.1671498,6.308211,170.16989,1677781774999,0.43190706,10.0,1216581866978000,7.485111,Bike
Fix,FLP,37.426365,-122.1714645,16.647246387950393,2.8091955,9.92,173.67386,1677781775680,,,1216581817688296,1.8972162,Bike
Fix,FLP,37.4263455,-122.1714678,16.647246387950393,3.1169772,9.722,171.07327,1677781776222,,,1216582360268069,1.8972162,Bike
Fix,GPS,37.4263144489,-122.1714802765,0.4516577699627852,2.9301152,6.256817,183.14717,1677781775999,0.48519993,10.299094,1216582866938000,7.499606,Bike
Fix,FLP,37.4263344,-122.1714684,16.647246387950393,3.1536098,9.694,169.75981,1677781776764,,,1216582902848147,1.9072262,Bike
Fix,FLP,37.4263125,-122.1714737,16.647246387950393,2.9483953,9.322,180.93292,1677781777307,,,1216583445428042,1.9072262,Bike
Fix,GPS,37.4262801685,-122.1714888466,-0.6474566579870382,3.246496,6.2202373,182.47148,1677781776999,0.4861098,10.0,1216583867263000,7.528447,Bike
Fix,FLP,37.4262978,-122.1714789,8.047750617748896,2.9380906,9.252,183.14792,1677781777850,,,1216583988007693,1.9578478,Bike
Fix,GPS,37.4262394332,-122.1714949876,0.1960659745551128,4.2389455,6.2647834,189.6515,1677781777999,0.48881558,10.0,1216584866976000,7.5755277,Bike
Fix,FLP,37.4262607,-122.1714884,10.437173279892782,3.2038236,9.214,184.96553,1677781778935,,,1216585073149600,1.8027654,Bike
Fix,GPS,37.4261957131,-122.1715006436,0.4321743477521511,4.197981,6.3448706,186.28296,1677781778999,0.56505966,10.0,1216585867058000,7.6925006,Bike
Fix,FLP,37.4262225,-122.1714992,9.239197697011654,4.0613775,9.319,190.08183,1677781779477,,,1216585615745547,1.8127854,Bike
Fix,FLP,37.4261764,-122.1715115,9.239197697011654,4.212366,9.314,188.87508,1677781780562,,,1216586700892093,1.8127854,Bike
Fix,GPS,37.4261539272,-122.1715097886,0.7683541356757131,4.148029,6.4499774,191.61116,1677781779999,0.55285907,10.0,1216586867089000,7.8543673,Bike
Fix,FLP,37.4261284,-122.1715244,9.239197697011654,4.1549554,9.285,190.35196,1677781781648,,,1216587786061221,1.8217754,Bike
Fix,GPS,37.4261130157,-122.1715181304,1.1959218085817116,3.6831682,6.5053854,185.41827,1677781780999,0.5445471,10.0,1216587867151000,7.9624915,Bike
Fix,FLP,37.4260924,-122.1715346,15.298244680113092,3.7386794,9.315,188.03824,1677781782190,,,1216588328639651,1.8317854,Bike
Fix,GPS,37.4260758121,-122.1715276669,1.6427171361932953,3.7844214,6.587496,189.74124,1677781781999,0.55788225,10.0,1216588867113000,8.11934,Bike
Fix,FLP,37.426084,-122.1715357,2.742263486360777,3.7069685,9.336,185.22923,1677781782733,,,1216588871217959,1.8428354,Bike
Fix,GPS,37.4260426183,-122.1715390729,1.4109647927376592,3.229743,6.6662703,191.33101,1677781782999,0.5050941,10.0,1216589867095000,8.310352,Bike
Fix,FLP,37.4260466,-122.1715469,2.6125884669702515,3.7319384,9.406,197.15918,1677781783818,,,1216589956371768,1.8527554,Bike
Fix,GPS,37.4260129157,-122.1715543319,0.5968321643165949,2.403095,6.5337305,191.15613,1677781783999,0.4261459,10.483157,1216590867145000,8.45862,Bike
Fix,FLP,37.4260144,-122.1715619,1.79456730566843,3.321266,9.518,192.55331,1677781784903,,,1216591041530581,1.8627654,Bike
Fix,GPS,37.4259869489,-122.1715676254,1.009869648469116,2.5312104,6.330933,170.43817,1677781784999,0.38071445,10.0,1216591867088000,8.65872,Bike
Fix,FLP,37.4259892,-122.1715698,3.8162111941515136,2.469058,9.668,188.02309,1677781785446,,,1216591584108218,1.8727754,Bike
Fix,FLP,37.4259714,-122.1715668,2.38418582e-08,2.4522061,9.702,157.41708,1677781786531,,,1216592669262637,2.0378578,Bike
Fix,GPS,37.4259613716,-122.1715659692,0.1604017692275997,1.6994005,6.254836,159.47359,1677781785999,0.41856602,14.034603,1216592867140000,8.756231,Bike
Fix,FLP,37.4259537,-122.1715561,4.4553466539742885,1.7869838,9.941,155.22668,1677781787073,,,1216593211839541,2.0478978,Bike
Fix,GPS,37.4259401408,-122.1715599816,1.8425903865450373,2.2793524,6.24524,136.68835,1677781786999,0.456446,10.582708,1216593867154000,8.86701,Bike
Fix,FLP,37.4259444,-122.17155,4.4553466539742885,1.70881,10.15,143.78467,1677781787616,,,1216593754420291,2.0478978,Bike
Fix,FLP,37.4259333,-122.1715437,13.610954210132103,2.2003338,10.231,128.5957,1677781788158,,,1216594296992923,2.058148,Bike
Fix,GPS,37.4259186651,-122.1715378102,3.1329767345108834,3.2734027,6.125752,111.48766,1677781787999,0.45574874,10.0,1216594867144000,8.6442995,Bike
Fix,FLP,37.4259296,-122.1715382,22.98828255512775,2.249984,10.275,118.23777,1677781788702,,,1216594839567325,2.0678477,Bike
Fix,FLP,37.4259179,-122.1715195,22.98828255512775,3.1517344,10.322,109.33672,1677781789245,,,1216595382145938,2.0678477,Bike
Fix,GPS,37.4259029705,-122.1714902334,3.9224607286657913,4.3457108,5.9907293,101.8976,1677781788999,0.40022406,10.0,1216595867152000,8.297536,Bike
Fix,FLP,37.4259139,-122.1715113,24.029552197628323,3.2365537,10.378,107.897,1677781789786,,,1216595924711612,2.0779278,Bike
Fix,FLP,37.4259038,-122.171475,24.029552197628323,4.2422466,10.386,99.13148,1677781790329,,,1216596467298160,2.0779278,Bike
Fix,GPS,37.4258900608,-122.1714348626,5.351563264295589,4.8430104,5.8912325,101.95129,1677781789999,0.4026258,10.0,1216596867189000,8.061607,Bike
Fix,FLP,37.4259017,-122.1714598,16.014067553100247,4.321324,10.483,95.93721,1677781790871,,,1216597009873965,2.087838,Bike
Fix,FLP,37.4258934,-122.1714205,16.014067553100247,4.7520413,10.519,99.156006,1677781791403,,,1216597540000000,2.087838,Bike
Fix,GPS,37.4258761041,-122.1713785959,6.542146027094952,4.607589,5.8145723,102.07425,1677781790999,0.4405694,10.0,1216597867247000,7.7624207,Bike
Fix,FLP,37.4258806,-122.1713751,16.014067553100247,4.644789,10.46,101.93468,1677781791958,,,1216598095025088,2.0978777,Bike
Fix,GPS,37.4258660219,-122.1713217166,6.841666318727356,5.07497,5.7729645,105.22247,1677781791999,0.44117162,10.0,1216598867232000,7.535633,Bike
Fix,FLP,37.4258732,-122.1713492,13.316193636934294,4.61527,10.372,103.517815,1677781792499,,,1216598637600833,2.107848,Bike
Fix,FLP,37.4258675,-122.1713231,13.316193636934294,4.9655538,10.299,104.15391,1677781793042,,,1216599180175601,2.107848,Bike
Fix,GPS,37.4258518926,-122.1712607038,7.51878257612071,4.9451885,5.6984687,103.82267,1677781792999,0.4448731,10.0,1216599867220000,7.3191905,Bike
Fix,FLP,37.4258553,-122.1712727,13.187841556534163,4.948955,9.798,103.097855,1677781793729,0.4448731,10.0,1216599867220000,2.1171777,Bike
Fix,GPS,37.4258429377,-122.1712044087,8.1682096089072,5.129586,5.3498344,102.86099,1677781793999,0.04536763,10.0,1216600867548000,6.719666,Bike
Fix,FLP,37.4258437,-122.171209,-2.850967854105285,5.129695,9.101,102.02342,1677781794729,0.04536763,10.0,1216600867548000,2.127848,Bike
Fix,GPS,37.4258302402,-122.1711481644,8.30845329374815,4.983381,7.8516345,106.683105,1677781794999,0.060843922,10.0,1216601867289000,6.443232,Bike
Fix,FLP,37.4258322,-122.1711503,-1.996703831982224,4.981433,8.582,105.8939,1677781795729,0.060843922,10.0,1216601867289000,2.137868,Bike
Fix,GPS,37.4258199339,-122.171094772,8.552867503898035,4.896001,4.9194064,105.44018,1677781795999,0.05998922,10.0,1216602867252000,6.208324,Bike
Fix,FLP,37.4258201,-122.1710947,2.911451853986968,5.0705013,8.225,104.856255,1677781796729,,,1216602867252000,1.9827554,Bike
Fix,GPS,37.4258060522,-122.171043607,9.175257543957786,4.793116,7.854173,102.68239,1677781796999,0.11845167,10.0,1216603867243000,5.961796,Bike
Fix,FLP,37.4258129,-122.1710667,2.2818248671451684,4.5053325,8.033,149.19904,1677781797844,,,1216603981958682,1.9917754,Bike
Fix,GPS,37.4257969355,-122.1709927643,9.562383474017553,4.6733537,7.2570696,98.38346,1677781797999,0.04973597,10.0,1216604867287000,5.7515907,Bike
Fix,FLP,37.4257857,-122.1710224,3.718942386495442,4.916366,8.988,112.35456,1677781798929,,,1216605067106143,2.0028355,Bike
Fix,FLP,37.4257841,-122.1709656,3.718942386495442,4.7136145,10.024,100.57879,1677781799472,,,1216605609679629,2.0028355,Bike
Fix,GPS,37.4257901841,-122.1709403784,9.80928106887452,4.3688183,4.779751,96.94269,1677781798999,0.34780812,10.0,1216605867246000,5.601317,Bike
Fix,FLP,37.4257874,-122.1709379,3.718942386495442,4.4273334,10.665,97.65898,1677781800014,,,1216606152252872,2.0117555,Bike
Fix,GPS,37.425782343,-122.1708901633,9.96838601983393,4.667304,4.7265415,106.300476,1677781799999,0.3454011,10.0,1216606867398000,5.4812546,Bike
Fix,FLP,37.4257864,-122.1709118,3.7812550875629327,4.378847,10.733,97.45249,1677781800556,,,1216606694829288,2.0227554,Bike
Fix,FLP,37.4257818,-122.170887,3.7812550875629327,4.5524845,10.492,102.90945,1677781801103,,,1216607240000000,2.0227554,Bike
Fix,FLP,37.4257723,-122.1708481,3.7812550875629327,4.5978956,10.475,109.34272,1677781801642,,,1216607779974612,2.0227554,Bike
Fix,GPS,37.4257663638,-122.1708368717,10.111741708844765,5.280867,4.9940667,111.088844,1677781800999,0.3728399,10.0,1216607867332000,5.40904,Bike
Fix,FLP,37.4257599,-122.1708111,9.956543131285024,5.1418457,10.564,109.97285,1677781802184,,,1216608322548464,2.0328655,Bike
Fix,GPS,37.4257471115,-122.1707768818,10.339166002944006,5.761441,4.9639845,109.87707,1677781801999,0.37182438,10.0,1216608867280000,5.4284244,Bike
Fix,FLP,37.425752,-122.17079,22.48517254024236,5.735183,9.771,109.05283,1677781802729,0.37182438,10.0,1216608867280000,2.0428255,Bike
Fix,GPS,37.4257273017,-122.1707107563,10.687684854578489,5.97564,5.0008764,107.8413,1677781802999,0.42102,10.0,1216609867353000,5.4348574,Bike
Fix,FLP,37.4257299,-122.1707167,11.659658540237343,5.974335,9.008,107.070175,1677781803729,0.42102,10.0,1216609867353000,2.0527654,Bike
Fix,GPS,37.4257107418,-122.1706413969,11.045464099683231,5.7077246,5.0833473,108.21547,1677781803999,0.4019591,10.0,1216610867391000,5.4551454,Bike
Fix,FLP,37.4257118,-122.1706449,2.38418582e-08,5.710846,7.226,107.98996,1677781804729,0.4019591,10.0,1216610867391000,2.0627854,Bike
Fix,GPS,37.4256937988,-122.1705763121,11.201272129701836,5.635104,5.4574313,107.91132,1677781804999,0.4021649,10.0,1216611867329000,5.5336804,Bike
Fix,FLP,37.4256946,-122.1705788,2.38418582e-08,5.637011,6.912,107.045685,1677781805729,0.4021649,10.0,1216611867329000,2.0717554,Bike
Fix,GPS,37.4256785605,-122.1705108255,10.820747020128,5.542214,7.865534,105.14087,1677781805999,0.05190225,10.0,1216612867393000,5.175923,Bike
Fix,FLP,37.4256792,-122.1705145,-0.1999998986721038,5.5445437,6.392,105.08483,1677781806729,0.05190225,10.0,1216612867393000,2.2478478,Bike
Fix,GPS,37.4256679747,-122.1704469829,10.987830925895302,5.431042,5.374212,105.147125,1677781806999,0.34847105,10.0,1216613867411000,5.2119474,Bike
Fix,FLP,37.4256675,-122.1704491,2.38418582e-08,5.432231,5.756,105.01034,1677781807729,0.34847105,10.0,1216613867411000,2.256878,Bike
Fix,NLP,37.4257205,-122.1704278,-0.6999999284744263,,21.75,,1677781808322,,,1216614460000000,1.543956,Bike
Fix,FLP,37.4256627,-122.1704252,2.38418582e-08,5.4246736,6.285,104.94182,1677781808322,0.34847105,10.0,1216614460000000,1.7975861,Bike
Fix,GPS,37.4256572811,-122.1703893027,10.605220447022726,5.427885,5.0119314,103.78899,1677781807999,0.02439757,10.0,1216614867508000,5.0912538,Bike
Fix,FLP,37.4256576,-122.1703935,-0.6999999284744263,5.4298015,6.286,103.07443,1677781808729,0.02439757,10.0,1216614867508000,1.6577231,Bike
Fix,GPS,37.4256450313,-122.170330936,10.379701386582314,5.3794584,4.685537,103.16114,1677781808999,0.025133358,10.0,1216615867419000,4.971338,Bike
Fix,FLP,37.4256455,-122.1703318,-0.6999999284744263,5.3797483,6.22,103.00848,1677781809729,0.025133358,10.0,1216615867419000,1.7651646,Bike
Fix,GPS,37.4256377115,-122.1702712108,10.242898990511437,5.2523623,4.4524083,96.77659,1677781809999,0.030381337,10.0,1216616867464000,4.91892,Bike
Fix,FLP,37.4256368,-122.1702716,-0.6999999284744263,5.254961,6.053,96.26293,1677781810729,0.030381337,10.0,1216616867464000,1.7952656,Bike
Fix,GPS,37.4256329729,-122.1702118873,10.301064501530943,4.6179094,4.9689655,86.78849,1677781810999,0.3722648,10.0,1216617867520000,5.0438595,Bike
Fix,FLP,37.425633,-122.170213,-0.6999999284744263,5.262677,6.087,90.4087,1677781811729,,,1216617867520000,1.7851446,Bike
Fix,FLP,37.425637,-122.1701938,-0.6999999284744263,2.6005406,6.37,349.40454,1677781812303,,,1216618441520999,1.7851446,Bike
Fix,GPS,37.4256354806,-122.1701590145,10.418352711121392,5.0709205,4.6301146,84.702995,1677781811999,0.043513697,10.0,1216618867603000,4.9362774,Bike
Fix,FLP,37.4256432,-122.1702008,-0.6999999284744263,3.8133059,7.434,336.5467,1677781812846,,,1216618984092532,1.7951846,Bike
Fix,FLP,37.4256548,-122.170161,-0.6999999284744263,4.8263845,7.79,72.04633,1677781813388,,,1216619526663760,1.7951846,Bike
Fix,GPS,37.4256387608,-122.1701013165,10.611858938569052,4.972405,4.9409876,91.5198,1677781812999,0.32469407,10.0,1216619867500000,4.9769864,Bike
Fix,FLP,37.4256446,-122.1701241,-0.6999999284744263,4.9559803,7.383,89.74047,1677781813729,0.32469407,10.0,1216619867500000,1.8042445,Bike
Fix,GPS,37.4256294211,-122.1700417824,10.579075494418726,4.926168,4.5280743,102.89821,1677781813999,0.03422976,10.0,1216620867523000,4.800971,Bike
Fix,FLP,37.4256385,-122.1700544,-0.6999999284744263,4.999247,7.817,97.02063,1677781814729,,,1216620867523000,1.8151445,Bike
Fix,GPS,37.4256196742,-122.1699897897,10.86231256532433,4.788477,4.256005,104.17928,1677781814999,0.0376287,10.0,1216621867504000,4.681137,Bike
Fix,FLP,37.4256236,-122.1700092,-0.6999999284744263,3.4044504,8.6,172.45839,1677781815848,,,1216621986317325,1.8241546,Bike
Fix,FLP,37.4256054,-122.1699731,-0.6999999284744263,4.66169,8.563,113.23711,1677781816391,,,1216622528890750,1.8241546,Bike
Fix,GPS,37.4256086071,-122.1699394915,10.858224239117677,4.8987784,4.734101,105.961494,1677781815999,0.34009102,10.0,1216622867516000,4.731025,Bike
Fix,FLP,37.4256039,-122.1699382,2.38418582e-08,4.8750906,8.436,106.88498,1677781816933,,,1216623071450076,1.8351545,Bike
Fix,GPS,37.4255956421,-122.1698871712,10.810112122197816,4.673946,5.129611,107.68461,1677781816999,0.41021803,10.0,1216623867554000,4.779956,Bike
Fix,FLP,37.4255992,-122.1699079,1.822967842811849,4.894744,8.458,106.54552,1677781817476,,,1216623614032352,1.8451445,Bike
Fix,FLP,37.4255942,-122.1698845,1.822967842811849,4.7274284,8.069,107.402176,1677781818018,,,1216624156600527,1.8451445,Bike
Fix,FLP,37.4255862,-122.1698524,1.822967842811849,4.6970744,8.134,106.18054,1677781818562,,,1216624699174014,1.8451445,Bike
Fix,GPS,37.4255842707,-122.1698358242,10.87112020425781,4.6296434,5.577428,109.65051,1677781817999,0.4903123,10.0,1216624867757000,4.86401,Bike
Fix,FLP,37.4255743,-122.169796,2.8930487561214733,4.64198,8.686,105.31212,1677781819646,,,1216625784315371,1.8551545,Bike
Fix,GPS,37.4255748685,-122.1697846486,10.627633818560223,4.8375506,5.293433,104.18847,1677781818999,0.061107673,10.0,1216625867614000,4.7671013,Bike
Fix,GPS,37.4255625027,-122.1697285549,10.660943485498464,4.904214,5.8202724,103.35122,1677781819999,0.50913167,10.0,1216626867824000,4.8540754,Bike
Fix,FLP,37.4255648,-122.1697421,6.328660483977643,4.7956424,8.735,106.39555,1677781820731,,,1216626869456485,1.8751546,Bike
Fix,FLP,37.4255586,-122.1697105,6.328660483977643,4.9022055,8.865,104.39067,1677781821257,,,1216627395000000,1.8751546,Bike
Fix,GPS,37.4255528054,-122.1696741874,10.777079285040951,4.677327,6.0886993,101.733055,1677781820999,0.5047881,10.0,1216627867592000,4.9455104,Bike
Fix,FLP,37.4255541,-122.169686,4.8415316066407925,4.8959346,9.193,105.256256,1677781821816,,,1216627954600528,1.8841646,Bike
Fix,GPS,37.4255400822,-122.169619716,10.915224361460938,4.4123316,6.269258,107.92547,1677781821999,0.45004758,10.0,1216628867751000,5.0806623,Bike
Fix,FLP,37.4255416,-122.1696292,4.8415316066407925,4.716686,9.761,108.05907,1677781822901,,,1216629039726565,1.8951446,Bike
Fix,FLP,37.4255325,-122.1695869,4.8415316066407925,4.4821296,10.016,105.319786,1677781823445,,,1216629582309268,1.8951446,Bike
Fix,GPS,37.4255329117,-122.1695721491,10.871434576692614,4.4938626,5.857305,99.90684,1677781822999,0.06690218,10.0,1216629867731000,4.969305,Bike
Fix,FLP,37.4255294,-122.1695646,11.84468805346988,4.502369,10.26,101.1437,1677781823987,,,1216630124880252,1.8247622,Bike
Fix,FLP,37.4255264,-122.1695364,11.84468805346988,4.504669,10.27,97.53868,1677781824529,,,1216630667438785,1.8247622,Bike
Fix,GPS,37.4255250481,-122.1695251854,10.75654234658297,3.9320967,6.033592,99.15799,1677781823999,0.3773545,10.0,1216630867618000,5.0314083,Bike
Fix,FLP,37.4255245,-122.1695092,9.900181110417392,4.016726,10.216,97.61304,1677781825072,,,1216631210022403,1.8357522,Bike
Fix,FLP,37.4255216,-122.1694874,9.900181110417392,3.948629,10.296,96.97735,1677781825615,,,1216631752593692,1.8357522,Bike
Fix,GPS,37.4255207838,-122.1694854598,10.510173705070688,3.1562078,6.307065,97.20483,1677781824999,0.44047654,10.0,1216631867684000,5.0726843,Bike
Fix,FLP,37.4255145,-122.1694404,9.55239729910246,3.1975667,10.396,112.83656,1677781826699,,,1216632837736453,1.8458223,Bike
Fix,GPS,37.4255166928,-122.1694586648,10.32259127873011,1.7507573,6.539465,127.486435,1677781825999,0.40715674,13.203683,1216632867824000,5.16723,Bike
Fix,FLP,37.4255071,-122.169431,5.422164513250323,1.9036554,10.523,134.27138,1677781827242,,,1216633380307315,1.8547423,Bike
Fix,GPS,37.4255028747,-122.1694484731,10.13972578772651,1.007965,6.407105,181.39095,1677781826999,0.30501714,18.510159,1216633867667000,5.279542,Bike
Fix,FLP,37.4254979,-122.1694274,-0.6999999284744263,1.735007,10.564,160.04431,1677781827784,,,1216633922878482,1.8657423,Bike
Fix,GPS,37.4254931972,-122.1694549556,10.635109268763005,1.1640823,6.425421,220.62671,1677781827999,0.3193025,15.422827,1216634867802000,5.4498343,Bike
Fix,FLP,37.4254758,-122.1694381,-0.6999999284744263,1.032406,10.464,209.48358,1677781828870,,,1216635008020511,1.8757423,Bike
Fix,GPS,37.4254810138,-122.1694677259,10.87590665748085,1.1932348,6.587167,209.58707,1677781828999,0.3861816,18.184706,1216635867714000,5.6634674,Bike
Fix,FLP,37.4254719,-122.1694555,-11.168129366710794,1.1541467,10.693,222.75925,1677781829412,,,1216635550591495,1.8847322,Bike
Fix,NLP,37.4253891,-122.1694677,-1.3000000715255735,,29.691,,1677781829985,,,1216636123000000,1.0,Bike
Fix,FLP,37.4254687,-122.1694718,-17.836981763526722,1.1886129,10.517,223.14465,1677781829955,,,1216636093162539,1.6617712,Bike
Fix,GPS,37.4254635885,-122.1694800621,11.552410362446937,1.5668803,6.6964006,197.40868,1677781829999,0.32468975,11.560433,1216636867771000,5.847231,Bike
Fix,FLP,37.425459,-122.16949,-1.3000000715255735,1.217849,10.095,223.2485,1677781830497,,,1216636635733218,1.6687127,Bike
Fix,GPS,37.4254456509,-122.1694878713,11.316893228506864,0.96337783,6.9554176,197.40868,1677781830999,0.3447757,11.215398,1216637867904000,6.011219,Bike
Fix,FLP,37.4254414,-122.1695152,-1.3000000715255735,1.5723789,9.849,233.25064,1677781831582,,,1216637720863711,1.544085,Bike
Fix,GPS,37.4254287916,-122.1694904141,11.053157679089662,1.1059346,6.9473467,207.15941,1677781831999,0.35239562,17.385643,1216638867771000,6.183133,Bike
Fix,FLP,37.4254264,-122.1695419,-1.3000000715255735,1.005934,9.451,234.88335,1677781832668,,,1216638806017703,1.3818849,Bike
Fix,GPS,37.4254131507,-122.1694985228,10.152839961341025,1.1934075,7.021324,192.59128,1677781832999,0.34178948,16.387426,1216639867902000,6.3158646,Bike
Fix,FLP,37.4254149,-122.1695614,4.507544498310473,1.0843773,9.979,214.21097,1677781833753,,,1216639891160403,1.111938,Bike
Fix,FLP,37.4254085,-122.1695672,4.507544498310473,1.1686028,10.757,202.43077,1677781834295,,,1216640433731631,1.111938,Bike
Fix,GPS,37.4253952398,-122.1695025786,9.2727282153931,1.6202661,6.988492,183.00777,1677781833999,0.37941864,13.527067,1216640867745000,6.5015044,Bike
Fix,FLP,37.425404,-122.1695684,5.229761559534488,1.1863499,11.221,198.13466,1677781834838,,,1216640976299197,1.3944395,Bike
Fix,FLP,37.4253964,-122.169568,5.229761559534488,1.5795182,12.49,194.47398,1677781835380,,,1216641518874087,1.3944395,Bike
Fix,NLP,37.4249461,-122.1695037,-0.6000000238418579,,48.804,,1677781835733,,,1216641871000000,1.747476,Bike
Fix,GPS,37.4253737728,-122.1695059516,9.046195238196349,1.9350106,7.024871,186.0361,1677781834999,0.40046754,11.39403,1216641867801000,6.617599,Bike
Fix,FLP,37.4253974,-122.1695639,15.29042311271824,1.6064955,13.746,193.62764,1677781835923,,,1216642061444339,1.3416092,Bike
Fix,GPS,37.4253488724,-122.1695108388,8.907827959221082,1.9837891,7.094512,205.88603,1677781835999,0.38451046,10.859007,1216642867862000,6.7514358,Bike
Fix,FLP,37.4253779,-122.1695477,16.248021959064147,1.8790556,13.859,196.10164,1677781836467,,,1216642604015384,1.3515375,Bike
Fix,FLP,37.4253654,-122.1695398,16.248021959064147,1.9609028,14.073,202.29062,1677781837008,,,1216643146586123,1.3515375,Bike
Fix,GPS,37.4253230903,-122.1695219492,8.963241523761369,2.4490514,7.186236,213.41876,1677781836999,0.39252877,10.0,1216643867840000,6.876951,Bike
Fix,FLP,37.4253496,-122.1695372,16.248021959064147,1.9819093,14.147,203.06178,1677781837551,,,1216643689156985,1.3614274,Bike
Fix,FLP,37.4253322,-122.1695379,16.248021959064147,2.365322,14.262,212.76465,1677781838093,,,1216644231727969,1.3614274,Bike
Fix,GPS,37.4252988324,-122.1695378896,8.817399833920733,2.527272,7.3057747,199.84724,1677781837999,0.41679075,10.0,1216644867856000,7.0453277,Bike
Fix,FLP,37.4253201,-122.1695407,10.882401904053118,2.4344888,14.133,211.4232,1677781838636,,,1216644774298526,1.3714901,Bike
Fix,FLP,37.4253045,-122.1695452,10.882401904053118,2.5083919,14.216,193.6221,1677781839178,,,1216645316869571,1.3714901,Bike
Fix,FLP,37.425291,-122.1695447,10.882401904053118,2.4840708,14.009,174.07703,1677781839721,,,1216645859440371,1.3714901,Bike
Fix,GPS,37.4252702049,-122.1695371117,10.055392204374586,2.1370044,7.39151,157.98425,1677781838999,0.3446936,10.0,1216645867852000,7.132294,Bike
Fix,FLP,37.4252713,-122.1695381,6.553729364463521,2.1658387,13.886,154.44417,1677781840265,,,1216646402010440,1.381604,Bike
Fix,GPS,37.4252431803,-122.1695236078,9.96041430532124,2.4758973,7.2634144,170.09715,1677781839999,0.3344304,10.0,1216646867881000,7.136057,Bike
Fix,FLP,37.4252641,-122.1695334,7.54785527332961,2.1456578,13.362,157.02332,1677781840806,,,1216646944581241,1.3905839,Bike
Fix,NLP,37.4251094,-122.1693076,-1.1999999284744265,,40.078,,1677781840819,,,1216646957000000,1.0946026,Bike
Fix,FLP,37.4252442,-122.1695244,7.54785527332961,2.41751,12.749,172.79099,1677781841349,,,1216647487151858,1.3316576,Bike
Fix,GPS,37.425213093,-122.1695146819,7.9695351620347825,2.7510645,7.0128317,200.91681,1677781840999,0.30861294,10.0,1216647867916000,7.116328,Bike
Fix,FLP,37.4252378,-122.1695242,-1.1999999284744265,2.4228778,12.841,184.64928,1677781841892,,,1216648029721805,1.3427197,Bike
Fix,FLP,37.4252175,-122.1695243,-1.1999999284744265,2.6328845,12.833,210.42503,1677781842420,,,1216648558000000,1.3427197,Bike
Fix,GPS,37.4251813419,-122.1695211084,8.83639842690865,2.8669558,7.0663705,210.32423,1677781841999,0.32742903,10.0,1216648867916000,7.2858996,Bike
Fix,GPS,37.4251494354,-122.1695316031,8.74796122449903,2.3866777,7.019845,205.50343,1677781842999,0.29538128,10.0,1216649868236000,7.3216906,Bike
Fix,FLP,37.4251844,-122.1695382,16.643881470494318,2.853177,12.875,208.77776,1677781843519,,,1216649657432376,1.3626577,Bike
Fix,FLP,37.4251667,-122.1695414,16.643881470494318,2.4789083,12.795,202.63878,1677781844061,,,1216650199990725,1.3626577,Bike
Fix,FLP,37.4251527,-122.1695433,16.643881470494318,2.4009624,12.688,191.42041,1677781844583,,,1216650720000000,1.3626577,Bike
Fix,GPS,37.4251251833,-122.1695379172,8.0043379001283,1.081752,7.2364216,154.23177,1677781843999,0.38625973,21.199835,1216650867954000,7.4910083,Bike
Fix,FLP,37.4251293,-122.1695417,10.255552786465351,1.2289109,12.403,157.24341,1677781845124,,,1216651262891788,1.3726476,Bike
Fix,GPS,37.4251078864,-122.1695182897,7.023091517492807,2.317484,7.3127074,95.210686,1677781844999,0.33899122,10.0,1216651867960000,7.526313,Bike
Fix,FLP,37.4251244,-122.1695375,-3.966900579032938,1.0162618,12.356,123.20783,1677781845689,,,1216651827711673,1.3817877,Bike
Fix,FLP,37.4251168,-122.1695255,-3.966900579032938,2.1150432,12.215,88.15025,1677781846232,,,1216652370280948,1.3817877,Bike
Fix,FLP,37.4251142,-122.1695098,-3.966900579032938,2.2859054,12.138,83.95598,1677781846774,,,1216652912850467,1.3817877,Bike
Fix,GPS,37.4250999531,-122.1694715331,7.516283270436638,3.225066,7.520449,97.742676,1677781845999,0.33290917,10.0,1216652867990000,7.49131,Bike
Fix,FLP,37.4251102,-122.1694791,10.920440360991776,3.0886788,12.294,99.2156,1677781847317,,,1216653455417117,1.3926376,Bike
Fix,GPS,37.4250879577,-122.1694218101,8.197086281239045,4.0068216,7.538302,108.94088,1677781846999,0.33231127,10.0,1216653867981000,7.4243307,Bike
Fix,FLP,37.4251069,-122.1694702,-5.4699364486882445,3.1727464,12.452,101.35232,1677781847859,,,1216653997988650,1.4026376,Bike
Fix,FLP,37.425097,-122.1694355,-5.4699364486882445,3.8556917,12.512,106.077255,1677781848402,,,1216654540559207,1.4026376,Bike
Fix,GPS,37.4250744383,-122.1693675313,8.049326948184307,3.8694499,7.212489,110.183266,1677781847999,0.3421852,10.0,1216654868017000,7.1733637,Bike
Fix,FLP,37.4250891,-122.169413,-1.1999999284744265,3.9693198,12.557,108.183426,1677781848938,,,1216655076000000,1.4126576,Bike
Fix,FLP,37.4250743,-122.1693609,-1.1999999284744265,3.8910942,12.789,107.04461,1677781849487,,,1216655625695254,1.4126576,Bike
Fix,GPS,37.425065854,-122.1693276996,7.939397720269807,3.7576854,7.4677124,108.59226,1677781848999,0.5073581,10.0,1216655868034000,7.16618,Bike
Fix,FLP,37.4250662,-122.1693316,-1.1999999284744265,3.7785954,12.815,107.85016,1677781850030,,,1216656168256473,1.4217776,Bike
Fix,FLP,37.4250604,-122.169313,-1.1999999284744265,3.746451,12.873,110.98901,1677781850572,,,1216656710831912,1.4217776,Bike
Fix,GPS,37.4250559065,-122.1692890112,8.152333388627822,3.7031024,7.5490522,120.96238,1677781849999,0.43401274,10.0,1216656868039000,7.1101103,Bike
Fix,FLP,37.4250515,-122.1692894,4.817711289304576,3.6709259,12.832,122.88528,1677781851115,,,1216657253400637,1.4326476,Bike
Fix,GPS,37.4250324404,-122.1692517249,7.455663630740809,3.9260051,7.420184,143.99739,1677781850999,0.44808814,10.0,1216657868027000,6.966895,Bike
Fix,FLP,37.4250441,-122.1692787,13.945806573823734,3.710788,12.925,138.90347,1677781851657,,,1216657795967837,1.4416376,Bike
Fix,GPS,37.4249996427,-122.1692301216,7.191737531665761,3.9920208,7.5458155,160.6085,1677781851999,0.5029713,10.0,1216658868059000,6.939115,Bike
Fix,FLP,37.4250199,-122.1692558,14.114759846491149,3.9416258,12.847,162.16217,1677781852743,,,1216658881092898,1.4526377,Bike
Fix,GPS,37.4249607873,-122.1692226948,5.7485893713470855,4.438898,7.348157,189.08727,1677781852999,0.37850094,10.0,1216659868047000,6.909161,Bike
Fix,FLP,37.424986,-122.1692407,7.281695877298681,3.9853282,12.768,175.86519,1677781853828,,,1216659966238406,1.4626477,Bike
Fix,FLP,37.4249503,-122.1692332,7.281695877298681,4.350862,12.692,185.12169,1677781854370,,,1216660508805606,1.4626477,Bike
Fix,GPS,37.4249163344,-122.1692324329,6.040384062806636,3.9245079,7.225814,192.33449,1677781853999,0.36579055,10.0,1216660868389000,6.932617,Bike
Fix,FLP,37.4249484,-122.1692316,13.564278873361973,4.3924336,12.689,185.43005,1677781854913,,,1216661051372928,1.4726377,Bike
Fix,GPS,37.4248724353,-122.1692358047,6.893669997602454,3.2401702,7.067315,188.3516,1677781854999,0.32664528,10.0,1216661868096000,7.0261135,Bike
Fix,FLP,37.4249119,-122.1692334,15.01640842871802,4.0228214,12.603,188.12868,1677781855455,,,1216661593940066,1.4827477,Bike
Fix,FLP,37.4248849,-122.1692362,15.01640842871802,3.3599231,12.542,187.66217,1677781855998,,,1216662136493044,1.4827477,Bike
Fix,FLP,37.4248666,-122.1692372,15.01640842871802,3.2504222,12.448,179.78308,1677781856541,,,1216662679074405,1.4827477,Bike
Fix,GPS,37.424843122,-122.169237233,6.746257773539002,2.5873914,7.1798987,184.0664,1677781855999,0.45396438,10.100742,1216662868124000,7.143947,Bike
Fix,FLP,37.4248439,-122.169236,8.088818385026613,2.671219,12.313,176.84674,1677781857083,,,1216663221641727,1.4918576,Bike
Fix,FLP,37.4248333,-122.1692346,8.088818385026613,2.5741668,12.246,164.14284,1677781857626,,,1216663764208377,1.4918576,Bike
Fix,GPS,37.4248151737,-122.1692275157,5.767410357036184,2.396151,7.477824,160.23346,1677781856999,0.52129304,12.992102,1216663868152000,7.2118382,Bike
Fix,FLP,37.424817,-122.1692282,8.088818385026613,2.417977,12.192,155.92015,1677781858168,,,1216664306775271,1.5026376,Bike
Fix,GPS,37.4247838573,-122.1691979205,6.055002098112194,2.759624,7.5995884,133.03973,1677781857999,0.38334358,10.0,1216664868229000,7.26841,Bike
Fix,FLP,37.4248074,-122.169223,4.446731180365845,2.3983755,12.168,151.81047,1677781858711,,,1216664849341983,1.5127076,Bike
Fix,FLP,37.42479,-122.1692076,4.446731180365845,2.6895921,12.21,133.6175,1677781859253,,,1216665391908877,1.5127076,Bike
Fix,GPS,37.4247599117,-122.1691619883,6.949254782994457,2.9039564,7.5938373,126.1426,1677781858999,0.34935015,10.0,1216665868164000,7.358211,Bike
Fix,FLP,37.4247792,-122.1691923,4.446731180365845,2.753495,12.267,124.8444,1677781859796,,,1216665934478092,1.5127076,Bike
Fix,FLP,37.4247602,-122.1691581,-3.872224165845197,2.888167,12.452,123.767815,1677781860340,,,1216666477041690,1.5226476,Bike
Fix,GPS,37.4247417099,-122.1691288063,6.139692859808679,3.0343194,7.637065,136.9266,1677781859999,0.3152982,10.0,1216666868132000,7.438245,Bike
Fix,FLP,37.4247575,-122.1691538,-4.707061441463672,2.8984778,12.488,127.46665,1677781860881,,,1216667019608096,1.5317976,Bike
Fix,FLP,37.4247428,-122.1691322,-4.707061441463672,3.0162556,12.563,144.60847,1677781861424,,,1216667562174136,1.5317976,Bike
Fix,GPS,37.4247219669,-122.1691028055,5.157571832025607,2.6901748,7.8173056,148.70825,1677781860999,0.38186985,10.0,1216667868201000,7.455575,Bike
Fix,FLP,37.4247275,-122.1691167,-1.1999999284744265,2.7961752,12.789,148.88889,1677781861966,,,1216668104740359,1.5427777,Bike
Fix,GPS,37.4246996025,-122.1690836826,4.9831757684229,2.748351,7.726188,144.67982,1677781861999,0.40067327,10.0,1216668868197000,7.6409783,Bike
Fix,FLP,37.4247106,-122.1691019,-1.1999999284744265,2.710361,13.004,152.39516,1677781862509,,,1216668647306277,1.5526376,Bike
Fix,FLP,37.4246994,-122.1690915,-1.1999999284744265,2.7320924,13.122,144.05629,1677781863051,,,1216669189868472,1.5526376,Bike
Fix,FLP,37.42469,-122.1690809,-1.1999999284744265,2.7412155,13.226,133.57355,1677781863594,,,1216669732438541,1.5526376,Bike
Fix,GPS,37.4246748625,-122.1690620849,6.605964003350944,2.3697567,7.9254274,127.26356,1677781862999,0.39705533,10.0,1216669868198000,7.8207674,Bike
Fix,GPS,37.424658547,-122.1690320856,6.601823023710688,2.9788623,8.190669,104.48606,1677781863999,0.45692438,10.0,1216670868175000,7.972398,Bike
Fix,FLP,37.4246705,-122.169053,-1.1999999284744265,2.4070258,13.254,116.20991,1677781864679,,,1216670817570254,1.5716376,Bike
Fix,FLP,37.4246617,-122.1690301,-1.1999999284744265,2.895666,13.244,106.00334,1677781865223,,,1216671360136172,1.5716376,Bike
Fix,GPS,37.4246501557,-122.1689959298,6.347488002315156,3.0746305,8.47329,101.47518,1677781864999,0.48825988,10.0,1216671868176000,8.123883,Bike
Fix,FLP,37.4246601,-122.1690229,-1.1999999284744265,2.9570477,13.319,102.879105,1677781865764,,,1216671902702029,1.5816376,Bike
Fix,GPS,37.4246436986,-122.168951594,6.308199144030875,3.1478074,8.489962,101.36916,1677781865999,0.45125163,10.0,1216672868525000,8.265858,Bike
Fix,FLP,37.4246533,-122.1689881,-1.1999999284744265,3.06338,13.668,99.89498,1677781866849,,,1216672987837100,1.5926276,Bike
Fix,GPS,37.4246331099,-122.1689069089,6.409694500484464,2.6000295,8.508593,100.38255,1677781866999,0.49168774,10.0,1216673868252000,8.353328,Bike
Fix,FLP,37.4246459,-122.1689476,-1.1999999284744265,3.1418474,13.818,101.065575,1677781867934,,,1216674072966006,1.6026477,Bike
Fix,GPS,37.4246267746,-122.1688746121,6.231489056999444,2.0242505,8.616766,101.85771,1677781867999,0.46017718,10.9615755,1216674868309000,8.497687,Bike
Fix,FLP,37.4246376,-122.1689049,-1.1999999284744265,2.6547804,14.034,102.3279,1677781868478,,,1216674615529422,1.6129831,Bike
Fix,GPS,37.4246211447,-122.168846533,6.15227937401038,2.1576042,8.730724,95.94636,1677781868999,0.49911764,13.067051,1216675868234000,8.618613,Bike
Fix,FLP,37.4246294,-122.1688721,-1.1999999284744265,2.0828688,14.294,105.08252,1677781869562,,,1216675700665164,1.6219131,Bike
Fix,GPS,37.4246111085,-122.168818693,7.226772547035328,2.1651535,8.879639,101.59944,1677781869999,0.48410892,11.968231,1216676868277000,8.774121,Bike
Fix,FLP,37.4246231,-122.1688437,-1.1999999284744265,2.1408033,14.783,86.685875,1677781870647,,,1216676785798404,1.632923,Bike
Fix,GPS,37.4246043937,-122.168785808,7.272409378766713,2.4858553,8.944786,97.32487,1677781870999,0.49931985,10.822604,1216677868281000,9.006384,Bike
Fix,FLP,37.4246196,-122.1688141,16.828114718204507,2.1487966,14.925,100.99333,1677781871732,,,1216677870930789,1.6429031,Bike
Fix,GPS,37.4245963254,-122.1687329748,8.546980044681801,2.9006975,8.630388,94.3006,1677781871999,0.5000458,10.0,1216678868336000,9.218913,Bike
Fix,FLP,37.4246123,-122.1687805,17.964054677843,2.4571788,15.076,102.62678,1677781872818,,,1216678956065555,1.652973,Bike
Fix,FLP,37.4246032,-122.1687372,17.964054677843,2.8507721,15.174,97.30715,1677781873360,,,1216679498632998,1.652973,Bike
Fix,GPS,37.424593479,-122.1686958539,8.20113071062096,2.5376515,8.5036335,105.990166,1677781872999,0.4377604,10.0,1216679868313000,9.318851,Bike
Fix,FLP,37.4246018,-122.1687286,-4.493930107955258,2.8757565,15.104,96.33026,1677781873903,,,1216680041188663,1.6629231,Bike
Fix,GPS,37.4245901841,-122.1686768553,7.280060717312551,2.8323781,7.823284,107.49231,1677781873999,0.4136769,10.0,1216680868357000,9.364873,Bike
Fix,FLP,37.4245976,-122.1686908,-4.493930107955258,2.6063464,14.963,101.3136,1677781874445,,,1216680583769412,1.671923,Bike
Fix,FLP,37.4245898,-122.1686602,-4.817928110240558,2.8011398,14.838,108.428474,1677781875530,,,1216681668902774,1.681933,Bike
Fix,NLP,37.424389,-122.1689754,0.1999999582767486,,27.086,,1677781875763,,,1216681900000000,4.111709,Bike
Fix,GPS,37.4245827502,-122.1686457031,7.844571416207861,3.9560585,7.2039657,107.19206,1677781874999,0.3652071,10.0,1216681868353000,9.3205185,Bike
Fix,FLP,37.4245821,-122.1686398,-4.817928110240558,3.7680798,14.403,106.58732,1677781876073,,,1216682211470157,1.3904855,Bike
Fix,GPS,37.4245714095,-122.168590989,7.990257057579178,4.349474,6.324416,104.42315,1677781875999,0.037672687,10.0,1216682868369000,8.613135,Bike
Fix,FLP,37.4245784,-122.1686234,-1.1999999284744265,3.918711,14.18,105.7731,1677781876616,,,1216682754037539,1.4472461,Bike
Fix,FLP,37.4245708,-122.1685921,-1.1999999284744265,4.2964497,13.761,103.78133,1677781877124,,,1216683262891788,1.4472461,Bike
Fix,GPS,37.4245601768,-122.1685396153,7.848327290852289,4.7518272,6.1959066,103.947815,1677781876999,0.29701355,10.0,1216683868405000,8.326605,Bike
Fix,FLP,37.4245683,-122.1685811,-1.1999999284744265,4.3371725,13.35,103.39647,1677781877701,,,1216683839172488,1.457416,Bike
Fix,FLP,37.4245617,-122.1685473,-1.1999999284744265,4.684929,12.943,102.95357,1677781878243,,,1216684381740054,1.457416,Bike
Fix,FLP,37.4245567,-122.1685193,-1.1999999284744265,4.736347,12.544,102.86336,1677781878786,,,1216684924307254,1.457416,Bike
Fix,GPS,37.4245554716,-122.1684770927,8.131338615456055,4.745124,5.7542257,100.53741,1677781877999,0.08074516,10.0,1216684868683000,7.8766527,Bike
Fix,GPS,37.4245503186,-122.1684291356,8.065715722431296,4.590829,5.8594646,102.67973,1677781878999,0.32883358,10.0,1216685868430000,7.600255,Bike
Fix,FLP,37.4245457,-122.1684512,0.1999999582767486,4.767603,11.857,99.908775,1677781879871,,,1216686009441348,1.4894983,Bike
Fix,FLP,37.4245416,-122.1684005,0.1999999582767486,4.613933,11.173,99.12491,1677781880414,,,1216686552008426,1.4894983,Bike
Fix,GPS,37.424545826,-122.1683777501,8.05954720283233,4.6373982,6.033613,105.44665,1677781879999,0.3958292,10.0,1216686868625000,7.45943,Bike
Fix,FLP,37.4245389,-122.1683519,0.1999999582767486,4.6293454,10.71,99.63534,1677781881500,,,1216687637142703,1.5005082,Bike
Fix,GPS,37.4245404093,-122.1683252814,7.903589998703554,4.6466327,6.1632013,96.48732,1677781880999,0.4005909,10.0,1216687868450000,7.237322,Bike
Fix,FLP,37.4245383,-122.1683117,0.1999999582767486,4.647693,10.423,97.18299,1677781882041,,,1216688179709659,1.5105082,Bike
Fix,GPS,37.4245401017,-122.1682724871,7.754026062848446,4.566538,6.3270392,89.82505,1677781881999,0.4186229,10.0,1216688868447000,7.0751753,Bike
