Fix,Provider,LatitudeDegrees,LongitudeDegrees,AltitudeMeters,SpeedMps,AccuracyMeters,BearingDegrees,UnixTimeMillis,SpeedAccuracyMps,BearingAccuracyDegrees,elapsedRealtimeNanos,VerticalAccuracyMeters,TransitType
Fix,GPS,37.4212894263,-122.1586160442,5.80285797287318,0.0,47.85984,,1677171233130,1.271111,,606030778892738,77.61821,Bike
Fix,FLP,37.4214464,-122.1587458,-5.493575503329204,0.08200857,14.308,,1677171235420,,,606030778892738,1.7659377,Bike
Fix,NLP,37.4215432,-122.1586833,-7.999999523162842,,14.375,,1677171237331,,,606032688000000,1.8612884,Bike
Fix,FLP,37.4214453,-122.1587436,-5.338963850799477,0.022233365,19.558,,1677171237331,,,606032688000000,1.7919555,Bike
Fix,FLP,37.421444,-122.1587407,-5.183628863259425,0.027997188,27.88,,1677171238467,,,606033824256552,1.7964239,Bike
Fix,FLP,37.4214433,-122.1587387,-5.183628863259425,0.041588064,32.315,,1677171239009,,,606034366779562,1.7964239,Bike
Fix,FLP,37.4214425,-122.1587365,-7.999999523162842,0.059586026,36.77,,1677171239551,,,606034909302511,1.8144484,Bike
Fix,FLP,37.4214416,-122.1587339,-7.999999523162842,0.08267219,41.18,,1677171240094,,,606035451826193,1.8144484,Bike
Fix,FLP,37.4214405,-122.1587306,-2.537417932277574,0.11307824,48.776,108.2228,1677171240603,,,606035961265036,1.8076435,Bike
Fix,FLP,37.4214395,-122.1587276,-2.537417932277574,0.14566174,53.516,108.92377,1677171241179,,,606036536870687,1.8076435,Bike
Fix,FLP,37.4214383,-122.1587234,-7.999999523162842,0.18389781,58.268,109.372574,1677171242270,,,606037627000000,1.7727557,Bike
Fix,NLP,37.4216633,-122.1587622,-8.5,,28.202,,1677171242339,,,606037696000000,1.6913548,Bike
Fix,FLP,37.4214704,-122.1587163,-8.5,0.51365083,54.499,27.646267,1677171242807,,,606038164443563,1.928013,Bike
Fix,FLP,37.4215002,-122.1587139,-8.5,0.91079754,50.818,14.974672,1677171243892,,,606039249489279,1.9413396,Bike
Fix,FLP,37.4215245,-122.1587131,-8.5,1.2085563,45.775,10.420598,1677171244435,,,606039792011678,1.9413396,Bike
Fix,FLP,37.4215407,-122.158714,-13.349530313440557,1.406711,43.664,7.888676,1677171244977,,,606040334524373,1.9345021,Bike
Fix,GPS,37.4216135936,-122.1588572788,-7.822093521564675,0.0,12.611462,,1677171243130,0.8348889,,606040839091921,17.142345,Bike
Fix,FLP,37.4215518,-122.1587152,-13.349530313440557,1.5416117,40.244,6.3063655,1677171245520,,,606040877055868,1.9135318,Bike
Fix,GPS,37.4217072102,-122.1588055623,-1.5161511905968847,0.0,15.712145,,1677171244130,0.8727244,,606041846613772,19.711227,Bike
Fix,FLP,37.4215558,-122.1587214,-10.981204994146085,0.5628946,33.229,0.0020712335,1677171246062,,,606041419574667,1.9779716,Bike
Fix,FLP,37.4215604,-122.1587244,-10.981204994146085,0.34352106,32.41,0.00020889184,1677171246604,,,606041961265036,1.9779716,Bike
Fix,FLP,37.421566,-122.1587266,-10.981204994146085,0.2184263,31.775,359.96603,1677171247147,,,606042504618124,1.9779716,Bike
Fix,NLP,37.4217099,-122.1586391,-9.200000762939451,,25.346,,1677171247385,,,606042742000000,1.145023,Bike
Fix,GPS,37.4217194307,-122.1587835633,0.5344016729032863,0.0,37.895416,,1677171245130,0.9537395,,606042845151737,41.16695,Bike
Fix,FLP,37.4215894,-122.1587269,-9.200000762939451,0.037910506,25.29,,1677171247690,,,606043047138143,1.7675859,Bike
Fix,FLP,37.4215983,-122.1587228,-9.200000762939451,0.004297286,24.88,,1677171248232,,,606043589657675,1.7675859,Bike
Fix,GPS,37.421702394,-122.1587658264,-1.0125830045258664,0.0,19.108952,,1677171246130,0.8041735,,606043867169803,22.183191,Bike
Fix,FLP,37.4216115,-122.1587164,-4.799999713897705,0.007038066,24.116,,1677171248775,,,606044132169271,1.6455767,Bike
Fix,FLP,37.4216169,-122.1587128,-4.799999713897705,0.0099449465,23.692,,1677171249317,,,606044674696859,1.6455767,Bike
Fix,GPS,37.4216624208,-122.1587360091,-2.145203596829905,0.0,13.501435,,1677171247130,0.76411504,,606044870623092,16.250578,Bike
Fix,FLP,37.4216254,-122.1587066,-5.888415728369505,0.012069028,22.937,,1677171249859,,,606045217213583,1.7194197,Bike
Fix,FLP,37.4216287,-122.158703,-5.888415728369505,0.013494026,22.421,,1677171250402,,,606045759719381,1.7194197,Bike
Fix,GPS,37.4216643473,-122.158698829,-3.5802947305323976,0.0,12.721119,,1677171248130,0.68629575,,606045857952601,18.899292,Bike
Fix,FLP,37.4216338,-122.1586966,-5.994250026958493,0.013473562,21.28,,1677171250945,,,606046302248739,1.663284,Bike
Fix,FLP,37.4216355,-122.1586928,-5.994250026958493,0.01355411,21.098,,1677171251466,,,606046823000000,1.663284,Bike
Fix,GPS,37.421654805,-122.1586935314,-3.443491870917918,0.0,43.80846,,1677171249130,0.87903446,,606046841645594,65.96772,Bike
Fix,FLP,37.4216379,-122.158686,-5.843533623380591,0.011724333,20.278,,1677171252030,,,606047387271871,1.6161675,Bike
Fix,NLP,37.4215806,-122.1586407,-8.40000057220459,,14.474,,1677171252445,,,606047802000000,2.034065,Bike
Fix,FLP,37.4216391,-122.1586796,-4.573924213180085,0.00941049,19.434,,1677171252571,,,606047929798055,1.691792,Bike
Fix,GPS,37.4216472102,-122.1586824448,-3.6189005140412656,0.0,30.431952,,1677171250119,0.9722922,,606047883649501,55.05902,Bike
Fix,FLP,37.4216318,-122.1586676,-4.573924213180085,0.011346833,18.187,,1677171253114,,,606048472313925,1.6750869,Bike
Fix,GPS,37.4215631499,-122.1586649268,-15.325613921191463,0.0,28.325459,,1677171251119,20.0,,606048879085740,30.327538,Bike
Fix,FLP,37.4216161,-122.1586519,-8.40000057220459,0.029284272,16.871,,1677171254200,,,606049557343954,1.7195364,Bike
Fix,GPS,37.4215611254,-122.1586412467,-12.331568740714872,0.0,21.851107,,1677171252119,20.0,,606049872129320,21.537636,Bike
Fix,FLP,37.4216054,-122.1586468,-4.083417598320306,0.040053558,15.816,,1677171255285,,,606050642372457,1.7416672,Bike
Fix,GPS,37.4215687125,-122.1586638712,-9.502028551474591,0.0,17.414387,,1677171253999,0.49813882,,606051665122000,16.041979,Bike
Fix,FLP,37.4215985,-122.1586452,-4.289351472807798,0.05309143,14.978,,1677171256370,,,606051727399374,1.7957501,Bike
Fix,GPS,37.4215614343,-122.1586743404,-8.61626536233805,0.0,15.404695,,1677171254999,20.0,,606052665172000,14.595796,Bike
Fix,FLP,37.4215918,-122.1586438,-8.40000057220459,0.06116839,13.938,,1677171257455,,,606052812425192,2.0195544,Bike
Fix,NLP,37.4215852,-122.1586279,-8.40000057220459,,13.591,,1677171257418,,,606052775000000,1.4587585,Bike
Fix,GPS,37.4215553644,-122.1586718313,-7.53618774754636,0.0,13.850044,,1677171255999,20.0,,606053665182000,13.406291,Bike
Fix,FLP,37.421582,-122.1586394,-8.40000057220459,0.09187393,12.154,,1677171257997,,,606053354937582,1.9467341,Bike
Fix,GPS,37.4215560301,-122.1586637861,-7.051165459295735,0.0,13.456527,,1677171256999,20.0,,606054665183000,12.780888,Bike
Fix,FLP,37.4215782,-122.1586367,-8.40000057220459,0.06687883,11.877,,1677171259082,,,606054439952047,1.8756175,Bike
Fix,GPS,37.4215581546,-122.1586626521,-6.889514009976489,0.0,13.3577175,,1677171257999,0.73749334,,606055665215000,12.327356,Bike
Fix,FLP,37.4215758,-122.1586344,-8.40000057220459,0.043264244,11.615,,1677171260167,,,606055524985250,1.793403,Bike
Fix,GPS,37.4215611706,-122.1586579003,-7.308322520127862,0.0,12.989498,,1677171258999,0.5666823,,606056665465000,11.82863,Bike
Fix,FLP,37.4215747,-122.1586324,-8.40000057220459,0.025055274,11.157,,1677171261253,,,606056610007223,1.6491226,Bike
Fix,GPS,37.421563114,-122.1586539197,-7.667511171026945,0.0,14.2487,,1677171259999,0.88362736,,606057665537000,11.248151,Bike
Fix,FLP,37.4215743,-122.1586307,-8.40000057220459,0.013063147,10.634,,1677171262338,,,606057695031087,1.6351217,Bike
Fix,NLP,37.4215947,-122.1586248,-8.40000057220459,,12.799,,1677171262441,,,606057798000000,2.0286455,Bike
Fix,GPS,37.4215660474,-122.1586527218,-8.132799008724154,0.0,26.238323,,1677171260999,1.5539762,,606058665244000,10.977533,Bike
Fix,FLP,37.4215752,-122.1586272,-8.40000057220459,0.009199746,9.805,,1677171263422,,,606058780048178,1.5910697,Bike
Fix,GPS,37.421568055,-122.1586503118,-8.506646596377543,0.0,23.226519,,1677171261999,1.2861968,,606059665411000,10.781559,Bike
Fix,FLP,37.4215763,-122.1586255,-8.40000057220459,0.008814657,9.476,,1677171263965,,,606059322557760,1.6016109,Bike
Fix,GPS,37.4215702567,-122.1586472106,-8.716759633846053,0.0,15.541968,,1677171262999,0.9125489,,606060665241000,10.630135,Bike
Fix,FLP,37.421577,-122.1586241,-8.40000057220459,0.007903366,9.192,,1677171265050,,,606060407576071,1.7098966,Bike
Fix,GPS,37.421572835,-122.1586439363,-8.642392529755991,0.0,25.027649,,1677171263999,1.352745,,606061665511000,10.649599,Bike
Fix,FLP,37.4215775,-122.1586229,-8.40000057220459,0.006383929,8.935,,1677171266135,,,606061492583944,1.7491865,Bike
Fix,GPS,37.4215734263,-122.1586418381,-8.314383843290274,0.0,13.531663,,1677171264999,0.75706214,,606062665634000,10.503678,Bike
Fix,FLP,37.4215775,-122.1586221,-8.40000057220459,0.0035547933,8.734,,1677171267220,,,606062577608969,1.8119317,Bike
Fix,NLP,37.4215845,-122.1586228,-8.40000057220459,,12.884,,1677171267448,,,606062806000000,1.459324,Bike
Fix,GPS,37.4215723887,-122.1586410514,-8.239317151651612,0.0,13.591082,,1677171265999,0.85148025,,606063665333000,10.404186,Bike
Fix,FLP,37.4215774,-122.1586214,-8.40000057220459,0.0030947162,8.519,,1677171268305,,,606063662623861,1.6678293,Bike
Fix,GPS,37.4215504277,-122.1586589378,-7.455608248707467,0.0,12.910781,,1677171266999,0.5094189,,606064665337000,10.11425,Bike
Fix,FLP,37.4215772,-122.1586209,-8.40000057220459,0.006440102,8.486,,1677171269390,,,606064747638021,1.8881108,Bike
Fix,GPS,37.4215383592,-122.1586717659,-7.192546058171369,0.0,12.30025,,1677171267999,20.0,,606065665685000,9.844499,Bike
Fix,FLP,37.4215764,-122.1586207,-11.285004445884503,0.0060662515,8.499,,1677171270475,,,606065832651205,1.9416062,Bike
Fix,GPS,37.4215378049,-122.1586760757,-7.236101510868922,0.0,11.724833,,1677171268999,0.47623187,,606066665415000,9.661414,Bike
Fix,FLP,37.4215761,-122.1586211,-17.239821707891192,0.0035897375,8.479,,1677171271018,,,606066375156819,1.954363,Bike
Fix,GPS,37.4215361629,-122.15868319,-7.313659707999459,0.0,11.353807,,1677171269999,20.0,,606067665641000,9.480342,Bike
Fix,FLP,37.4215758,-122.1586213,-17.239821707891192,0.0026183112,8.421,,1677171272103,,,606067460169271,1.8691169,Bike
Fix,NLP,37.421582,-122.1586155,-7.799999713897705,,14.237,,1677171272530,,,606067887000000,2.27,Bike
Fix,GPS,37.4215348202,-122.1586881544,-7.091576264917983,0.0,10.960003,,1677171270999,0.45091635,,606068665361000,9.280393,Bike
Fix,FLP,37.4215753,-122.158621,-2.12832134392999,0.004104826,8.366,,1677171273188,,,606068545171652,1.6558312,Bike
Fix,GPS,37.4215352934,-122.1586885516,-6.970871730398239,0.0,10.708258,,1677171271999,20.0,,606069665559000,9.077772,Bike
Fix,FLP,37.4215664,-122.1586358,-0.88259375112915,0.16736335,8.769,228.86247,1677171274308,20.0,,606069665559000,1.6276283,Bike
Fix,GPS,37.4215427469,-122.1586898412,-6.754572149358684,0.0,10.443214,,1677171272999,20.0,,606070665426000,8.883525,Bike
Fix,FLP,37.4215588,-122.1586521,-2.688506658458877,0.39539114,9.008,235.28896,1677171275308,20.0,,606070665426000,1.5626726,Bike
Fix,GPS,37.4215458957,-122.1586937697,-7.379661479983858,0.0,10.184529,,1677171273999,20.0,,606071665466000,8.652764,Bike
Fix,FLP,37.4215529,-122.158669,-7.799999713897705,0.62281924,9.42,240.55081,1677171276308,20.0,,606071665466000,1.6334344,Bike
Fix,GPS,37.4215442767,-122.1587008594,-7.741611838349682,0.0,10.090555,,1677171274999,20.0,,606072665468000,8.545015,Bike
Fix,FLP,37.4215479,-122.1586852,-13.18974672268024,0.81020427,9.516,243.62714,1677171277308,20.0,,606072665468000,1.6513656,Bike
Fix,NLP,37.4215953,-122.1586304,-8.40000057220459,,12.821,,1677171277574,,,606072932000000,1.458844,Bike
Fix,FLP,37.4215468,-122.1586886,-13.03725135083311,0.83335626,11.894,243.96712,1677171277574,20.0,,606072932000000,1.7247708,Bike
Fix,GPS,37.4215465957,-122.1587104702,-8.084365013245874,0.0,9.945887,,1677171275999,20.0,,606073665575000,8.332622,Bike
Fix,FLP,37.4215451,-122.1587014,-15.683182352176065,0.9453028,13.625,248.55063,1677171278308,20.0,,606073665575000,1.7187829,Bike
Fix,GPS,37.4215449214,-122.1587070685,-7.384268951026919,0.0,9.667343,,1677171276999,20.0,,606074665703000,8.0893135,Bike
Fix,FLP,37.4215439,-122.1587107,-14.04785639515526,0.9137934,13.035,250.85092,1677171279307,20.0,,606074665703000,1.7574219,Bike
Fix,GPS,37.4215456921,-122.1587021693,-7.535679469605529,0.0,9.501192,,1677171277999,20.0,,606075665516000,7.9247046,Bike
Fix,FLP,37.4215435,-122.1587117,-10.569758160632896,0.7169859,12.267,250.5485,1677171280308,20.0,,606075665516000,1.7346345,Bike
Fix,FLP,37.4215536,-122.1586706,-10.569758160632896,0.024018917,11.726,,1677171280783,,,606076140236898,1.7346345,Bike
Fix,GPS,37.4215434271,-122.158693839,-6.775594872643481,0.0,9.260096,,1677171278999,20.0,,606076665585000,7.5418444,Bike
Fix,FLP,37.4215559,-122.1586602,-12.81156738325508,0.013473957,11.634,,1677171281325,,,606076682740072,1.7469305,Bike
Fix,GPS,37.421537186,-122.1586817012,-5.367529702623717,0.0,8.958723,,1677171279999,0.59963006,,606077665827000,7.123387,Bike
Fix,FLP,37.4215581,-122.1586506,-13.540467995764558,0.029594485,11.541,,1677171282410,,,606077767745199,1.984805,Bike
Fix,NLP,37.4215877,-122.1586276,-8.40000057220459,,13.345,,1677171282579,,,606077936000000,2.026627,Bike
Fix,GPS,37.4215326054,-122.1586815117,-4.899271753519102,0.0,8.92134,,1677171280999,0.52379626,,606078665560000,7.0472145,Bike
Fix,FLP,37.4215626,-122.1586385,-15.429882598358995,0.067260996,9.277,,1677171283495,,,606078852752157,1.9302534,Bike
Fix,GPS,37.4215302961,-122.1586808579,-4.780439912316215,0.0,8.984406,,1677171281999,0.61964697,,606079665523000,7.0368733,Bike
Fix,FLP,37.4215658,-122.1586325,-12.121290069490776,0.06369099,8.925,,1677171284038,,,606079395249349,1.8438184,Bike
Fix,GPS,37.4215270785,-122.1586803976,-4.8176550447118265,0.0,9.175269,,1677171282999,0.617551,,606080665593000,7.1070685,Bike
Fix,FLP,37.4215667,-122.1586315,-8.40000057220459,0.03825588,8.499,,1677171285123,,,606080480256185,1.7740192,Bike
Fix,FLP,37.4215672,-122.1586319,-8.40000057220459,0.017223004,8.203,,1677171286208,,,606081565260031,1.7740192,Bike
Fix,GPS,37.4215278881,-122.1586828475,-4.599857859373598,0.0,9.140414,,1677171283999,0.54562384,,606081665733000,7.1210876,Bike
Fix,GPS,37.4215304084,-122.1586806123,-4.143879677459373,0.0,9.229465,,1677171284999,0.51686925,,606082665576000,7.1524296,Bike
Fix,FLP,37.4215679,-122.1586333,-3.718823588886561,0.0016513243,8.186,,1677171287293,,,606082650263204,1.6836193,Bike
Fix,NLP,37.4215937,-122.1586296,-8.40000057220459,,12.576,,1677171287651,,,606083008000000,1.3826106,Bike
Fix,GPS,37.4215295692,-122.1586774956,-4.059699105904097,0.0,9.096574,,1677171285999,0.49867085,,606083665710000,7.040016,Bike
Fix,FLP,37.4215705,-122.1586348,-3.802234434040951,0.006349051,7.963,,1677171288377,,,606083735263448,1.5709325,Bike
Fix,GPS,37.4215281813,-122.1586760816,-3.968964901808164,0.0,9.130326,,1677171286999,0.5266179,,606084665602000,7.092762,Bike
Fix,FLP,37.4215728,-122.158635,-7.799999713897705,0.013506837,7.934,,1677171289463,,,606084820269125,1.5817724,Bike
Fix,FLP,37.4215745,-122.1586348,-7.799999713897705,0.016514437,7.873,,1677171290005,,,606085362770590,1.5817724,Bike
Fix,GPS,37.4215267326,-122.15867563,-3.543844455937199,0.0,9.171456,,1677171287999,0.5682957,,606085665674000,6.4921002,Bike
Fix,FLP,37.4215761,-122.1586348,-2.972767223461844,0.010478081,7.79,,1677171291049,,,606086407000000,1.6879542,Bike
Fix,GPS,37.4215281124,-122.1586760524,-3.7414977855708944,0.0,9.08149,,1677171288999,0.53584355,,606086665705000,6.382514,Bike
Fix,GPS,37.4215330582,-122.158680205,-4.0381651702115455,0.0,8.878517,,1677171289999,20.0,,606087665992000,6.2361274,Bike
Fix,FLP,37.4215775,-122.1586356,-5.485465932207578,0.008352193,7.66,,1677171292175,,,606087532774008,1.8295258,Bike
Fix,FLP,37.421578,-122.1586365,-5.485465932207578,0.00688371,7.553,,1677171292702,,,606088059000000,1.8295258,Bike
Fix,NLP,37.4216163,-122.1586907,-8.5,,22.24,,1677171292693,,,606088050000000,1.1004335,Bike
Fix,FLP,37.4215796,-122.1586386,-2.9243152185142023,0.013207276,7.607,,1677171293264,,,606088622000000,1.7528391,Bike
Fix,GPS,37.4215389646,-122.1586919875,-4.436346972839408,1.271672,8.783797,335.63254,1677171290999,0.45301607,18.285583,606088665815000,6.1928844,Bike
Fix,FLP,37.4215837,-122.158644,-2.3748851245815885,0.6506474,7.705,318.17786,1677171294332,,,606089689000000,1.7664278,Bike
Fix,GPS,37.4215460758,-122.1587106656,-4.958231448998913,1.514688,8.063023,326.4833,1677171291999,0.34648824,12.249464,606089665715000,6.112681,Bike
Fix,GPS,37.4215637538,-122.1587155596,-5.836685585351654,1.5473776,7.4284697,325.6877,1677171292999,0.39649445,12.974311,606090665861000,6.0581164,Bike
Fix,FLP,37.4215904,-122.1586521,11.544501725416405,1.0937035,7.851,332.5884,1677171295430,,,606090787777181,1.8743923,Bike
Fix,GPS,37.421586342,-122.1587160944,-6.799345103707058,2.1019008,6.979225,329.2909,1677171293999,0.42621067,10.0,606091665833000,6.0269485,Bike
Fix,FLP,37.4215949,-122.1586641,-2.809321177039589,1.2943914,8.482,330.26624,1677171295973,,,606091330263204,1.9244379,Bike
Fix,FLP,37.4215966,-122.1586741,-2.809321177039589,1.5143911,8.717,329.38586,1677171296515,,,606091872777181,1.9244379,Bike
Fix,FLP,37.4216017,-122.1586864,-2.809321177039589,1.6986794,8.914,328.43597,1677171297057,,,606092415274190,1.9244379,Bike
Fix,GPS,37.4216134677,-122.1587298317,-7.793281024491259,3.0036056,6.6308527,320.6497,1677171294999,0.4201478,10.0,606092665727000,6.0196967,Bike
Fix,NLP,37.4216584,-122.158801,-8.700000762939453,,20.741,,1677171297720,,,606093077000000,1.1067356,Bike
Fix,FLP,37.4216095,-122.1587046,5.669395113068191,2.0561295,9.567,324.43423,1677171297600,,,606092957776937,1.7474722,Bike
Fix,GPS,37.4216460506,-122.1587619566,-7.89622909543452,4.151859,6.3895063,316.77148,1677171295999,0.42008248,10.0,606093666064000,5.9749217,Bike
Fix,FLP,37.4216194,-122.1587224,31.784573719765547,2.2815568,10.003,321.57385,1677171298143,,,606093500276937,1.6665739,Bike
Fix,FLP,37.4216337,-122.1587396,31.784573719765547,2.6753201,10.016,318.9268,1677171298685,,,606094042776876,1.6665739,Bike
Fix,GPS,37.4216786337,-122.1588098052,-8.744079531809586,5.513071,6.201705,304.93842,1677171296999,0.41390863,10.0,606094666071000,5.9240274,Bike
Fix,FLP,37.4216434,-122.1587527,16.73596235944172,2.981297,10.189,316.47885,1677171299228,,,606094585276937,1.7038567,Bike
Fix,FLP,37.4216708,-122.1587957,16.73596235944172,3.7354503,10.727,309.04953,1677171300313,,,606095670276693,1.7038567,Bike
Fix,GPS,37.4217114503,-122.1588723785,-9.074770740695609,5.7685046,5.9676313,303.61462,1677171297999,0.389033,10.0,606095665797000,5.876085,Bike
Fix,GPS,37.4217518797,-122.1589307214,-9.19599356075493,5.536877,5.7058034,307.41183,1677171298999,0.4566351,10.0,606096665831000,5.816362,Bike
Fix,FLP,37.421732,-122.1589036,-17.804596771302947,5.5056877,10.155,306.07083,1677171301308,0.4566351,10.0,606096665831000,1.592288,Bike
Fix,GPS,37.4217900412,-122.1589867029,-8.792569059151683,5.4998827,5.4842052,308.838,1677171299999,0.3921087,10.0,606097665847000,5.760693,Bike
Fix,FLP,37.4217743,-122.1589683,-14.585758188715154,5.5233207,9.047,307.51242,1677171302308,0.3921087,10.0,606097665847000,1.6294718,Bike
Fix,GPS,37.4218219904,-122.1590383695,-8.463095450533968,5.194655,5.4586706,306.22327,1677171300999,0.42445636,10.0,606098665859000,5.7472277,Bike
Fix,FLP,37.4218118,-122.1590266,-16.79336864705533,5.309331,8.171,306.67737,1677171303308,0.42445636,10.0,606098665859000,1.6761323,Bike
Fix,GPS,37.4218547936,-122.1590936457,-8.992410353121574,5.4498634,5.333335,305.99063,1677171301999,0.33739942,10.0,606099666166000,5.6594663,Bike
Fix,FLP,37.4218468,-122.1590835,-11.19155520577772,5.428353,6.968,305.52542,1677171304309,0.33739942,10.0,606099666166000,1.7085752,Bike
Fix,GPS,37.4218874892,-122.1591560547,-9.01033817803863,5.462446,5.576484,308.0023,1677171302999,0.46571833,10.0,606100665838000,5.6992793,Bike
Fix,FLP,37.4218807,-122.1591429,-2.312753032269981,5.458737,6.341,307.19678,1677171305308,0.46571833,10.0,606100665838000,1.7655762,Bike
Fix,GPS,37.4219212897,-122.1592159334,-8.560234613394732,5.6887975,5.713675,310.45016,1677171303999,0.37554157,10.0,606101666151000,5.7152925,Bike
Fix,FLP,37.4219155,-122.159202,21.76035475408113,5.6213536,5.513,309.05707,1677171306309,0.37554157,10.0,606101666151000,1.8712915,Bike
Fix,GPS,37.4219580739,-122.159268715,-8.58507582518229,6.0040045,5.9195065,311.98712,1677171304999,0.3634421,10.0,606102665870000,5.725459,Bike
Fix,FLP,37.4219523,-122.1592586,10.911235037929885,5.880535,5.6,310.30124,1677171307308,0.3634421,10.0,606102665870000,1.8387492,Bike
Fix,GPS,37.4219976308,-122.1593187112,-8.59786143162756,5.4796224,6.0034275,315.1629,1677171305999,0.32635242,10.0,606103666294000,5.7257524,Bike
Fix,FLP,37.4219911,-122.1593121,2.8789584879339003,5.6072626,5.709,313.51837,1677171308309,0.32635242,10.0,606103666294000,1.869143,Bike
Fix,GPS,37.4220381092,-122.1593610785,-8.428615665699722,5.567612,5.883494,316.40228,1677171306999,0.34228954,10.0,606104665949000,5.6783967,Bike
Fix,FLP,37.4220312,-122.159359,2.8789584879339003,5.586842,5.738,315.24878,1677171309308,0.34228954,10.0,606104665949000,2.0714564,Bike
Fix,GPS,37.4220747916,-122.1594098725,-8.550047940924616,5.7401614,5.7221556,316.89316,1677171307999,0.29829797,10.0,606105666004000,5.607874,Bike
Fix,FLP,37.4220705,-122.1594064,-3.808439375924433,5.696758,5.848,315.7805,1677171310309,0.29829797,10.0,606105666004000,2.0234206,Bike
Fix,GPS,37.4221144429,-122.1594550334,-8.281030108847956,5.7064633,5.608441,317.6361,1677171308999,0.32444412,10.0,606106665907000,5.5474005,Bike
Fix,FLP,37.4221104,-122.1594528,2.8789584879339003,5.7090173,5.808,316.6244,1677171311308,0.32444412,10.0,606106665907000,1.9662546,Bike
Fix,GPS,37.4221577885,-122.1594958121,-7.911844234596523,5.9012637,5.4451523,317.4315,1677171309999,0.29096252,10.0,606107666001000,5.516616,Bike
Fix,FLP,37.4221524,-122.1594968,21.219543496573223,5.842305,5.732,316.94818,1677171312309,0.29096252,10.0,606107666001000,1.9915186,Bike
Fix,GPS,37.4222021137,-122.159539012,-7.715441671514377,5.9494615,5.456418,316.745,1677171310999,0.30098242,10.0,606108665996000,5.4700503,Bike
Fix,FLP,37.4221958,-122.1595409,21.76183369740157,5.917566,5.686,316.38184,1677171313308,0.30098242,10.0,606108665996000,1.8274521,Bike
Fix,GPS,37.4222431901,-122.1595884505,-7.18739148925817,5.9661665,5.5709615,315.98755,1677171311999,0.37198362,10.0,606109666320000,5.466098,Bike
Fix,FLP,37.422238,-122.159588,18.467111452053807,5.954593,5.56,315.50885,1677171314308,0.37198362,10.0,606109666320000,1.8655133,Bike
Fix,GPS,37.4222823565,-122.1596371489,-6.90260317264447,6.1800127,5.6909504,317.4188,1677171312999,0.37062037,10.0,606110666024000,5.479941,Bike
Fix,FLP,37.4222792,-122.1596361,19.76557785144498,6.105967,5.554,316.53146,1677171315309,0.37062037,10.0,606110666024000,1.8307474,Bike
Fix,GPS,37.4223211426,-122.1596872187,-6.737767430010158,6.1337886,5.7969127,317.27838,1677171313999,0.3481793,10.0,606111666150000,5.482696,Bike
Fix,FLP,37.42232,-122.1596851,11.871789265176652,6.1273303,5.592,316.83463,1677171316309,0.3481793,10.0,606111666150000,1.783768,Bike
Fix,GPS,37.4223619414,-122.1597327924,-6.477305450282871,6.1065073,5.907491,315.55743,1677171314999,0.37762403,10.0,606112666072000,5.5401335,Bike
Fix,FLP,37.4223607,-122.1597329,17.723736354202757,6.114619,5.684,315.6482,1677171317309,0.37762403,10.0,606112666072000,1.7852882,Bike
Fix,GPS,37.4224019567,-122.1597822294,-6.049768575836388,6.4996576,5.9997807,316.6745,1677171315999,0.4191419,10.0,606113666284000,5.586884,Bike
Fix,FLP,37.4224013,-122.1597822,2.538483778090338,6.355563,5.793,315.89844,1677171318309,0.4191419,10.0,606113666284000,1.8820834,Bike
Fix,GPS,37.422447787,-122.1598310996,-5.730057440422399,6.4812937,6.113779,317.08157,1677171316999,0.36116982,10.0,606114666048000,5.619693,Bike
Fix,FLP,37.4224448,-122.1598318,14.75259629526181,6.439488,5.846,316.64917,1677171319309,0.36116982,10.0,606114666048000,1.9223543,Bike
Fix,GPS,37.4224945022,-122.1598860798,-5.333759826818727,6.728043,6.177862,317.82373,1677171317999,0.3768707,10.0,606115666079000,5.6652265,Bike
Fix,FLP,37.4224903,-122.1598839,2.661280767748956,6.6250005,5.999,316.91162,1677171320309,0.3768707,10.0,606115666079000,1.9951469,Bike
Fix,GPS,37.4225436768,-122.1599385522,-4.996164121316226,6.599601,6.067192,318.06686,1677171318999,0.34903818,10.0,606116666427000,5.6547346,Bike
Fix,FLP,37.422538,-122.1599364,6.034724576286813,6.618358,6.053,317.6246,1677171321309,0.34903818,10.0,606116666427000,2.0079274,Bike
Fix,GPS,37.4225873079,-122.1599859151,-5.45619018558891,6.2076936,5.9726696,320.26154,1677171319999,0.33425808,10.0,606117666141000,5.6632323,Bike
Fix,FLP,37.422584,-122.1599855,-8.700000762939453,6.3542337,6.066,319.074,1677171322309,0.33425808,10.0,606117666141000,2.0204077,Bike
Fix,GPS,37.4226310271,-122.16002964,-5.912158456664025,6.1194386,6.0523496,318.22568,1677171320999,0.3413718,10.0,606118666108000,5.6932096,Bike
Fix,FLP,37.4226284,-122.1600313,-1.4769036896743015,6.1984215,6.064,318.38345,1677171323309,0.3413718,10.0,606118666108000,2.2281642,Bike
Fix,GPS,37.4226779211,-122.1600776327,-6.582172829603271,6.0751486,5.437337,318.3884,1677171321999,0.08005977,10.0,606119666464000,5.234807,Bike
Fix,FLP,37.4226735,-122.1600777,-8.700000762939453,6.117408,5.941,318.13934,1677171324309,0.08005977,10.0,606119666464000,2.1847937,Bike
Fix,GPS,37.4227189337,-122.1601228773,-6.268346613197562,6.10892,5.7495704,316.8904,1677171322999,0.3994148,10.0,606120666199000,5.2193465,Bike
Fix,FLP,37.4227161,-122.1601238,0.7952548167667217,6.1126084,5.855,316.78906,1677171325309,0.3994148,10.0,606120666199000,2.2044,Bike
Fix,GPS,37.4227585105,-122.1601668278,-6.252874232522366,6.043241,5.9765735,318.06976,1677171323999,0.41712624,10.0,606121666220000,5.2118444,Bike
Fix,FLP,37.4227576,-122.1601686,17.50888844158493,6.045459,5.876,317.96408,1677171326309,0.41712624,10.0,606121666220000,2.142939,Bike
Fix,NLP,37.4226659,-122.1601675,-7.700000286102295,,22.951,,1677171326488,,,606121845000000,1.2377603,Bike
Fix,FLP,37.422763,-122.160174,9.944802599033425,6.042351,6.248,317.9713,1677171326488,0.41712624,10.0,606121845000000,1.7620394,Bike
Fix,GPS,37.4228010963,-122.160210387,-6.193869116700326,6.1449356,6.223856,317.70505,1677171324999,0.44252497,10.0,606122666439000,5.221447,Bike
Fix,FLP,37.4227991,-122.160211,0.2347430088389188,6.142422,6.29,317.04202,1677171327309,0.44252497,10.0,606122666439000,1.6892442,Bike
Fix,GPS,37.4228438389,-122.1602586368,-6.094934462999033,6.126246,6.218095,316.09805,1677171325999,0.4053892,10.0,606123666499000,5.2068815,Bike
Fix,FLP,37.4228421,-122.1602586,12.524465053842455,6.126773,6.317,316.03217,1677171328309,0.4053892,10.0,606123666499000,1.7202646,Bike
Fix,GPS,37.4228867303,-122.1603081687,-5.9847498083688855,6.1739864,6.249325,316.9621,1677171326999,0.38160613,3.3681495,606124666275000,5.2612486,Bike
Fix,FLP,37.4228848,-122.1603076,6.079579880066433,6.1737275,6.308,316.00043,1677171329309,0.38160613,3.3681495,606124666275000,1.5630666,Bike
Fix,GPS,37.4229343199,-122.1603548629,-5.7096308905235045,6.226036,6.1792874,317.10623,1677171327999,0.46560532,4.1056724,606125666269000,5.253213,Bike
Fix,FLP,37.4229306,-122.1603554,6.079579880066433,6.2255316,6.524,316.99048,1677171330309,0.46560532,4.1056724,606125666269000,1.57891,Bike
Fix,GPS,37.4229801389,-122.1603989716,-5.298834721699093,6.3318324,6.256873,318.85504,1677171328999,0.51890177,4.4738364,606126666273000,5.3329663,Bike
Fix,FLP,37.4229767,-122.1604008,11.949051307908462,6.330555,6.571,317.98843,1677171331309,0.51890177,4.4738364,606126666273000,1.5888611,Bike
Fix,GPS,37.4230259914,-122.1604440752,-5.3501627256711926,6.2913876,6.1912365,321.36526,1677171329999,0.4887158,4.2604704,606127666311000,5.425398,Bike
Fix,FLP,37.4230233,-122.1604459,-3.4503942370546845,6.2917075,6.219,320.968,1677171332308,0.4887158,4.2604704,606127666311000,1.6988204,Bike
Fix,GPS,37.4230681334,-122.1604916624,-5.66078961237156,5.7618127,6.178435,319.13525,1677171330999,0.48849326,4.662092,606128666300000,5.578326,Bike
Fix,FLP,37.4230678,-122.1604913,-12.439227482480202,5.7675138,6.212,319.02344,1677171333308,0.48849326,4.662092,606128666300000,1.6836005,Bike
Fix,GPS,37.4231088159,-122.1605319516,-5.319673024049756,5.775291,5.731282,319.42392,1677171331999,0.08735302,1.0,606129666320000,5.231124,Bike
Fix,FLP,37.4231081,-122.1605328,-7.700000286102295,5.7752876,6.107,319.00003,1677171334309,0.08735302,1.0,606129666320000,1.8476151,Bike
Fix,GPS,37.4231514561,-122.1605735571,-5.0835093014165,5.390691,5.9137697,321.28137,1677171332999,0.44826293,4.5409737,606130666258000,5.1807942,Bike
Fix,FLP,37.4231499,-122.1605744,-8.700000762939453,5.394161,6.075,320.98087,1677171335308,0.44826293,4.5409737,606130666258000,1.8476303,Bike
Fix,GPS,37.4231882729,-122.1606128232,-5.068307503253439,4.806461,6.0580893,323.41284,1677171333999,0.44574904,5.014228,606131666315000,5.1919065,Bike
Fix,FLP,37.423188,-122.1606128,-8.700000762939453,4.811644,6.014,322.98096,1677171336309,0.44574904,5.014228,606131666315000,1.8780401,Bike
Fix,GPS,37.4232176321,-122.1606463882,-5.097179858720485,4.022084,5.81259,320.0049,1677171334999,0.38714045,5.187752,606132666595000,5.1885123,Bike
Fix,FLP,37.4232194,-122.1606461,-7.700000286102295,4.0273347,5.938,320.02435,1677171337309,0.38714045,5.187752,606132666595000,2.1143768,Bike
Fix,GPS,37.4232388933,-122.1606793358,-4.868456783712894,3.3118658,5.6429234,305.70013,1677171335999,0.3379203,5.8773413,606133666513000,5.1893587,Bike
Fix,FLP,37.4232403,-122.1606758,-10.66108515837844,3.3163607,5.828,305.14005,1677171338309,0.3379203,5.8773413,606133666513000,2.0642595,Bike
Fix,GPS,37.4232433613,-122.1607140816,-5.326304078972967,2.5696783,5.6229153,279.06537,1677171336999,0.38895935,9.277327,606134666620000,5.246041,Bike
Fix,FLP,37.4232452,-122.1606999,-7.700000286102295,2.608319,5.768,281.90317,1677171339309,0.38895935,9.277327,606134666620000,2.080921,Bike
Fix,GPS,37.4232325679,-122.1607470512,-5.967122173115187,2.6706161,5.5492697,251.1116,1677171337999,0.41672394,9.28812,606135666398000,5.357197,Bike
Fix,FLP,37.4232409,-122.1607306,-7.700000286102295,2.540563,5.712,265.3264,1677171340309,0.41672394,9.28812,606135666398000,2.0297804,Bike
Fix,GPS,37.4232103342,-122.1607806786,-6.537713006363942,2.9095957,5.776827,226.56973,1677171338999,0.49707147,9.449684,606136666410000,5.5414762,Bike
Fix,FLP,37.423225,-122.1607629,11.149809883824766,2.8179066,5.656,230.83492,1677171341309,0.49707147,9.449684,606136666410000,1.9417758,Bike
Fix,GPS,37.4231737462,-122.1608120688,-6.545315468618597,3.6421313,5.995117,206.67795,1677171339999,0.5012658,7.1914268,606137666672000,5.68113,Bike
Fix,FLP,37.4231955,-122.160795,8.255845134719017,3.5329301,5.682,207.85371,1677171342309,0.5012658,7.1914268,606137666672000,1.781533,Bike
Fix,GPS,37.4231321542,-122.1608332949,-5.237512464578121,4.721807,6.3778343,201.94011,1677171340999,0.46954274,5.474385,606138666419000,5.8718534,Bike
Fix,FLP,37.423152,-122.1608229,8.255845134719017,4.68429,5.749,201.13686,1677171343309,0.46954274,5.474385,606138666419000,1.7806004,Bike
Fix,NLP,37.4228143,-122.160655,-6.700000286102295,,19.838,,1677171343286,,,606138643000000,2.2320268,Bike
Fix,GPS,37.4230778318,-122.1608612868,-4.28546512624354,4.7100964,6.155424,207.2047,1677171341999,0.426228,5.084115,606139666768000,5.89916,Bike
Fix,FLP,37.4230834,-122.1608578,8.215954855738978,4.710053,5.925,206.95074,1677171344309,0.426228,5.084115,606139666768000,1.5546612,Bike
Fix,GPS,37.4230295581,-122.160889681,-3.756537612839065,4.4298735,6.1422343,214.78526,1677171342999,0.4200764,5.24262,606140666460000,6.010832,Bike
Fix,FLP,37.4230398,-122.1608844,-1.6788978040762714,4.433412,5.988,213.8992,1677171345309,0.4200764,5.24262,606140666460000,1.5445106,Bike
Fix,GPS,37.4229839363,-122.1609189385,-3.862024518253556,4.3960924,5.819913,222.8141,1677171343999,0.3892509,4.846571,606141666820000,5.9121118,Bike
Fix,FLP,37.4230046,-122.1609078,4.344300075174715,4.399711,6.121,218.28688,1677171346309,0.3892509,4.846571,606141666820000,1.6686984,Bike
Fix,GPS,37.4229439798,-122.1609547344,-4.018024001242251,4.5754433,5.659294,223.9149,1677171344999,0.36449504,4.3895645,606142666540000,5.819272,Bike
Fix,FLP,37.4229643,-122.1609394,4.700024664449259,4.5629544,6.089,222.93047,1677171347309,0.36449504,4.3895645,606142666540000,1.7560847,Bike
Fix,GPS,37.4229066015,-122.1609912703,-3.810751570114458,4.4686275,5.6078095,222.35548,1677171345999,0.39870307,4.911739,606143666612000,5.8972335,Bike
Fix,FLP,37.4229243,-122.1609767,-1.897218457343186,4.4739895,5.97,222.04982,1677171348309,0.39870307,4.911739,606143666612000,1.8069072,Bike
Fix,NLP,37.4227329,-122.1608701,-6.599999904632568,,12.978,,1677171348340,,,606143697000000,1.0,Bike
Fix,GPS,37.4228684281,-122.1610232825,-3.816456546277488,4.058921,5.57211,220.77834,1677171346999,0.39113566,5.3026223,606144666585000,5.9945893,Bike
Fix,FLP,37.4228769,-122.1610197,-6.599999904632568,4.0621552,5.906,220.0134,1677171349309,0.39113566,5.3026223,606144666585000,1.7257403,Bike
Fix,GPS,37.4228357256,-122.161048151,-4.113275254308852,3.809335,5.6154213,218.2064,1677171347999,0.4377998,6.327804,606145666517000,6.094164,Bike
Fix,FLP,37.4228405,-122.1610486,-6.599999904632568,3.8115513,5.804,218.01787,1677171350309,0.4377998,6.327804,606145666517000,1.7616239,Bike
Fix,GPS,37.4228066238,-122.1610662422,-4.291283500480122,3.6408381,5.8362484,216.82024,1677171348999,0.41873854,6.332863,606146666646000,6.1556377,Bike
Fix,FLP,37.4228092,-122.1610696,-6.599999904632568,3.64218,5.773,216.0159,1677171351309,0.41873854,6.332863,606146666646000,1.799964,Bike
Fix,GPS,37.422778132,-122.1610901763,-4.89372014822063,3.0150445,5.751444,225.58295,1677171349999,0.37040928,6.7660685,606147666570000,6.078053,Bike
Fix,FLP,37.4227798,-122.1610915,-6.599999904632568,3.0186949,5.72,224.93214,1677171352309,0.37040928,6.7660685,606147666570000,1.755217,Bike
Fix,GPS,37.4227607956,-122.1611186219,-5.465493810415017,2.7517438,5.784806,257.5888,1677171350999,0.35662344,7.756811,606148666619000,5.967656,Bike
Fix,FLP,37.4227607,-122.1611175,-6.599999904632568,2.7507615,5.76,256.7823,1677171353309,0.35662344,7.756811,606148666619000,1.699343,Bike
Fix,GPS,37.4227636573,-122.1611524721,-5.877272434952499,2.6024995,5.585186,291.13855,1677171351999,0.37426358,8.469329,606149666700000,5.843449,Bike
Fix,FLP,37.4227607,-122.1611509,-7.700000286102295,2.600189,5.714,290.7633,1677171354309,0.37426358,8.469329,606149666700000,1.7065551,Bike
Fix,GPS,37.4227816144,-122.1611871399,-5.760477846259,2.935544,5.597007,306.14575,1677171352999,0.36751407,7.1255217,606150666770000,5.728744,Bike
Fix,FLP,37.4227727,-122.1611735,-6.599999904632568,2.9091375,5.689,305.15585,1677171355309,0.36751407,7.1255217,606150666770000,1.6138173,Bike
Fix,GPS,37.422803401,-122.1612158838,-5.835571563999024,3.658634,5.4968967,312.24588,1677171353999,0.35754892,5.4529014,606151666601000,5.6263404,Bike
Fix,FLP,37.4227973,-122.1612099,-1.907733276822647,3.652067,5.654,311.9572,1677171356309,0.35754892,5.4529014,606151666601000,1.6183064,Bike
Fix,GPS,37.4228342405,-122.1612540539,-5.499247291111593,4.45173,5.5070705,310.5463,1677171354999,0.38310048,4.7988706,606152666797000,5.59499,Bike
Fix,FLP,37.4228197,-122.1612372,-2.721651328944329,4.025929,5.571,310.97925,1677171357309,0.38310048,4.7988706,606152666797000,1.5151623,Bike
Fix,GPS,37.4228663369,-122.1613019446,-5.138935811351195,4.36868,5.5161977,301.1633,1677171355999,0.38719192,5.0181217,606153666637000,5.611865,Bike
Fix,FLP,37.4228497,-122.1612782,2.953556944666886,4.371824,5.538,301.96048,1677171358309,0.38719192,5.0181217,606153666637000,1.5325407,Bike
Fix,GPS,37.4228893823,-122.1613528566,-5.397358798160931,4.0916057,5.2048197,282.13486,1677171356999,0.38515437,5.336237,606154666790000,5.5345674,Bike
Fix,FLP,37.4228783,-122.1613305,14.748041884080614,4.094401,5.501,283.09064,1677171359308,0.38515437,5.336237,606154666790000,1.5458856,Bike
Fix,FLP,37.4228877,-122.161369,14.748041884080614,4.104413,5.755,279.83752,1677171359707,,,606155064731954,1.5458856,Bike
Fix,GPS,37.4228914635,-122.1614051813,-5.870370601640477,3.9277265,5.1067114,274.8837,1677171357999,0.4059942,6.093659,606155666663000,5.542125,Bike
Fix,FLP,37.4228901,-122.1613824,14.782429226512768,4.1060123,6.02,277.61313,1677171360250,,,606155607227804,1.6276251,Bike
Fix,FLP,37.4228933,-122.1614174,14.782429226512768,3.9595902,6.36,274.61743,1677171360792,,,606156149723959,1.6276251,Bike
Fix,GPS,37.4228895562,-122.1614613059,-6.452226629333855,4.277482,5.273614,273.71747,1677171358999,0.3762806,5.1086135,606156666674000,5.575664,Bike
Fix,FLP,37.4228945,-122.1614414,15.054262028969504,3.9402742,6.689,273.4695,1677171361334,,,606156692219503,1.6339393,Bike
Fix,GPS,37.4228900986,-122.1615171278,-7.104918028620886,4.6560726,5.291506,280.3352,1677171359999,0.38398135,4.7548513,606157666769000,5.622533,Bike
Fix,FLP,37.4228958,-122.1614986,-1.4939205049634907,4.1915174,7.171,279.09628,1677171362419,,,606157777204855,1.6936637,Bike
Fix,FLP,37.4228988,-122.1615472,-1.4939205049634907,4.5682716,8.187,283.0097,1677171362962,,,606158319696493,1.6936637,Bike
Fix,GPS,37.42289506,-122.1615706422,-7.128856038859476,5.010485,5.299836,285.8603,1677171360999,0.378868,4.344472,606158666735000,5.657127,Bike
Fix,FLP,37.4229051,-122.1615942,8.16593146121081,4.878532,8.35,288.67828,1677171364047,,,606159404696798,1.6943265,Bike
Fix,GPS,37.4229072083,-122.1616290254,-6.932113096434751,5.5711713,5.250969,293.10754,1677171361999,0.37861028,3.803848,606159666815000,5.612383,Bike
Fix,FLP,37.4229078,-122.1616189,22.002617562773786,5.560147,8.612,292.96884,1677171364309,0.37861028,3.803848,606159666815000,1.7332858,Bike
Fix,GPS,37.4229269735,-122.1616896494,-6.6097163447528615,5.584011,5.2851353,298.27417,1677171362999,0.37526643,3.7399426,606160666835000,5.6209297,Bike
Fix,FLP,37.4229271,-122.1616852,10.81003207096851,5.583784,8.271,297.96768,1677171365309,0.37526643,3.7399426,606160666835000,1.9038999,Bike
Fix,GPS,37.4229512714,-122.161744372,-6.223208852058353,5.711258,5.3315754,299.06497,1677171363999,0.3596574,3.5493066,606161666769000,5.5800376,Bike
Fix,FLP,37.4229511,-122.1617433,10.81003207096851,5.7104897,7.779,298.99396,1677171366308,0.3596574,3.5493066,606161666769000,1.8655567,Bike
Fix,GPS,37.4229723679,-122.1618012284,-6.084385654221507,5.827971,5.3303266,294.49698,1677171364999,0.38124436,3.7012398,606162666770000,5.608447,Bike
Fix,FLP,37.4229736,-122.1618007,14.83500368692571,5.8269963,7.171,294.03308,1677171367309,0.38124436,3.7012398,606162666770000,1.9162283,Bike
Fix,GPS,37.422992029,-122.1618658855,-6.176518007448934,6.030043,5.299117,288.9744,1677171365999,0.3973698,3.8029327,606163666803000,5.6207547,Bike
Fix,FLP,37.422993,-122.1618643,20.480351306590272,6.028304,6.403,288.0439,1677171368309,0.3973698,3.8029327,606163666803000,1.8578389,Bike
Fix,GPS,37.4230072533,-122.1619385671,-6.394298000589107,5.915045,5.2573624,285.8047,1677171366999,0.39964193,3.9755116,606164666763000,5.6867466,Bike
Fix,FLP,37.4230081,-122.1619354,20.55210155514478,5.9158955,5.292,285.0245,1677171369309,0.39964193,3.9755116,606164666763000,1.8649759,Bike
Fix,GPS,37.4230191757,-122.1620043853,-6.362750228399109,5.5849833,5.221076,284.0364,1677171367999,0.390843,4.106866,606165666830000,5.6692905,Bike
Fix,FLP,37.4230201,-122.162003,20.55210155514478,5.587401,5.287,284.0083,1677171370309,0.390843,4.106866,606165666830000,1.7726196,Bike
Fix,GPS,37.4230272938,-122.1620699503,-5.844750545989357,5.398807,5.223439,281.46994,1677171368999,0.39052498,4.17266,606166666815000,5.688715,Bike
Fix,FLP,37.423029,-122.1620681,11.780536383462165,5.4001327,5.266,281.02258,1677171371309,0.39052498,4.17266,606166666815000,1.7764602,Bike
Fix,GPS,37.4230326003,-122.1621370099,-5.4341102077861,5.4387226,5.1504292,283.98557,1677171369999,0.40166205,4.2471356,606167667122000,5.66187,Bike
Fix,FLP,37.4230345,-122.1621341,21.3733989467092,5.4384212,5.23,282.98462,1677171372310,0.40166205,4.2471356,606167667122000,1.6733993,Bike
Fix,GPS,37.4230427112,-122.1622030659,-5.26994935643039,5.3192687,5.0795116,285.67612,1677171370999,0.38543347,4.247134,606168666974000,5.715505,Bike
Fix,FLP,37.4230436,-122.1622002,3.8639358239750408,5.3200974,5.186,284.98483,1677171373309,0.38543347,4.247134,606168666974000,1.6933537,Bike
Fix,GPS,37.4230548408,-122.1622654014,-4.707018317829334,5.376361,5.1001873,287.23102,1677171371999,0.3909378,4.1873198,606169666941000,5.70866,Bike
Fix,FLP,37.4230552,-122.1622631,9.75506416444555,5.3759427,5.154,286.98532,1677171374309,0.3909378,4.1873198,606169666941000,1.7364134,Bike
Fix,GPS,37.4230680364,-122.1623310683,-4.595555563724636,5.4930897,5.108819,288.2546,1677171372999,0.39659446,4.0854564,606170666889000,5.779413,Bike
Fix,FLP,37.4230684,-122.1623279,19.649628911500045,5.492243,5.132,287.99268,1677171375309,0.39659446,4.0854564,606170666889000,1.7938739,Bike
Fix,GPS,37.4230810736,-122.1623929048,-4.260325541138819,5.300942,5.049443,287.26288,1677171373999,0.3657748,3.906145,606171667176000,5.696566,Bike
Fix,FLP,37.4230819,-122.162391,14.561610718518018,5.302154,5.097,287.0062,1677171376310,0.3657748,3.906145,606171667176000,1.771733,Bike
Fix,GPS,37.4230934182,-122.1624514031,-3.523342551337815,5.2350883,5.2843075,288.2652,1677171374999,0.36677736,4.111312,606172667050000,5.7884254,Bike
Fix,FLP,37.4230943,-122.1624504,14.561610718518018,5.2355123,5.128,287.9933,1677171377310,0.36677736,4.111312,606172667050000,1.8436375,Bike
Fix,GPS,37.4231062686,-122.1625171348,-3.0342706275892755,5.2381463,4.9183607,291.70184,1677171375999,0.3448753,3.748753,606173666939000,5.6172357,Bike
Fix,FLP,37.4231071,-122.1625139,9.355827935691115,5.2381124,5.09,290.98306,1677171378309,0.3448753,3.748753,606173666939000,1.8538184,Bike
Fix,GPS,37.4231211724,-122.1625804949,-3.2119450324142766,5.346721,4.991727,291.35632,1677171376999,0.36000487,3.8939245,606174667220000,5.5128307,Bike
Fix,FLP,37.4231221,-122.1625769,9.396126649097036,5.346067,5.07,290.99973,1677171379310,0.36000487,3.8939245,606174667220000,1.8730917,Bike
Fix,GPS,37.4231388314,-122.1626419096,-3.1555931034165314,5.3971286,4.8609576,292.7396,1677171377999,0.33608508,3.5703712,606175666970000,5.398771,Bike
Fix,FLP,37.423139,-122.1626392,9.490949350708055,5.3968635,5.02,291.9946,1677171380308,0.33608508,3.5703712,606175666970000,2.068494,Bike
Fix,GPS,37.4231569951,-122.1627060838,-2.9384551031772697,5.288373,4.82776,290.082,1677171378999,0.340581,3.7569947,606176667323000,5.3528705,Bike
Fix,FLP,37.423157,-122.1627028,9.492479685106012,5.2889824,4.976,290.01154,1677171381310,0.340581,3.7569947,606176667323000,2.0262115,Bike
Fix,GPS,37.4231719866,-122.1627674438,-2.8295668438068526,5.55113,4.933353,289.02304,1677171379999,0.35940185,3.785357,606177667308000,5.330072,Bike
Fix,FLP,37.4231724,-122.1627648,4.479079484377344,5.549522,4.906,289.00586,1677171382310,0.35940185,3.785357,606177667308000,2.074738,Bike
Fix,GPS,37.4231885918,-122.1628334121,-2.6206318318603685,5.710262,4.8950644,289.03522,1677171380999,0.39023113,3.9305105,606178666991000,5.335763,Bike
Fix,FLP,37.4231886,-122.1628305,4.376051175334922,5.7091193,4.901,288.99994,1677171383309,0.39023113,3.9305105,606178666991000,2.0161982,Bike
Fix,NLP,37.423291,-122.1631035,-5.599999904632568,,17.822,,1677171383174,,,606178531000000,1.8501421,Bike
Fix,GPS,37.423204912,-122.1629012195,-2.537035668177214,5.7952824,4.9280057,288.79294,1677171381999,0.37896878,3.722653,606179667030000,5.416958,Bike
Fix,FLP,37.4232058,-122.1629012,6.639337075411461,5.7947598,4.904,288.00583,1677171384309,0.37896878,3.722653,606179667030000,1.5654094,Bike
Fix,GPS,37.4232205079,-122.1629701245,-2.6955997775152576,5.6910524,4.774904,285.8409,1677171382999,0.36467123,3.7500274,606180667053000,5.350131,Bike
Fix,FLP,37.4232209,-122.162968,11.376642427024926,5.691692,4.875,285.02002,1677171385310,0.36467123,3.7500274,606180667053000,1.5364501,Bike
Fix,GPS,37.4232328396,-122.1630398763,-3.057568102527762,5.573928,4.7135334,285.43515,1677171383999,0.3565996,3.7541263,606181667130000,5.3553543,Bike
Fix,FLP,37.4232333,-122.1630368,18.03983304406804,5.5746617,4.852,285.00012,1677171386310,0.3565996,3.7541263,606181667130000,1.4664787,Bike
Fix,GPS,37.4232457235,-122.1631031165,-3.225516648959883,5.6408477,4.7428427,289.50037,1677171384999,0.37285787,3.800483,606182667096000,5.301873,Bike
Fix,FLP,37.4232459,-122.1631014,19.73856387233895,5.640327,4.84,288.97372,1677171387309,0.37285787,3.800483,606182667096000,1.4746869,Bike
Fix,GPS,37.4232613613,-122.1631670884,-3.216309713638357,5.473216,4.7807136,291.68698,1677171385999,0.377825,3.932019,606183667089000,5.270836,Bike
Fix,FLP,37.4232617,-122.1631654,13.20101232796543,5.474336,4.788,290.98587,1677171388310,0.377825,3.932019,606183667089000,1.4846458,Bike
Fix,GPS,37.4232781193,-122.163228239,-3.1134697679247734,5.306553,4.8762536,291.07202,1677171386999,0.3769118,4.044405,606184667178000,5.258031,Bike
Fix,FLP,37.4232785,-122.1632266,11.983400009658112,5.3076906,4.777,290.9998,1677171389309,0.3769118,4.044405,606184667178000,1.5714505,Bike
Fix,GPS,37.4232974632,-122.1632904788,-3.650533331835292,5.3161116,5.0683093,290.68604,1677171387999,0.38733464,4.2675257,606185667124000,5.298145,Bike
Fix,FLP,37.4232969,-122.163288,6.644603578489161,5.3160734,4.836,290.00732,1677171390310,0.38733464,4.2675257,606185667124000,1.5708275,Bike
Fix,GPS,37.4233116057,-122.1633501805,-3.623501817250852,5.143906,5.0662813,288.90958,1677171388999,0.38399777,4.3683963,606186667134000,5.2993436,Bike
Fix,FLP,37.4233121,-122.1633484,6.647713234285092,5.1451216,4.906,288.015,1677171391310,0.38399777,4.3683963,606186667134000,1.6341836,Bike
Fix,GPS,37.4233250786,-122.1634090922,-3.599971690107259,5.191594,5.246944,286.92685,1677171389999,0.4220377,4.8442073,606187667415000,5.357863,Bike
Fix,FLP,37.4233256,-122.1634073,13.512823832586,5.1912127,5.007,286.01782,1677171392310,0.4220377,4.8442073,606187667415000,1.6345248,Bike
Fix,GPS,37.4233361888,-122.1634709452,-3.0820907957109025,5.544147,5.296877,284.5549,1677171390999,0.39825496,4.363628,606188667155000,5.3921986,Bike
Fix,FLP,37.423337,-122.1634685,13.953216540371884,5.5414915,5.11,284.01486,1677171393309,0.39825496,4.363628,606188667155000,1.6729504,Bike
Fix,GPS,37.4233469937,-122.1635385645,-2.8899174162164427,5.7065897,5.343845,283.7977,1677171391999,0.37856892,4.074033,606189667157000,5.4202075,Bike
Fix,FLP,37.4233477,-122.1635355,13.953216540371884,5.7054873,5.149,283.0071,1677171394310,0.37856892,4.074033,606189667157000,1.8467672,Bike
Fix,GPS,37.4233510946,-122.1636094581,-3.248429582032954,5.7219014,5.213604,281.13568,1677171392999,0.36186233,3.7496765,606190667455000,5.3951883,Bike
Fix,FLP,37.4233538,-122.1636058,13.512823832586,5.721811,5.233,281.0129,1677171395310,0.36186233,3.7496765,606190667455000,1.8065134,Bike
Fix,GPS,37.4233506715,-122.1636792068,-3.226041118704352,5.5505238,5.112134,281.8004,1677171393999,0.35150552,3.642159,606191667208000,5.369609,Bike
Fix,FLP,37.4233549,-122.163676,14.209682565167505,5.551542,5.242,280.99973,1677171396310,0.35150552,3.642159,606191667208000,1.8711767,Bike
Fix,GPS,37.423358438,-122.1637457138,-3.031448176445409,5.6482143,5.0456133,284.33047,1677171394999,0.3749583,3.698017,606192667375000,5.3280354,Bike
Fix,FLP,37.4233603,-122.1637432,5.731698929903473,5.647557,5.21,283.98117,1677171397309,0.3749583,3.698017,606192667375000,1.807736,Bike
Fix,GPS,37.4233692828,-122.1638147125,-2.755415762791862,5.5995893,4.9970546,285.83755,1677171395999,0.36185834,3.731087,606193667241000,5.2919116,Bike
Fix,FLP,37.4233704,-122.1638117,5.731698929903473,5.5998983,5.142,284.99338,1677171398310,0.36185834,3.731087,606193667241000,1.7991672,Bike
Fix,GPS,37.4233818326,-122.1638797766,-2.762145824476414,5.551734,4.9582224,285.482,1677171396999,0.3719164,3.8777542,606194667489000,5.2704673,Bike
Fix,FLP,37.4233823,-122.1638776,5.731698929903473,5.5520644,5.065,284.99988,1677171399310,0.3719164,3.8777542,606194667489000,1.7017965,Bike
Fix,GPS,37.4233955022,-122.1639429716,-2.620340943288471,5.5350375,5.101965,286.24426,1677171397999,0.37663257,3.916148,606195667267000,5.2451982,Bike
Fix,FLP,37.4233954,-122.1639415,7.820310887224025,5.5351562,5.071,285.99316,1677171400310,0.37663257,3.916148,606195667267000,1.6956019,Bike
Fix,GPS,37.4234052665,-122.1640089294,-2.241462578117869,5.4321003,4.947117,287.14355,1677171398999,0.35880518,3.6826873,606196667272000,5.2184567,Bike
Fix,FLP,37.4234065,-122.1640066,19.431602824076933,5.4327393,5.01,286.99377,1677171401310,0.35880518,3.6826873,606196667272000,1.6330318,Bike
Fix,GPS,37.423415558,-122.1640695622,-2.0348731214722324,5.1664305,4.957088,285.78305,1677171399999,0.37532303,4.1145372,606197667563000,5.2409253,Bike
Fix,FLP,37.4234173,-122.1640683,7.801945422244501,5.1681833,4.992,285.01346,1677171402310,0.37532303,4.1145372,606197667563000,1.6339533,Bike
Fix,GPS,37.4234248195,-122.1641299,-2.0603542416212712,5.320847,5.057076,283.7123,1677171400999,0.3866127,4.1524124,606198667285000,5.3437624,Bike
Fix,FLP,37.4234263,-122.1641283,13.305912293914872,5.3197503,5.004,283.01364,1677171403310,0.3866127,4.1524124,606198667285000,1.7250472,Bike
Fix,GPS,37.4234341787,-122.1641915971,-2.0972462143047474,5.562412,5.017384,281.82715,1677171401999,0.382667,3.9793694,606199667591000,5.364765,Bike
Fix,FLP,37.4234351,-122.1641901,14.110432052467909,5.5607166,5.016,281.01343,1677171404309,0.382667,3.9793694,606199667591000,1.7078855,Bike
Fix,GPS,37.423443944,-122.1642549755,-1.6539349375805212,5.4793277,5.11258,285.8751,1677171402999,0.36324662,3.882285,606200667313000,5.373718,Bike
Fix,FLP,37.4234442,-122.164254,10.24797631531372,5.479739,5.018,284.9737,1677171405310,0.36324662,3.882285,606200667313000,1.780318,Bike
Fix,GPS,37.4234569727,-122.1643217371,-1.8616620651996003,5.6520348,5.004488,286.8703,1677171403999,0.37565312,3.7265666,606201667367000,5.3615217,Bike
Fix,FLP,37.423457,-122.1643192,14.110432052467909,5.6509047,5.029,285.99365,1677171406310,0.37565312,3.7265666,606201667367000,1.7877474,Bike
Fix,GPS,37.4234706224,-122.1643849944,-1.5622122876807545,5.6530895,4.9918365,286.27652,1677171404999,0.37672144,3.6884925,606202667641000,5.37058,Bike
Fix,FLP,37.4234707,-122.1643837,15.64586949771848,5.6530843,5.036,285.9999,1677171407310,0.37672144,3.6884925,606202667641000,1.8184546,Bike
Fix,GPS,37.4234828657,-122.1644482661,-1.0609942937123087,5.5743213,5.014288,285.51135,1677171405999,0.40118223,4.0386868,606203667394000,5.426775,Bike
Fix,FLP,37.4234835,-122.1644473,11.855499670646369,5.574913,5.028,285.00732,1677171408310,0.40118223,4.0386868,606203667394000,2.0454266,Bike
Fix,GPS,37.4234952231,-122.1645094249,-0.5480910693871862,5.2289834,5.0768585,286.95328,1677171406999,0.39430162,4.3036814,606204667429000,5.482826,Bike
Fix,FLP,37.4234956,-122.164509,11.914674223659262,5.2315254,5.036,285.99216,1677171409310,0.39430162,4.3036814,606204667429000,1.9918925,Bike
Fix,GPS,37.4235088359,-122.164563947,0.1446772590802997,5.215398,5.1691656,288.41544,1677171407999,0.38765073,4.23046,606205667405000,5.519756,Bike
Fix,FLP,37.4235087,-122.1645646,15.90752943114181,5.2154884,5.051,287.98584,1677171410310,0.38765073,4.23046,606205667405000,2.0323546,Bike
Fix,GPS,37.4235197435,-122.1646172321,0.5811241091081227,5.1811256,5.196576,286.8397,1677171408999,0.3872962,4.209236,606206667474000,5.561844,Bike
Fix,FLP,37.4235209,-122.1646184,9.826051621130157,5.181325,5.089,286.0137,1677171411310,0.3872962,4.209236,606206667474000,1.9552834,Bike
Fix,GPS,37.4235320168,-122.1646817699,0.4501946348302037,5.3816595,5.217351,286.15085,1677171409999,0.38936922,4.078229,606207667433000,5.6672564,Bike
Fix,FLP,37.4235326,-122.1646795,23.89223709879368,5.380242,5.111,286.0001,1677171412310,0.38936922,4.078229,606207667433000,1.9301903,Bike
Fix,GPS,37.4235421131,-122.1647446183,0.6588763390243038,5.4960423,5.179405,284.47092,1677171410999,0.40000007,4.0957603,606208667655000,5.6710124,Bike
Fix,FLP,37.4235434,-122.1647424,17.50222829095773,5.4951477,5.167,284.01428,1677171413310,0.40000007,4.0957603,606208667655000,1.849757,Bike
Fix,GPS,37.4235528399,-122.164804565,0.7957532519434404,5.1523447,5.218046,288.28687,1677171411999,0.43283224,4.6947446,606209667493000,5.6774187,Bike
Fix,FLP,37.4235537,-122.164804,11.815913253283348,5.1552835,5.196,287.96338,1677171414309,0.43283224,4.6947446,606209667493000,1.856833,Bike
Fix,GPS,37.4235704062,-122.1648697391,0.4297770206835913,5.372415,5.1636806,284.2688,1677171412999,0.3620022,3.8221116,606210667887000,5.6382785,Bike
Fix,FLP,37.4235696,-122.1648664,15.264902214602508,5.3710155,5.195,284.02325,1677171415310,0.3620022,3.8221116,606210667887000,1.7811332,Bike
Fix,GPS,37.4235822905,-122.1649182011,-0.8695277087962473,5.3793383,5.303104,282.12228,1677171413999,0.376299,4.0099616,606211667712000,5.63105,Bike
Fix,FLP,37.423582,-122.1649207,19.857969094332745,5.3792458,5.216,282.01364,1677171416310,0.376299,4.0099616,606211667712000,1.7816014,Bike
Fix,GPS,37.423591458,-122.1649707937,-1.4998226118695084,4.933938,5.2722673,278.88107,1677171414999,0.34836987,4.0648265,606212667536000,5.5593734,Bike
Fix,FLP,37.4235917,-122.164974,16.246246745005948,4.9364142,5.227,278.02548,1677171417310,0.34836987,4.0648265,606212667536000,1.8142586,Bike
Fix,GPS,37.4235977115,-122.1650249115,-1.5861581189092762,4.7550855,5.3526387,274.50327,1677171415999,0.3591764,4.3018236,606213667570000,5.5578437,Bike
Fix,FLP,37.4235978,-122.1650264,15.338584183193582,4.756113,5.248,274.02527,1677171418310,0.3591764,4.3018236,606213667570000,1.9065429,Bike
Fix,NLP,37.4235222,-122.1655048,5.300000190734863,,45.78,,1677171418080,,,606213437000000,25.885231,Bike
Fix,GPS,37.4235994239,-122.1650788199,-1.8146550694007173,5.0300035,5.339029,274.1427,1677171416999,0.36747605,4.1648574,606214667671000,5.53169,Bike
Fix,FLP,37.4235991,-122.1650577,17.572474859655983,4.8885803,5.311,273.99988,1677171419310,0.36747605,4.1648574,606214667671000,1.5876632,Bike
Fix,GPS,37.4235999036,-122.1651377351,-2.1005068693257893,5.1218762,5.255421,277.63647,1677171417999,0.40738505,4.5516076,606215667906000,5.5249195,Bike
Fix,FLP,37.4236006,-122.1651217,22.56779761171785,5.119793,5.324,276.93503,1677171420310,0.40738505,4.5516076,606215667906000,1.6530751,Bike
Fix,GPS,37.4236045216,-122.1652018435,-2.5844359224443907,5.115976,5.2676063,278.6189,1677171418999,0.42798245,4.9292364,606216667633000,5.62812,Bike
Fix,FLP,37.4236051,-122.1651937,16.191380560718805,5.116076,5.318,277.99005,1677171421310,0.42798245,4.9292364,606216667633000,1.6288985,Bike
Fix,GPS,37.4236098093,-122.1652630004,-2.5375369423569647,5.269004,5.4099264,284.80997,1677171419999,0.4636664,5.091387,606217667928000,5.6868935,Bike
Fix,FLP,37.4236104,-122.1652588,25.75356658247454,5.2671943,5.335,283.93958,1677171422309,0.4636664,5.091387,606217667928000,1.8645241,Bike
Fix,GPS,37.4236239778,-122.165332158,-2.8262094935556115,5.5823326,5.351766,280.37933,1677171420999,0.4139876,4.524058,606218667733000,5.6562324,Bike
Fix,FLP,37.4236232,-122.1653269,18.733933082217632,5.579789,5.333,280.03326,1677171423310,0.4139876,4.524058,606218667733000,1.809544,Bike
Fix,NLP,37.4235882,-122.1654012,-1.1999999284744265,,46.818,,1677171424296,,,606219653000000,8.255118,Bike
Fix,GPS,37.4236301223,-122.1653972667,-1.896942577612725,5.330646,5.4215393,280.18143,1677171421999,0.4166818,4.7265806,606219667676000,5.6851134,Bike
Fix,FLP,37.4236295,-122.1653714,18.31395065533928,5.569089,6.072,280.03098,1677171424296,0.4139876,4.524058,606219653000000,1.7145765,Bike
Fix,GPS,37.4236391815,-122.165457485,-1.5933942865029531,5.505088,5.577562,280.36316,1677171422999,0.47057638,5.2994976,606220667970000,5.7457314,Bike
Fix,FLP,37.4236388,-122.1654533,18.469029673967952,5.5033216,6.382,279.99948,1677171425310,0.47057638,5.2994976,606220667970000,1.6510506,Bike
Fix,GPS,37.4236492255,-122.1655222935,-1.3679913572044462,5.476065,5.6933627,280.204,1677171423999,0.43400225,4.900175,606221667705000,5.7680073,Bike
Fix,FLP,37.4236486,-122.1655195,18.31395065533928,5.476346,6.453,280.00012,1677171426310,0.43400225,4.900175,606221667705000,1.5425161,Bike
Fix,GPS,37.4236564892,-122.1655931749,-1.7445362186727498,5.1592913,5.783895,280.26474,1677171424999,0.43656856,5.230876,606222667689000,5.8410926,Bike
Fix,FLP,37.4236567,-122.1655885,15.313560785545896,5.162219,6.357,280.00067,1677171427310,0.43656856,5.230876,606222667689000,1.5059352,Bike
Fix,GPS,37.4236641767,-122.1656605823,-2.371730247438048,5.065261,5.89323,279.27228,1677171425999,0.4360361,5.3926325,606223667906000,5.8416944,Bike
Fix,FLP,37.4236644,-122.1656551,15.313560785545896,5.0662084,6.605,279.01096,1677171428310,0.4360361,5.3926325,606223667906000,1.4857476,Bike
Fix,GPS,37.4236754615,-122.1657297299,-1.6199988822651217,5.1101136,5.940164,280.1789,1677171426999,0.41880867,5.208422,606224667730000,5.823165,Bike
Fix,FLP,37.423674,-122.1657229,11.357283369568044,5.109777,5.777,279.99014,1677171429310,0.41880867,5.208422,606224667730000,1.5410388,Bike
Fix,GPS,37.4236831661,-122.1658008879,-1.0529456269164248,5.201179,5.9171157,278.79214,1677171427999,0.40578464,4.8242073,606225668009000,5.803002,Bike
Fix,FLP,37.4236827,-122.165793,9.789785140819504,5.2005305,5.845,278.0174,1677171430311,0.40578464,4.8242073,606225668009000,1.5319866,Bike
Fix,GPS,37.4236962049,-122.1658700776,-0.8741268332599786,5.147001,5.9128356,278.03906,1677171428999,0.40568566,4.871984,606226667758000,5.8032746,Bike
Fix,FLP,37.4236936,-122.165863,16.729391737756124,5.147477,5.889,278.00052,1677171431310,0.40568566,4.871984,606226667758000,1.6446869,Bike
Fix,GPS,37.4236981503,-122.1659351362,-0.8024048983924109,5.0013747,5.5720644,278.6693,1677171429999,0.38135114,4.6326504,606227668092000,5.695917,Bike
Fix,FLP,37.4236988,-122.1659301,10.064727599072173,5.0024214,5.847,278.00003,1677171432311,0.38135114,4.6326504,606227668092000,1.6566255,Bike
Fix,GPS,37.4237041023,-122.1659946816,-0.3474674740375324,5.0144825,5.4890823,279.88446,1677171430999,0.46949866,5.83625,606228668113000,5.6600604,Bike
Fix,FLP,37.4237045,-122.1659918,9.90405507141481,5.0143523,5.766,278.98767,1677171433311,0.46949866,5.83625,606228668113000,1.7212445,Bike
Fix,GPS,37.423714461,-122.166056462,0.1421593815408876,5.358244,5.5142765,282.77844,1677171431999,0.4880213,5.5118685,606229668398000,5.683299,Bike
Fix,FLP,37.4237135,-122.1660535,19.098765291433857,5.35427,5.681,281.96445,1677171434311,0.4880213,5.5118685,606229668398000,1.708662,Bike
Fix,GPS,37.4237316902,-122.1661204239,1.16112014630265,5.3514047,5.577316,282.2544,1677171432999,0.47747025,5.1826105,606230668172000,5.7376146,Bike
Fix,FLP,37.4237288,-122.1661177,16.017657972783596,5.3514934,5.613,282.00024,1677171435311,0.47747025,5.1826105,606230668172000,1.9347613,Bike
Fix,GPS,37.4237481503,-122.1661846712,1.2544934865213488,4.9012294,5.6104183,285.9748,1677171433999,0.44378293,5.337977,606231667838000,5.7372217,Bike
Fix,FLP,37.4237448,-122.1661819,14.48111029432384,4.9053926,5.552,284.96927,1677171436310,0.44378293,5.337977,606231667838000,1.879173,Bike
Fix,GPS,37.4237711872,-122.1662391047,2.386297186365608,5.1918697,5.561244,290.9173,1677171434999,0.43375438,4.9640822,606232667861000,5.71742,Bike
Fix,FLP,37.4237659,-122.1662379,16.793862776144323,5.1890893,5.553,289.9556,1677171437310,0.43375438,4.9640822,606232667861000,1.8682971,Bike
Fix,GPS,37.4237941221,-122.1662967681,2.805943321806351,5.404993,5.5609894,287.84598,1677171435999,0.41987136,4.7662034,606233668176000,5.741927,Bike
Fix,FLP,37.4237897,-122.1662955,14.30766581071564,5.4032025,5.564,287.0265,1677171438311,0.41987136,4.7662034,606233668176000,1.7921685,Bike
Fix,GPS,37.4238138127,-122.1663498435,3.754454446405579,5.067786,5.567561,287.4647,1677171436999,0.40973723,4.9274426,606234667916000,5.7109046,Bike
Fix,FLP,37.4238103,-122.1663513,14.48111029432384,5.070507,5.565,287.00174,1677171439310,0.40973723,4.9274426,606234667916000,1.802632,Bike
Fix,GPS,37.4238285602,-122.16641265,4.489428020424187,5.2411404,5.4846454,286.1939,1677171437999,0.407879,4.6950436,606235668045000,5.7246094,Bike
Fix,FLP,37.4238269,-122.1664105,19.1154292242556,5.2398133,5.56,286.00818,1677171440311,0.407879,4.6950436,606235668045000,1.6941421,Bike
