Fix,Provider,LatitudeDegrees,LongitudeDegrees,AltitudeMeters,SpeedMps,AccuracyMeters,BearingDegrees,UnixTimeMillis,SpeedAccuracyMps,BearingAccuracyDegrees,elapsedRealtimeNanos,VerticalAccuracyMeters,TransitType
Fix,GPS,37.4216392608,-122.158642084,-4.218013059206931,0.0,41.84921,,1677629908215,0.494978,,1064712508815168,35.746986,Bike
Fix,FLP,37.4215941,-122.1587514,-4.799999713897705,0.07499889,28.115,,1677629909284,,,1064712508815168,1.4699125,Bike
Fix,FLP,37.4215941,-122.1587483,-4.799999713897705,0.007855665,35.614,,1677629909868,,,1064713092411451,1.4699125,Bike
Fix,FLP,37.4215942,-122.1587464,-4.799999713897705,0.0077358643,38.16,,1677629910411,,,1064713634913405,1.4816808,Bike
Fix,FLP,37.4215943,-122.1587445,-4.799999713897705,0.00747237,40.223,,1677629910954,,,1064714177417128,1.4816808,Bike
Fix,FLP,37.4215944,-122.1587427,-4.799999713897705,0.005042844,41.931,,1677629911496,,,1064714719922194,1.4927008,Bike
Fix,FLP,37.4215944,-122.158741,-4.799999713897705,0.0045700357,45.335,,1677629912039,,,1064715262428785,1.4927008,Bike
Fix,NLP,37.4214878,-122.1585944,-8.40000057220459,,20.936,,1677629912247,,,1064715470000000,1.8348054,Bike
Fix,FLP,37.4215811,-122.1587143,-4.799999713897705,0.027925216,49.553,,1677629913115,,,1064716338000000,1.4632033,Bike
Fix,GPS,37.421540514,-122.158585061,-3.0938789611779525,0.0,43.136383,,1677629912212,0.8069571,,1064716583972966,69.838585,Bike
Fix,FLP,37.4215657,-122.1586876,-8.40000057220459,0.037693344,47.302,,1677629913666,,,1064716889942579,1.4750533,Bike
Fix,FLP,37.4215608,-122.1586791,-8.40000057220459,0.030776354,47.277,,1677629914189,,,1064717413000000,1.4750533,Bike
Fix,FLP,37.4215566,-122.1586718,-8.40000057220459,0.023388078,43.453,,1677629914751,,,1064717974974257,1.4801675,Bike
Fix,GPS,37.4214911852,-122.1586005773,-1.3008228227089675,0.0,43.053993,,1677629914203,0.93239766,,1064718600740830,36.89298,Bike
Fix,FLP,37.4215502,-122.1586612,-4.799999713897705,0.013097732,39.144,,1677629915293,,,1064718517484755,1.4871775,Bike
Fix,FLP,37.4215475,-122.1586567,-4.799999713897705,0.010691098,36.446,,1677629915835,,,1064719059995558,1.4871775,Bike
Fix,GPS,37.4215736261,-122.1585323518,3.9110871741808593,0.0,13.264855,,1677629915132,0.87036115,,1064719609868679,15.0920315,Bike
Fix,FLP,37.4215449,-122.158653,-8.40000057220459,0.0099549955,33.746,,1677629916379,,,1064719602506545,1.4944465,Bike
Fix,NLP,37.4215616,-122.1586442,-8.100000381469727,,13.582,,1677629917214,,,1064720437000000,2.818122,Bike
Fix,FLP,37.4215408,-122.158646,-8.100000381469727,0.0060318355,28.145,,1677629916922,,,1064720145009291,1.8798356,Bike
Fix,GPS,37.4215542559,-122.1585414798,3.5454513358568613,0.0,17.16459,,1677629915988,0.9053575,,1064720640301744,25.299953,Bike
Fix,FLP,37.4215422,-122.1586416,-8.100000381469727,0.007523877,24.588,,1677629917464,,,1064720687528212,1.8828655,Bike
Fix,GPS,37.4215580946,-122.1585518334,-2.02014753058719,0.0,20.284048,,1677629916988,20.0,,1064721591334704,22.061869,Bike
Fix,FLP,37.4215434,-122.1586385,-11.800433308425518,0.00979046,21.013,,1677629918006,,,1064721230039015,1.5876508,Bike
Fix,GPS,37.421557846,-122.1585544272,-4.570906323445531,0.0,18.502798,,1677629917988,20.0,,1064722587422066,19.641874,Bike
Fix,FLP,37.4215444,-122.1586369,-12.240135348838235,0.009441677,20.138,,1677629919092,,,1064722315060194,1.5462413,Bike
Fix,GPS,37.4215585791,-122.1585576096,-6.597122352473667,0.0,17.20471,,1677629918999,20.0,,1064723603089140,17.728382,Bike
Fix,FLP,37.4215452,-122.1586364,-11.800433308425518,0.0062539335,18.376,,1677629920176,,,1064723400079908,1.5625432,Bike
Fix,GPS,37.4215607847,-122.1585560922,-7.914954214391144,0.0,16.453278,,1677629919999,20.0,,1064724566510000,16.444529,Bike
Fix,FLP,37.4215457,-122.1586363,-11.97089094672264,0.0034290277,17.244,,1677629921262,,,1064724485097975,1.5725532,Bike
Fix,NLP,37.4215644,-122.1586508,-8.90000057220459,,23.327,,1677629922232,,,1064725455000000,3.1176927,Bike
Fix,FLP,37.4215464,-122.1586357,-11.56598445528774,0.0031287144,13.752,,1677629921803,,,1064725027606825,1.7069077,Bike
Fix,GPS,37.4215556565,-122.1585620327,-8.255636134543876,0.0,15.83402,,1677629920999,0.75707793,,1064725566656000,15.440442,Bike
Fix,FLP,37.4215474,-122.1586354,-11.56598445528774,0.0042263553,13.701,,1677629922346,,,1064725570108779,1.7079078,Bike
Fix,GPS,37.4215488538,-122.1585713363,-8.22737919439671,0.0,15.303507,,1677629921999,0.77250576,,1064726566589000,14.669103,Bike
Fix,FLP,37.4215482,-122.1586349,-8.90000057220459,0.0036823815,13.694,,1677629923431,,,1064726655130262,1.965006,Bike
Fix,GPS,37.4215423813,-122.1585809741,-8.069806588834355,0.0,14.883232,,1677629922999,0.76990676,,1064727566592000,13.986504,Bike
Fix,FLP,37.421549,-122.1586344,-8.90000057220459,0.0034121342,13.68,,1677629923973,,,1064727197637037,2.4525235,Bike
Fix,GPS,37.4215351149,-122.1585884831,-7.590486705600775,0.0,14.488861,,1677629923999,0.760463,,1064728566649000,13.318459,Bike
Fix,FLP,37.4215495,-122.158634,-6.247675243329319,0.0026106746,13.627,,1677629925059,,,1064728282649794,2.39912,Bike
Fix,GPS,37.4215291221,-122.1585952547,-6.654581287943677,0.0,14.251596,,1677629924999,0.69494957,,1064729566635000,12.752306,Bike
Fix,FLP,37.4215498,-122.1586336,-2.3379722185717213,0.0021225319,13.351,,1677629926144,,,1064729367660475,2.4695876,Bike
Fix,NLP,37.4215357,-122.1586337,-7.700000286102295,,14.622,,1677629927318,,,1064730542000000,2.7192738,Bike
Fix,FLP,37.42155,-122.1586335,4.230771293305828,0.0014641107,13.198,,1677629927229,,,1064730452670179,2.41883,Bike
Fix,GPS,37.4215265096,-122.158603001,-6.546299373969958,0.0,14.112686,,1677629925999,0.7714997,,1064730566730000,12.303559,Bike
Fix,GPS,37.4215229758,-122.1586118939,-5.842765408444932,0.0,15.335441,,1677629926999,20.0,,1064731566671000,12.061452,Bike
Fix,FLP,37.421548,-122.1586305,7.178701157958884,0.0069524995,12.774,,1677629928313,,,1064731537677626,2.4286451,Bike
Fix,GPS,37.4215161669,-122.158621858,-5.755236425724443,0.0,13.989462,,1677629927999,20.0,,1064732566722000,11.772427,Bike
Fix,FLP,37.4215466,-122.1586285,6.619505473432341,0.008022606,12.467,,1677629929398,,,1064732622683668,2.4386468,Bike
Fix,FLP,37.4215456,-122.1586267,6.619505473432341,0.007321806,12.135,,1677629929942,,,1064733165174147,2.4386468,Bike
Fix,GPS,37.4215124793,-122.1586298489,-6.529920586923063,0.0,13.487013,,1677629928999,20.0,,1064733566697000,11.298744,Bike
Fix,FLP,37.421545,-122.1586258,4.854434066261632,0.0059363437,12.01,,1677629930483,,,1064733707687818,2.4487116,Bike
Fix,GPS,37.4215086372,-122.1586413156,-6.767594446159273,0.0,12.022846,,1677629929999,20.0,,1064734566760000,10.873492,Bike
Fix,FLP,37.4215444,-122.1586247,2.6907880376706927,0.0045950925,11.72,,1677629931026,,,1064734250190260,2.4587562,Bike
Fix,NLP,37.4215207,-122.1586311,-7.700000286102295,,13.897,,1677629932303,,,1064735527000000,1.707412,Bike
Fix,FLP,37.4215436,-122.158624,-0.9629214071981452,0.0042361203,11.648,,1677629932112,,,1064735335192396,2.3971353,Bike
Fix,GPS,37.4215096507,-122.1586442211,-6.84271843054292,0.0,11.462429,,1677629930999,20.0,,1064735566657000,10.749403,Bike
Fix,GPS,37.4215024564,-122.1586575202,-8.137218283687123,0.0,11.323947,,1677629931999,20.0,,1064736566733000,10.557636,Bike
Fix,FLP,37.4215403,-122.1586218,-1.8823800852994168,0.015606879,10.954,,1677629933197,,,1064736420196669,2.407185,Bike
Fix,GPS,37.4214970556,-122.1586702059,-8.634294008868796,0.0,10.952574,,1677629932999,0.58065456,,1064737566707000,10.2112665,Bike
Fix,FLP,37.4215378,-122.1586206,-7.700000286102295,0.017675864,10.802,,1677629934281,,,1064737505194044,2.409551,Bike
Fix,GPS,37.4214953898,-122.1586762589,-8.897575260594378,0.0,10.696972,,1677629933999,20.0,,1064738566702000,9.907484,Bike
Fix,FLP,37.4215355,-122.1586202,-20.098190824918557,0.018804524,10.564,,1677629935367,,,1064738590184339,2.4202104,Bike
Fix,GPS,37.421493484,-122.1586776139,-9.755142404792243,0.0,10.628514,,1677629934999,0.5149407,,1064739566765000,9.7796755,Bike
Fix,FLP,37.4215333,-122.1586202,-17.145433778680207,0.019377954,10.333,,1677629936452,,,1064739675193007,2.432306,Bike
Fix,NLP,37.4215569,-122.158679,-8.800000190734863,,18.539,,1677629937315,,,1064740539000000,2.8413148,Bike
Fix,FLP,37.4215326,-122.1586209,7.719976248806944,0.023971055,17.491,,1677629937316,0.5149407,,1064740539000000,2.3815084,Bike
Fix,GPS,37.4214930039,-122.1586802416,-9.815612023066802,0.0,10.51074,,1677629935999,0.5518541,,1064740566779000,9.603918,Bike
Fix,GPS,37.4214929743,-122.158681107,-9.701663074515023,0.0,10.427223,,1677629936999,0.5543183,,1064741566786000,9.44227,Bike
Fix,FLP,37.4215082,-122.1586544,7.719976248806944,0.29737756,16.513,207.29478,1677629938342,0.5543183,,1064741566786000,2.3937778,Bike
Fix,GPS,37.4214931953,-122.1586789664,-9.7530894927954,0.0,10.359378,,1677629937999,0.649391,,1064742566830000,9.394954,Bike
Fix,FLP,37.4215017,-122.1586627,5.2416820508906525,0.41334364,16.602,213.11658,1677629939342,0.649391,,1064742566830000,2.4030917,Bike
Fix,GPS,37.4214909131,-122.1586784582,-10.10169619787862,0.0,10.277548,,1677629938999,0.80525,,1064743566822000,9.408866,Bike
Fix,FLP,37.4214957,-122.1586698,-0.738422994902848,0.50986564,16.629,216.25458,1677629940343,0.80525,,1064743566822000,2.4141753,Bike
Fix,GPS,37.4214995801,-122.1586857274,-8.261329710815655,0.0,10.028007,,1677629939999,0.5883073,,1064744566836000,9.084107,Bike
Fix,FLP,37.4214939,-122.1586786,-3.8818830844815215,0.5410902,15.809,227.75389,1677629941342,0.5883073,,1064744566836000,2.4242644,Bike
Fix,GPS,37.421504185,-122.158687968,-7.433203393109975,0.0,9.938011,,1677629940999,0.741109,,1064745566835000,8.844575,Bike
Fix,FLP,37.4214959,-122.158685,-8.800000190734863,0.49396557,10.259,242.43689,1677629942342,0.741109,,1064745566835000,2.4342644,Bike
Fix,NLP,37.4215497,-122.1586723,-8.200000762939453,,14.181,,1677629942361,,,1064745584000000,2.1860561,Bike
Fix,GPS,37.4215030696,-122.1586911048,-7.100978594179725,0.0,9.978854,,1677629941999,0.7115963,,1064746566898000,8.78759,Bike
Fix,FLP,37.4214989,-122.1586909,-8.200000762939453,0.4675479,10.223,256.61603,1677629943343,0.7115963,,1064746566898000,2.310203,Bike
Fix,GPS,37.4215048433,-122.1586941815,-6.559623747391675,0.0,10.041105,,1677629942999,0.65752625,,1064747567127000,8.614682,Bike
Fix,FLP,37.4215008,-122.1586953,-5.913697086425252,0.44010535,10.178,265.5914,1677629944344,0.65752625,,1064747567127000,2.350066,Bike
Fix,FLP,37.4215103,-122.1586797,-5.913697086425252,0.036526453,10.182,,1677629945131,,,1064748355000000,2.350066,Bike
Fix,GPS,37.4215079451,-122.1586990898,-5.887367361406315,0.0,10.124289,,1677629943999,0.74581856,,1064748567107000,8.471223,Bike
Fix,GPS,37.4215095819,-122.1587041764,-5.524198453880339,0.0,12.286025,,1677629944999,1.022206,,1064749567023000,8.341388,Bike
Fix,FLP,37.4215228,-122.1586597,0.8024735744443916,0.04125248,10.264,,1677629946216,,,1064749440171889,2.3985345,Bike
Fix,GPS,37.4215126002,-122.1587077159,-5.474992031580682,0.0,12.283539,,1677629945999,1.0329227,,1064750566955000,8.151533,Bike
Fix,FLP,37.4215258,-122.1586554,-5.426914424545366,0.022273267,10.361,,1677629947302,,,1064750525166700,2.0280752,Bike
Fix,NLP,37.4215621,-122.1586439,-8.800000190734863,,13.93,,1677629947444,,,1064750668000000,1.4947542,Bike
Fix,GPS,37.4215191848,-122.1587099337,-5.318066835122835,0.0,12.28105,,1677629946999,1.106618,,1064751566937000,8.082434,Bike
Fix,FLP,37.4215332,-122.1586488,-5.479190740270155,0.053398333,10.305,,1677629948386,,,1064751610152357,1.9220322,Bike
Fix,GPS,37.4215220251,-122.1587176753,-5.357122176608386,0.0,10.952106,,1677629947999,1.0239701,,1064752567057000,8.081984,Bike
Fix,FLP,37.4215394,-122.1586447,-8.800000190734863,0.050878897,10.153,,1677629949472,,,1064752695154554,1.5366263,Bike
Fix,GPS,37.4215219891,-122.158729318,-4.6636459074447565,0.0,10.774926,,1677629948999,0.7862091,,1064753567020000,7.954541,Bike
Fix,FLP,37.4215415,-122.1586436,-11.393497047265384,0.03482239,10.094,,1677629950013,,,1064753237650953,1.5172708,Bike
Fix,GPS,37.4215181368,-122.158736353,-4.602639261915325,0.0,10.6832695,,1677629949999,0.8058845,,1064754567031000,7.8731933,Bike
Fix,FLP,37.4215431,-122.1586429,-11.2389244418561,0.024480216,9.908,,1677629951099,,,1064754322643629,1.5320112,Bike
Fix,GPS,37.4215205328,-122.1587394746,-4.323962256975993,0.0,10.574183,,1677629950999,0.8373483,,1064755567022000,7.788258,Bike
Fix,FLP,37.4215443,-122.1586427,-8.800000190734863,0.017828997,9.789,,1677629952184,,,1064755407635573,1.5420312,Bike
Fix,NLP,37.4215621,-122.158645,-8.90000057220459,,14.067,,1677629952474,,,1064755698000000,1.3643271,Bike
Fix,GPS,37.4215199091,-122.1587398259,-4.426684637008084,0.0,10.582508,,1677629951999,0.8895057,,1064756567135000,7.7905145,Bike
Fix,FLP,37.4215457,-122.1586422,-6.237398628324229,0.010891992,9.779,,1677629953268,,,1064756492626722,1.4850358,Bike
Fix,GPS,37.4215198996,-122.1587399359,-3.9161410762936697,0.0,10.537427,,1677629952999,0.8068723,,1064757567109000,7.2360554,Bike
Fix,FLP,37.4215467,-122.1586421,-5.923808266561068,0.01014244,9.965,,1677629954353,,,1064757577617445,1.4976046,Bike
Fix,GPS,37.4215192162,-122.1587405672,-3.27020347794035,0.0,10.164234,,1677629953999,0.67901886,,1064758567130000,7.058005,Bike
Fix,FLP,37.4215477,-122.1586424,-4.925570643176137,0.009655687,10.092,,1677629955439,,,1064758662607618,1.5075482,Bike
Fix,GPS,37.4215190348,-122.1587398608,-2.3880072876844367,0.0,9.6430025,,1677629954999,0.70416665,,1064759567135000,6.875355,Bike
Fix,FLP,37.4215482,-122.1586431,-4.795401608261095,0.007437408,10.18,,1677629955982,,,1064759205105360,1.5175382,Bike
Fix,GPS,37.4215186381,-122.1587403516,-1.9106099140822232,0.0,9.491461,,1677629955999,0.6185232,,1064760567171000,6.7496996,Bike
Fix,FLP,37.4215484,-122.1586447,-4.453057728157027,0.005173887,10.251,,1677629957067,,,1064760290087172,1.5275482,Bike
Fix,NLP,37.421557,-122.1586483,-8.700000762939453,,13.308,,1677629957408,,,1064760632000000,1.103579,Bike
Fix,GPS,37.4215187826,-122.1587399491,-1.6074395786642497,0.0,9.2811165,,1677629956999,0.6126781,,1064761567413000,6.581946,Bike
Fix,FLP,37.4215492,-122.1586462,-5.331073672735364,0.008815737,10.15,,1677629958152,,,1064761375081068,1.7296339,Bike
Fix,GPS,37.4215176922,-122.1587409749,-1.643076090402981,0.0,9.172981,,1677629957999,0.6022797,,1064762567312000,6.4914923,Bike
Fix,FLP,37.4215494,-122.1586474,-5.98451179260465,0.0054023955,9.976,,1677629959237,,,1064762460068983,1.7353568,Bike
Fix,FLP,37.4215491,-122.1586492,-5.98451179260465,0.0010376009,9.891,,1677629960329,,,1064763553000000,1.7353568,Bike
Fix,GPS,37.4215171862,-122.1587409793,-1.726333999620196,0.0,9.082701,,1677629958999,0.6317233,,1064763567212000,6.404669,Bike
Fix,GPS,37.4215159439,-122.1587413753,-1.859737390792093,0.0,9.193481,,1677629959999,0.81835276,,1064764567143000,6.356809,Bike
Fix,FLP,37.4215487,-122.1586515,-19.33005037225962,0.0012223431,9.642,,1677629961406,,,1064764630044203,1.8401192,Bike
Fix,FLP,37.4215485,-122.1586531,-19.33005037225962,0.0016180999,9.536,,1677629961948,,,1064765172537855,1.8401192,Bike
Fix,GPS,37.4215138254,-122.1587414744,-2.0632400190773788,0.0,9.35103,,1677629960999,0.694849,,1064765567435000,6.3204226,Bike
Fix,FLP,37.4215484,-122.1586542,-19.33005037225962,0.0006980957,9.582,,1677629962492,,,1064765715031263,1.8490992,Bike
Fix,NLP,37.4215142,-122.1586736,-8.200000762939453,,18.677,,1677629962506,,,1064765730000000,3.4333966,Bike
Fix,FLP,37.421547,-122.1586568,-18.94545657634395,0.006223692,9.5,,1677629963034,,,1064766257524183,1.7030671,Bike
Fix,GPS,37.4215151179,-122.1587419982,-2.1185346561930123,0.0,9.355006,,1677629961999,20.0,,1064766567328000,6.301738,Bike
Fix,GPS,37.4215171947,-122.1587581008,-2.2914634297309298,1.5249591,9.082367,343.76813,1677629962999,0.52284735,17.752735,1064767567337000,6.267125,Bike
Fix,FLP,37.421545,-122.1586602,2.429995175650973,0.017488109,9.565,,1677629964118,,,1064767342509718,1.7230071,Bike
Fix,GPS,37.4215260216,-122.1587679142,-2.429162522474164,1.7006669,8.711514,331.8194,1677629963999,0.44198352,13.856362,1064768567237000,6.268152,Bike
Fix,FLP,37.4215438,-122.1586679,2.3027743499037854,0.6900557,9.658,255.10797,1677629965203,,,1064768427495619,1.7943854,Bike
Fix,GPS,37.4215402414,-122.1587808178,-2.395118187415835,1.9184629,8.246719,312.24527,1677629964999,0.46054262,12.473873,1064769567228000,6.2853665,Bike
Fix,FLP,37.4215416,-122.1586909,-26.518227535985687,1.0083948,10.322,292.87573,1677629966289,,,1064769512481459,1.7426273,Bike
Fix,GPS,37.4215541199,-122.1587987256,-2.5286618104416907,1.6943648,7.5503407,320.4277,1677629965999,0.3716644,11.865422,1064770567446000,6.2515526,Bike
Fix,FLP,37.4215465,-122.158717,-18.59982931913933,1.3452252,10.828,313.6173,1677629967373,,,1064770597466078,1.8452382,Bike
Fix,NLP,37.421773,-122.1587966,-8.800000190734863,,25.926,,1677629967477,,,1064770700000000,1.0,Bike
Fix,FLP,37.4215584,-122.1587451,-18.21523552322366,1.5798869,11.751,319.3953,1677629967915,,,1064771138000000,1.6913134,Bike
Fix,GPS,37.4215739987,-122.1588010488,-3.5754605600410088,1.6050876,7.08084,349.51373,1677629966999,0.34092754,10.433881,1064771567271000,6.16666,Bike
Fix,FLP,37.421568,-122.1587583,-21.3014861147863,1.6421454,12.214,318.89584,1677629968459,,,1064771682451185,1.696035,Bike
Fix,FLP,37.4215774,-122.158768,-21.3014861147863,1.466321,12.562,343.13492,1677629969000,,,1064772224946058,1.696035,Bike
Fix,GPS,37.4215983638,-122.1587925805,-3.8818651306326113,2.061789,6.380561,349.76813,1677629967999,0.34009326,10.0,1064772567276000,5.9739046,Bike
Fix,FLP,37.4215912,-122.1587777,-16.001839270151002,1.6939164,12.721,350.89038,1677629969542,,,1064772765105238,1.787247,Bike
Fix,FLP,37.421599,-122.1587822,-16.001839270151002,1.7986441,12.606,345.29694,1677629970085,,,1064773309919630,1.787247,Bike
Fix,GPS,37.421630517,-122.1587951274,-4.007269354528942,2.6926827,5.677107,334.1037,1677629968999,0.2822751,10.0,1064773567271000,5.6853967,Bike
Fix,FLP,37.4216177,-122.1587914,-1.797566978540459,2.0923047,12.475,338.836,1677629970629,,,1064773852420179,1.8061076,Bike
Fix,GPS,37.4216585054,-122.1588150412,-4.237099851558445,3.7700906,5.46416,315.17923,1677629969999,0.32016537,10.0,1064774567434000,5.5507784,Bike
Fix,FLP,37.4216263,-122.1587967,10.56226404820456,2.226372,11.991,333.15823,1677629971171,,,1064774394912367,1.8162076,Bike
Fix,FLP,37.4216466,-122.1588107,10.56226404820456,2.5573668,11.712,325.31476,1677629971713,,,1064774937404554,1.8162076,Bike
Fix,GPS,37.421692252,-122.158852126,-4.392442985919573,4.5219164,5.220256,311.5696,1677629970999,0.31700605,10.0,1064775567376000,5.4307256,Bike
Fix,FLP,37.4216556,-122.1588206,26.64419541127274,2.8592231,11.489,316.862,1677629972256,,,1064775479896497,1.8261076,Bike
Fix,FLP,37.4216767,-122.1588437,26.64419541127274,3.2411287,10.636,314.5117,1677629972798,,,1064776022388929,1.8261076,Bike
Fix,GPS,37.421721189,-122.1588948954,-4.781941709852502,4.4234133,4.9851627,306.9638,1677629971999,0.33043525,10.0,1064776567467000,5.380158,Bike
Fix,FLP,37.4216897,-122.1588601,11.344373169200743,3.5541964,10.238,312.10062,1677629973341,,,1064776564883741,1.8361076,Bike
Fix,FLP,37.4217085,-122.1588866,11.344373169200743,3.8520653,10.066,310.51678,1677629973856,,,1064777079000000,1.8361076,Bike
Fix,GPS,37.4217499636,-122.1589421982,-4.680702717919502,4.993793,4.761381,303.03464,1677629972999,0.28570476,10.0,1064777567293000,5.2579327,Bike
Fix,FLP,37.4217249,-122.1589122,10.275731346119509,4.081368,9.538,308.80298,1677629974425,,,1064777649864942,1.8460976,Bike
Fix,FLP,37.4217558,-122.15896,10.275731346119509,4.409423,8.629,306.65173,1677629974968,,,1064778192357679,1.8460976,Bike
Fix,GPS,37.4217787154,-122.1589967597,-3.714767182457321,5.292726,4.4842057,308.05405,1677629973999,0.26673236,10.0,1064778567365000,5.099753,Bike
Fix,FLP,37.421767,-122.1589771,17.205047514705633,5.128164,8.252,307.6837,1677629975344,0.26673236,10.0,1064778567365000,1.8564876,Bike
Fix,GPS,37.421807617,-122.1590495007,-3.9142827612908095,5.4707427,4.307348,305.2181,1677629974999,0.3060196,10.0,1064779567544000,5.002087,Bike
Fix,FLP,37.4218009,-122.1590357,17.50466343451135,5.4000835,7.597,305.69318,1677629976344,0.3060196,10.0,1064779567544000,1.8671076,Bike
Fix,GPS,37.4218376754,-122.1591018814,-3.918121261870387,5.71545,4.269007,307.3875,1677629975999,0.31728858,10.0,1064780567449000,4.947189,Bike
Fix,FLP,37.4218335,-122.1590931,10.538642705433835,5.622804,6.977,306.49814,1677629977343,0.31728858,10.0,1064780567449000,1.8770976,Bike
Fix,GPS,37.4218719009,-122.1591592559,-3.9885295613904135,5.894167,5.408897,305.9804,1677629976999,0.35420594,10.0,1064781567645000,4.8885136,Bike
Fix,FLP,37.4218672,-122.1591511,10.538642705433835,5.8242435,6.374,305.415,1677629978344,0.35420594,10.0,1064781567645000,1.8861077,Bike
Fix,GPS,37.4219056353,-122.159215108,-4.1443786937124525,6.201848,4.3037376,307.56512,1677629977999,0.3569805,10.0,1064782567439000,4.869534,Bike
Fix,FLP,37.4219019,-122.15921,5.417451101989663,6.075987,5.535,306.36316,1677629979343,0.3569805,10.0,1064782567439000,1.8961276,Bike
Fix,GPS,37.4219430867,-122.1592695184,-4.536224922124115,6.096069,4.394311,313.27612,1677629978999,0.36875516,10.0,1064783567443000,4.851159,Bike
Fix,FLP,37.4219393,-122.1592667,10.538642705433835,6.087946,5.047,310.7587,1677629980343,0.36875516,10.0,1064783567443000,1.9061177,Bike
Fix,GPS,37.4219871912,-122.1593159211,-4.630221620214774,5.884691,4.9190726,327.92337,1677629979999,0.27616796,10.0,1064784567637000,4.928055,Bike
Fix,FLP,37.4219823,-122.1593155,-8.800000190734863,6.033677,4.659,321.4823,1677629981343,0.27616796,10.0,1064784567637000,1.9170976,Bike
Fix,GPS,37.4220363225,-122.1593561156,-4.508417413017772,5.8942347,5.292163,330.77106,1677629980999,0.35291573,10.0,1064785567555000,5.017401,Bike
Fix,FLP,37.4220303,-122.1593558,-10.803974804211483,5.9849806,4.863,326.8935,1677629982344,0.35291573,10.0,1064785567555000,1.9270977,Bike
Fix,GPS,37.4220898338,-122.159395529,-4.512167770568239,6.0673327,5.242485,325.19394,1677629981999,0.5723559,10.0,1064786567493000,5.081961,Bike
Fix,FLP,37.4220817,-122.1593944,-10.803974804211483,6.040051,4.926,325.77173,1677629983343,0.5723559,10.0,1064786567493000,1.9361176,Bike
Fix,GPS,37.4221335973,-122.1594434943,-4.116798112169411,5.929452,5.306199,315.08423,1677629982999,0.41030902,10.0,1064787567533000,5.1198554,Bike
Fix,FLP,37.4221287,-122.1594393,-8.800000190734863,5.9656086,5.03,318.6283,1677629984343,0.41030902,10.0,1064787567533000,1.9471476,Bike
Fix,GPS,37.4221663187,-122.1594892873,-4.865657676058419,6.024895,5.3131223,317.32965,1677629983999,0.29035154,10.0,1064788567521000,5.146707,Bike
Fix,FLP,37.4221677,-122.1594867,17.41318437739998,6.0036345,5.214,317.50647,1677629985344,0.29035154,10.0,1064788567521000,1.9561176,Bike
Fix,GPS,37.42220557,-122.1595364428,-5.102457087408773,6.2966847,5.291249,319.17273,1677629984999,0.31882954,10.0,1064789567535000,5.158556,Bike
Fix,FLP,37.4222071,-122.1595345,14.203307487747844,6.1973143,5.227,318.51566,1677629986344,0.31882954,10.0,1064789567535000,1.9671376,Bike
Fix,GPS,37.4222491812,-122.1595906897,-4.4498775595774935,6.305419,5.316602,319.30878,1677629985999,0.31249022,10.0,1064790567540000,5.1877823,Bike
Fix,FLP,37.4222492,-122.1595854,14.699584652568213,6.274165,5.293,318.79767,1677629987344,0.31249022,10.0,1064790567540000,1.9761477,Bike
Fix,GPS,37.4222939518,-122.15964363,-4.3278189119645045,6.621787,5.393189,317.97128,1677629986999,0.3090441,10.0,1064791567617000,5.191117,Bike
Fix,FLP,37.4222928,-122.1596379,13.55911537030915,6.4980984,5.324,317.62115,1677629988344,0.3090441,10.0,1064791567617000,1.9861276,Bike
Fix,GPS,37.4223356229,-122.1596972558,-4.679214189419414,6.609669,5.455769,317.86465,1677629987999,0.33945343,10.0,1064792567584000,5.181695,Bike
Fix,FLP,37.4223359,-122.1596921,14.5819345325423,6.5729656,5.354,317.1824,1677629989344,0.33945343,10.0,1064792567584000,2.0006285,Bike
Fix,GPS,37.4223780006,-122.159751313,-4.718552498668411,6.691881,5.5356407,314.5144,1677629988999,0.36405692,10.0,1064793567784000,5.202773,Bike
Fix,FLP,37.4223785,-122.1597481,1.868421316416928,6.6881113,5.398,314.10242,1677629990344,0.36405692,10.0,1064793567784000,2.0106184,Bike
Fix,FLP,37.4224014,-122.1597791,-8.800000190734863,6.6434746,6.223,314.07455,1677629991147,0.36405692,10.0,1064794370000000,1.6610557,Bike
Fix,NLP,37.4222962,-122.159679,-7.999999523162842,,13.141,,1677629991147,,,1064794370000000,1.0,Bike
Fix,GPS,37.4224178964,-122.15980915,-4.747458116538353,6.662483,5.4788747,320.32825,1677629989999,0.30450284,10.0,1064794567579000,5.19227,Bike
Fix,FLP,37.4224147,-122.1598006,-8.800000190734863,6.6715326,6.255,319.76764,1677629991344,0.30450284,10.0,1064794567579000,1.6941822,Bike
Fix,GPS,37.4224628834,-122.1598543937,-4.479776635694207,6.4680605,5.078003,318.28983,1677629990999,0.031078933,10.0,1064795567682000,4.891761,Bike
Fix,FLP,37.4224621,-122.1598528,-12.243167683840468,6.4735203,6.215,318.0466,1677629992344,0.031078933,10.0,1064795567682000,1.710801,Bike
Fix,GPS,37.4225037962,-122.1599007231,-4.472718374540255,6.2255635,4.788524,318.77942,1677629991999,0.036504425,10.0,1064796567753000,4.782573,Bike
Fix,FLP,37.4225043,-122.159901,-8.800000190734863,6.232047,6.114,317.99527,1677629993343,0.036504425,10.0,1064796567753000,1.6577938,Bike
Fix,GPS,37.4225445523,-122.1599449518,-4.635704863235666,6.1350284,5.2611876,315.46194,1677629992999,0.3137526,10.0,1064797567589000,4.834999,Bike
Fix,FLP,37.422545,-122.1599461,-7.999999523162842,6.1374183,6.082,315.0867,1677629994343,0.3137526,10.0,1064797567589000,1.2526922,Bike
Fix,GPS,37.4225864688,-122.1599927505,-4.497803510855322,6.45612,5.417783,317.5794,1677629993999,0.3064224,10.0,1064798567798000,4.8671064,Bike
Fix,FLP,37.4225857,-122.1599937,-5.823437130974575,6.4465947,6.062,316.95016,1677629995344,0.3064224,10.0,1064798567798000,1.140935,Bike
Fix,GPS,37.4226326958,-122.1600369732,-4.519632108142301,5.837988,5.4695654,322.06625,1677629994999,0.2714593,10.0,1064799567822000,4.917496,Bike
Fix,FLP,37.4226311,-122.1600392,-7.999999523162842,5.854774,5.203,321.8281,1677629996344,0.2714593,10.0,1064799567822000,1.1509249,Bike
Fix,GPS,37.4226762116,-122.1600771858,-4.597270054229525,6.03004,5.5874677,320.01855,1677629995999,0.24202374,10.0,1064800567719000,4.9467793,Bike
Fix,FLP,37.4226749,-122.1600783,-11.318857258880954,6.024699,5.305,320.05658,1677629997343,0.24202374,10.0,1064800567719000,1.1609349,Bike
Fix,GPS,37.4227173395,-122.1601192317,-4.617835809715021,6.0158706,5.6624565,317.35104,1677629996999,0.35332254,10.0,1064801567730000,4.9854283,Bike
Fix,FLP,37.422717,-122.1601203,-11.318857258880954,6.0153713,5.364,317.08682,1677629998343,0.35332254,10.0,1064801567730000,1.171935,Bike
Fix,GPS,37.4227549994,-122.1601664388,-4.424375475098665,6.2344785,5.3683486,311.8388,1677629997999,0.31434193,10.0,1064802568063000,4.9741535,Bike
Fix,FLP,37.4227555,-122.1601666,-7.999999523162842,6.229319,5.501,311.16522,1677629999345,0.31434193,10.0,1064802568063000,1.1809449,Bike
Fix,GPS,37.4227923037,-122.1602184663,-4.789633398239914,6.059237,5.2683163,311.9266,1677629998999,0.29723516,10.0,1064803567770000,4.945865,Bike
Fix,FLP,37.4227923,-122.1602189,19.61008686516673,6.063845,5.462,311.00983,1677630000343,0.29723516,10.0,1064803567770000,1.1909449,Bike
Fix,GPS,37.4228288829,-122.1602683128,-4.960859354869258,6.2625732,5.2778134,315.60275,1677629999999,0.27417,10.0,1064804567771000,4.94353,Bike
Fix,FLP,37.4228287,-122.1602691,9.517045158692106,6.2564316,5.438,314.88953,1677630001344,0.27417,10.0,1064804567771000,1.200935,Bike
Fix,GPS,37.4228694681,-122.1603180276,-5.235951370892584,6.195269,5.386427,315.9836,1677630000999,0.28580838,10.0,1064805569185000,4.957704,Bike
Fix,FLP,37.4228691,-122.1603185,14.112498691336375,6.1970005,5.392,314.99756,1677630002345,0.28580838,10.0,1064805569185000,1.210935,Bike
Fix,GPS,37.422910158,-122.1603651173,-5.590080459593069,6.475134,5.486487,316.92062,1677630001999,0.2682793,10.0,1064806567805000,4.977177,Bike
Fix,FLP,37.4229096,-122.1603661,3.6822062969938183,6.466673,5.357,315.97424,1677630003344,0.2682793,10.0,1064806567805000,1.220935,Bike
Fix,GPS,37.4229527803,-122.160415914,-5.440655037377216,6.162105,5.6585035,319.632,1677630002999,0.34728196,3.1521564,1064807567958000,5.037099,Bike
Fix,FLP,37.4229523,-122.1604163,-7.999999523162842,6.163717,5.407,318.98288,1677630004344,0.34728196,3.1521564,1064807567958000,1.2225852,Bike
Fix,GPS,37.4229945282,-122.1604630481,-5.538776169142738,5.8792534,5.644942,319.91937,1677630003999,0.39806506,3.8284407,1064808568143000,5.0699453,Bike
Fix,FLP,37.4229944,-122.1604627,-8.800000190734863,5.881367,5.49,318.9999,1677630005344,0.39806506,3.8284407,1064808568143000,1.2316152,Bike
Fix,GPS,37.4230374377,-122.1605090797,-5.424880406754195,5.8439684,5.7518725,319.8373,1677630004999,0.45228913,4.258865,1064809567942000,5.1719856,Bike
Fix,FLP,37.4230363,-122.1605081,-7.999999523162842,5.8443317,5.585,319.00003,1677630006344,0.45228913,4.258865,1064809567942000,1.2425852,Bike
Fix,GPS,37.4230753949,-122.160545485,-5.391716035002068,5.7522736,5.2529306,322.42578,1677630005999,0.09762472,1.0,1064810568164000,4.950181,Bike
Fix,FLP,37.4230756,-122.1605475,-7.999999523162842,5.7523127,5.53,321.9986,1677630007345,0.09762472,1.0,1064810568164000,1.2525852,Bike
Fix,GPS,37.4231118494,-122.1605870918,-5.320926043005543,5.6966906,4.8936944,320.90405,1677630006999,0.05078188,1.0,1064811567923000,4.822645,Bike
Fix,FLP,37.4231132,-122.1605873,-7.999999523162842,5.6966996,5.44,320.0006,1677630008344,0.05078188,1.0,1064811567923000,1.2625753,Bike
Fix,GPS,37.4231577434,-122.1606271488,-5.1005263129075695,5.153574,5.0383096,318.3326,1677630007999,0.42692092,4.5467315,1064812567863000,4.8134365,Bike
Fix,FLP,37.423156,-122.1606276,-7.999999523162842,5.1580806,5.373,318.01862,1677630009344,0.42692092,4.5467315,1064812567863000,1.2716252,Bike
Fix,GPS,37.4231938904,-122.1606640475,-5.1140642941507,4.847989,5.166592,309.24136,1677630008999,0.4218661,4.884072,1064813567826000,4.8232636,Bike
Fix,FLP,37.4231928,-122.1606649,-10.665742642450232,4.8500013,5.291,309.07883,1677630010343,0.4218661,4.884072,1064813567826000,1.2815652,Bike
Fix,GPS,37.4232189488,-122.1607038059,-5.361001014503302,3.8833904,5.315673,298.37354,1677630009999,0.3904572,5.81081,1064814568020000,4.892166,Bike
Fix,FLP,37.4232193,-122.1607051,-7.999999523162842,3.8897727,5.133,298.1006,1677630011344,0.3904572,5.81081,1064814568020000,1.2915752,Bike
Fix,GPS,37.4232265355,-122.1607408787,-5.203827633251644,2.9303322,5.3501034,277.43707,1677630010999,0.39570174,7.6954145,1064815567908000,4.998298,Bike
Fix,FLP,37.4232272,-122.1607321,-7.999999523162842,2.9509246,5.206,277.78064,1677630012344,0.39570174,7.6954145,1064815567908000,1.310925,Bike
Fix,NLP,37.4228629,-122.1605918,-7.400000095367432,,21.159,,1677630012296,,,1064815519000000,3.156354,Bike
Fix,GPS,37.423220977,-122.160773502,-5.42109344895905,2.4892316,5.376184,245.59058,1677630011999,0.39582548,9.283011,1064816567920000,5.0818458,Bike
Fix,FLP,37.423225,-122.1607667,-7.400000095367432,2.4891298,5.247,245.7638,1677630013344,0.39582548,9.283011,1064816567920000,1.8622731,Bike
Fix,GPS,37.4232040357,-122.1607934235,-5.706808952195673,2.5321996,5.5021505,219.52129,1677630012999,0.3737784,8.128683,1064817567980000,5.116551,Bike
Fix,FLP,37.4232085,-122.1607933,-0.7429529807966802,2.5298684,5.341,219.19247,1677630014343,0.3737784,8.128683,1064817567980000,1.1610863,Bike
Fix,FLP,37.423202,-122.1607979,-0.7429529807966802,2.5324597,5.665,217.62395,1677630014521,,,1064817744469069,1.1610863,Bike
Fix,FLP,37.4231937,-122.1608033,-0.7429529807966802,2.534225,5.952,206.63736,1677630015063,,,1064818286959791,1.1610863,Bike
Fix,GPS,37.4231699735,-122.16081514,-5.262242944985515,3.0772724,5.627411,201.10948,1677630013999,0.4053551,7.2701573,1064818567990000,5.1649857,Bike
Fix,FLP,37.4231736,-122.1608133,16.747009500955734,2.9981763,6.543,199.1824,1677630015606,,,1064818829456191,1.1498361,Bike
Fix,GPS,37.4231321763,-122.1608330711,-5.295000469333882,3.5100603,5.7542586,201.97409,1677630014999,0.4394203,6.9536705,1064819567984000,5.2476363,Bike
Fix,FLP,37.4231581,-122.1608199,19.93140830764151,3.0743349,6.78,195.80446,1677630016148,,,1064819371952955,1.1598581,Bike
Fix,FLP,37.4231369,-122.1608308,19.93140830764151,3.4199162,7.22,200.2592,1677630016664,,,1064819887340346,1.1598581,Bike
Fix,GPS,37.4230986347,-122.1608506793,-4.753567527368243,3.9694476,6.0131435,204.17969,1677630015999,0.43744063,6.116982,1064820568006000,5.335193,Bike
Fix,NLP,37.422804,-122.1608098,-6.499999523162842,,26.463,,1677630017361,,,1064820584000000,1.6846907,Bike
Fix,FLP,37.42312,-122.1608409,19.93140830764151,3.4802108,7.967,204.93736,1677630017232,,,1064820456936598,1.1698581,Bike
Fix,FLP,37.4230926,-122.1608524,19.93140830764151,3.5451255,8.257,205.49535,1677630017776,,,1064820999430190,1.1142923,Bike
Fix,GPS,37.4230441576,-122.1608721788,-4.477101948775567,4.2583957,5.7589817,212.97348,1677630016999,0.42111513,5.5113983,1064821568316000,5.446164,Bike
Fix,FLP,37.4230717,-122.1608604,16.124662644307485,3.7250123,8.898,204.02724,1677630018318,,,1064821541923354,1.1242957,Bike
Fix,GPS,37.4229976844,-122.160892767,-4.124103675023971,4.1866717,5.5546894,216.53394,1677630017999,0.41005358,5.3823357,1064822568046000,5.4485803,Bike
Fix,FLP,37.4230307,-122.160891,16.124662644307485,4.289163,9.69,217.11154,1677630019403,,,1064822626907057,1.1343358,Bike
Fix,GPS,37.4229543272,-122.1609187877,-3.429595110742719,3.8654277,5.3443403,218.85548,1677630018999,0.38816157,5.5125127,1064823568135000,5.461271,Bike
Fix,FLP,37.4229818,-122.1609265,16.124662644307485,4.233216,9.986,217.19255,1677630020488,,,1064823711896254,1.1343358,Bike
Fix,FLP,37.4229422,-122.1609462,15.635451037784245,3.9245358,9.999,215.65541,1677630021030,,,1064824254389174,1.1443176,Bike
Fix,GPS,37.4229201053,-122.1609466781,-3.055146870471661,3.9890528,5.3306704,221.19142,1677630019999,0.3959986,5.4844217,1064824568052000,5.5656657,Bike
Fix,FLP,37.4229068,-122.160972,15.635451037784245,3.9722881,9.994,221.40709,1677630022116,,,1064825339374343,1.1543475,Bike
Fix,GPS,37.4228865605,-122.1609779647,-2.8252567755943376,4.0789056,5.3442707,221.05933,1677630020999,0.40256944,5.4717073,1064825568135000,5.603174,Bike
Fix,FLP,37.4228822,-122.1609919,13.483667234712208,4.051142,9.888,221.80678,1677630022658,,,1064825881867201,1.1643375,Bike
Fix,GPS,37.4228526087,-122.1610097165,-2.455468912744558,3.8219583,5.397243,220.1998,1677630021999,0.3851394,5.6076446,1064826568426000,5.696784,Bike
Fix,FLP,37.4228722,-122.1610003,9.323461239872422,4.0793138,9.785,222.11783,1677630023201,,,1064826424359694,1.1743375,Bike
Fix,FLP,37.4228507,-122.1610192,9.323461239872422,3.8986368,9.685,218.64948,1677630023743,,,1064826966849379,1.1743375,Bike
Fix,GPS,37.4228233331,-122.1610369139,-2.035209801659124,3.7264338,5.6095,211.33199,1677630022999,0.41101643,6.065101,1064827568162000,5.8301187,Bike
Fix,FLP,37.422836,-122.1610306,-3.0397776613434786,3.8706856,9.599,214.81248,1677630024286,,,1064827509346998,1.1843475,Bike
Fix,FLP,37.4227989,-122.161058,-3.0397776613434786,3.7621255,9.493,212.56961,1677630025371,,,1064828594328444,1.1843475,Bike
Fix,GPS,37.422792208,-122.1610553228,-1.6468440798060389,3.3386054,5.7317696,208.72214,1677630023999,0.42751005,7.0436864,1064828568253000,5.9752526,Bike
Fix,GPS,37.4227633668,-122.1610744119,-1.5453790974763528,3.1966214,5.8156204,212.84123,1677630024999,0.40183792,6.9257874,1064829568165000,6.070201,Bike
Fix,FLP,37.4227664,-122.161081,-3.3663796518675966,3.399097,9.52,216.41823,1677630026455,,,1064829679312087,1.2043475,Bike
Fix,GPS,37.422736697,-122.1610969105,-1.3690404102858449,2.3833046,5.8413024,224.6765,1677630025999,0.42096514,9.81954,1064830568348000,6.093181,Bike
Fix,FLP,37.4227451,-122.1610936,-6.499999523162842,3.2120402,9.553,215.93741,1677630026998,,,1064830221803481,1.2143475,Bike
Fix,GPS,37.4227250758,-122.1611223142,-1.584040976090841,1.6497482,5.9202065,265.54025,1677630026999,0.3856321,12.720239,1064831568455000,6.1160474,Bike
Fix,FLP,37.4227246,-122.1611162,-4.06722390505994,2.4566836,9.653,236.17117,1677630028083,,,1064831306783278,1.2243475,Bike
Fix,GPS,37.4227278453,-122.1611485162,-1.5807139669210764,1.6226182,5.945983,314.5765,1677630027999,0.38854447,13.07798,1064832568130000,6.1237836,Bike
Fix,FLP,37.4227202,-122.161143,-6.499999523162842,1.6540508,9.819,284.7992,1677630029167,,,1064832391770399,1.2345375,Bike
Fix,FLP,37.4227245,-122.1611531,-6.499999523162842,1.5847322,10.006,312.06232,1677630029676,,,1064832900000000,1.2345375,Bike
Fix,FLP,37.4227345,-122.1611647,-6.499999523162842,1.604176,10.098,330.2667,1677630030256,,,1064833480000000,1.2345375,Bike
Fix,GPS,37.4227440034,-122.1611739592,-0.5314340780971116,2.427993,5.978416,324.469,1677630028999,0.40002754,8.732099,1064833568152000,6.1383047,Bike
Fix,GPS,37.4227712674,-122.1612040211,-0.4659174713255732,2.7499554,5.9986424,311.6538,1677630029999,0.41138524,8.255678,1064834568175000,6.1517453,Bike
Fix,FLP,37.4227573,-122.1611836,-6.499999523162842,2.3141975,10.433,324.51865,1677630031337,,,1064834561732009,1.2543575,Bike
Fix,FLP,37.4227723,-122.161204,-6.499999523162842,2.676168,10.451,310.46713,1677630031880,,,1064835104222731,1.2543575,Bike
Fix,GPS,37.4227966174,-122.1612421194,0.3066150182721187,3.0491443,5.8666043,306.92517,1677630030999,0.4155136,7.4068885,1064835568449000,6.2124977,Bike
Fix,FLP,37.4227825,-122.1612222,-6.499999523162842,2.749714,10.551,308.1051,1677630032423,,,1064835646710463,1.2643474,Bike
Fix,GPS,37.42282076,-122.1612775015,0.3281418044600841,3.4029577,5.7816496,301.54105,1677630031999,0.42548975,6.7950277,1064836568256000,6.299776,Bike
Fix,FLP,37.4228003,-122.1612546,-4.582438106991134,3.0146317,10.527,305.47147,1677630032966,,,1064836189203870,1.2743402,Bike
Fix,FLP,37.4228153,-122.1612766,-4.582438106991134,3.3419487,10.532,301.4569,1677630033507,,,1064836731694411,1.2743402,Bike
Fix,GPS,37.4228351944,-122.1613116294,-0.0615520411037882,3.345858,5.622501,283.26434,1677630032999,0.41290486,6.8584704,1064837568312000,6.3033233,Bike
Fix,FLP,37.4228256,-122.1612954,-6.499999523162842,3.4077363,10.462,298.77377,1677630034051,,,1064837274184645,1.2843701,Bike
Fix,FLP,37.4228344,-122.1613194,-6.499999523162842,3.371929,10.354,284.07584,1677630034592,,,1064837816674391,1.2843701,Bike
Fix,FLP,37.4228377,-122.1613411,-6.499999523162842,3.3592145,10.198,279.4439,1677630035136,,,1064838359164321,1.2843701,Bike
Fix,GPS,37.4228371544,-122.1613488691,-1.3867064624490373,3.9505916,5.578506,265.29477,1677630033999,0.380333,5.2455735,1064838568383000,6.3371224,Bike
Fix,FLP,37.4228395,-122.1613683,-4.734176801291532,3.864153,10.045,269.16208,1677630035663,,,1064838887340346,1.2944502,Bike
Fix,GPS,37.4228307236,-122.1614056894,-1.0524886246067116,4.6868,5.4456935,265.6593,1677630034999,0.39469573,4.7461224,1064839568273000,6.295584,Bike
Fix,FLP,37.4228378,-122.1613801,-4.086192546872361,3.920309,9.922,266.2087,1677630036220,,,1064839444143813,1.3043501,Bike
Fix,FLP,37.4228348,-122.1614147,-4.086192546872361,4.58734,9.766,265.85938,1677630036763,,,1064839986630568,1.3043501,Bike
Fix,GPS,37.4228246677,-122.16146681,-1.2259237255305238,4.5130634,5.3207173,269.32755,1677630035999,0.3757674,4.7244477,1064840568520000,6.248378,Bike
Fix,FLP,37.4228328,-122.1614392,4.394983311780585,4.6721315,9.518,265.8539,1677630037305,,,1064840529123305,1.3143501,Bike
Fix,FLP,37.4228286,-122.1614756,4.394983311780585,4.5443454,9.449,267.9143,1677630037847,,,1064841071613051,1.3143501,Bike
Fix,GPS,37.4228236412,-122.1615276693,-1.5357836633885475,4.3317327,5.3464575,280.48526,1677630036999,0.37231335,4.585889,1064841568629000,6.2995768,Bike
Fix,FLP,37.4228274,-122.1615079,4.394983311780585,4.506446,9.333,272.45593,1677630038391,,,1064841614101820,1.3243401,Bike
Fix,GPS,37.4228382723,-122.1615824019,-1.9498811577095712,4.313213,5.2207756,297.86655,1677630037999,0.37368459,4.554301,1064842568329000,6.3063846,Bike
Fix,FLP,37.4228329,-122.1615681,4.129673398103087,4.2832317,9.238,287.02087,1677630039475,,,1064842699081557,1.3343601,Bike
Fix,GPS,37.4228595942,-122.1616318843,-1.7325669603804497,4.5223236,5.0948544,302.68457,1677630038999,0.37298557,4.443777,1064843568421000,6.216047,Bike
Fix,FLP,37.4228485,-122.1616154,4.129673398103087,4.2420993,9.047,302.06445,1677630040018,,,1064843241570571,1.3343601,Bike
Fix,FLP,37.4228714,-122.1616561,12.131118874292603,4.488281,8.877,301.64966,1677630041102,,,1064844326548719,1.3443601,Bike
Fix,GPS,37.4228843811,-122.1616813215,-1.0997518999514933,5.1095514,5.1037865,299.71585,1677630039999,0.38148564,4.043614,1064844568511000,6.163201,Bike
Fix,FLP,37.4228897,-122.1616919,12.278537678198056,4.958224,8.685,299.33765,1677630041646,,,1064844869038405,1.3543401,Bike
Fix,GPS,37.4229101901,-122.1617377705,-1.4332491186533285,5.7471123,5.1067104,294.09747,1677630040999,0.39297682,3.6544812,1064845568619000,6.0868316,Bike
Fix,FLP,37.4229038,-122.1617239,12.278537678198056,5.7354927,8.324,294.08136,1677630042345,0.39297682,3.6544812,1064845568619000,1.3643501,Bike
Fix,GPS,37.4229355091,-122.1618028762,-1.7174751297477742,5.824066,4.977723,291.65518,1677630041999,0.35395205,3.2831447,1064846568382000,5.9504375,Bike
Fix,FLP,37.422932,-122.1617965,10.159960432823516,5.8235087,7.98,291.01675,1677630043345,0.35395205,3.2831447,1064846568382000,1.3743501,Bike
Fix,GPS,37.4229570394,-122.1618639372,-2.6081081092595078,5.486117,4.8989716,291.5543,1677630042999,0.3718436,3.7118568,1064847568989000,5.874204,Bike
Fix,FLP,37.422955,-122.161862,1.9382343447539296,5.4883046,7.317,290.9997,1677630044344,0.3718436,3.7118568,1064847568989000,1.3843601,Bike
Fix,GPS,37.4229738332,-122.1619247231,-2.863022740017822,5.502933,4.8741837,291.0626,1677630043999,0.375523,3.7753828,1064848568578000,5.8235593,Bike
Fix,FLP,37.4229734,-122.1619232,13.695841247233725,5.5028477,6.668,291.0,1677630045344,0.375523,3.7753828,1064848568578000,1.379048,Bike
Fix,GPS,37.422991246,-122.1619825183,-3.689726308466696,5.293771,4.8356695,294.07736,1677630044999,0.37369365,3.9582539,1064849568739000,5.7839155,Bike
Fix,FLP,37.4229912,-122.1619822,7.927939654768942,5.295113,5.51,293.9798,1677630046344,0.37369365,3.9582539,1064849568739000,1.3890281,Bike
Fix,GPS,37.4230091124,-122.162039997,-4.025646427668007,5.0975533,4.853901,291.4116,1677630045999,0.37206638,4.141184,1064850568449000,5.7514644,Bike
Fix,FLP,37.4230096,-122.162039,3.5133859873923043,5.0987964,4.924,291.0199,1677630047344,0.37206638,4.141184,1064850568449000,1.3990381,Bike
Fix,GPS,37.4230220531,-122.1620975369,-3.958212931207802,5.118944,4.8907313,288.92194,1677630046999,0.38860676,4.2457423,1064851568476000,5.7257614,Bike
Fix,FLP,37.4230234,-122.162096,15.25879794645413,5.1187367,4.87,288.02057,1677630048345,0.38860676,4.2457423,1064851568476000,1.409028,Bike
Fix,GPS,37.4230305549,-122.1621547511,-3.658026359230945,4.7634945,4.8676395,287.66895,1677630047999,0.3652553,4.2914205,1064852568592000,5.708194,Bike
Fix,FLP,37.423035,-122.1621521,12.544103473964562,5.119648,5.444,287.24072,1677630049345,,,1064852568592000,1.419038,Bike
Fix,FLP,37.4230414,-122.1621689,12.544103473964562,4.740067,6.013,336.36072,1677630049863,,,1064853087739210,1.419038,Bike
Fix,FLP,37.4230532,-122.1621702,12.544103473964562,4.7122817,7.345,352.3442,1677630050364,,,1064853588000000,1.419038,Bike
Fix,GPS,37.42303881,-122.162210855,-3.1965393933683512,4.5306706,4.8604155,287.9731,1677630048999,0.35163578,4.3621225,1064853568493000,5.7154417,Bike
Fix,FLP,37.4230644,-122.1622086,3.5133859873923043,4.69384,8.106,302.9518,1677630050949,,,1064854172711684,1.4371705,Bike
Fix,NLP,37.4233762,-122.1626618,-5.5,,44.721,,1677630051249,,,1064854473000000,5.5601044,Bike
Fix,GPS,37.4230485904,-122.162265987,-3.258726156264361,5.061091,5.01151,285.12448,1677630049999,0.39264265,4.472068,1064854568475000,5.762595,Bike
Fix,FLP,37.4230597,-122.1622636,14.872912934488518,4.999114,8.48,285.95865,1677630051491,,,1064854715199477,1.1053702,Bike
Fix,GPS,37.423056617,-122.1623285758,-3.349305377247214,5.285671,5.0913334,283.81186,1677630050999,0.39090976,4.141438,1064855568571000,5.7816124,Bike
Fix,FLP,37.4230594,-122.1623128,14.872912934488518,5.283159,8.504,283.01312,1677630052345,0.39090976,4.141438,1064855568571000,1.1158221,Bike
Fix,GPS,37.4230656553,-122.1623927324,-3.407418229012985,4.910307,5.092704,286.41724,1677630051999,0.3670191,4.19946,1064856568857000,5.798583,Bike
Fix,FLP,37.4230672,-122.1623855,9.011271580348954,4.9126954,8.524,285.97958,1677630053344,0.3670191,4.19946,1064856568857000,1.1260654,Bike
Fix,GPS,37.4230753024,-122.1624496585,-3.309563945595984,4.8040614,5.109785,288.8962,1677630052999,0.37994912,4.3911963,1064857568579000,5.805986,Bike
Fix,FLP,37.4230786,-122.1624443,9.011271580348954,5.031148,8.596,286.43512,1677630054344,,,1064857568579000,1.1360654,Bike
Fix,FLP,37.4230856,-122.1624858,13.9075068274962,4.235205,7.98,234.16144,1677630055455,,,1064858678000000,1.1460754,Bike
Fix,GPS,37.4230863516,-122.1625044105,-3.7166028843117354,4.816286,5.102042,287.5369,1677630053999,0.38986805,4.5882864,1064858568571000,5.8463197,Bike
Fix,GPS,37.4230965234,-122.1625611347,-4.151431249227701,5.0671287,5.0775175,286.378,1677630054999,0.3787139,4.175548,1064859568576000,5.8410006,Bike
Fix,FLP,37.4230725,-122.1625209,13.9075068274962,4.5338516,9.538,254.24806,1677630056034,,,1064859258519850,1.1560655,Bike
Fix,FLP,37.4230818,-122.1625534,13.9075068274962,4.7626295,9.412,272.61008,1677630056578,,,1064859801019240,1.1560655,Bike
Fix,GPS,37.4231094256,-122.1626194434,-4.489993582413247,4.9034925,5.0680804,287.57385,1677630055999,0.38614368,4.303499,1064860568603000,5.807466,Bike
Fix,FLP,37.4230936,-122.1625914,6.781094017213682,4.940401,9.84,282.31613,1677630057120,,,1064860343507948,1.1660655,Bike
Fix,GPS,37.423121455,-122.1626773569,-4.632294123047036,4.858303,5.020872,289.94177,1677630056999,0.37318617,4.2509556,1064861568629000,5.794583,Bike
Fix,FLP,37.4231128,-122.1626528,11.11877556078479,4.9302135,9.629,286.636,1677630058204,,,1064861428480482,1.1760654,Bike
Fix,FLP,37.4231251,-122.1626984,11.11877556078479,4.8494067,9.897,288.87268,1677630058746,,,1064861970966994,1.1760654,Bike
Fix,GPS,37.4231363272,-122.1627332595,-4.873683477453081,4.838097,4.919257,290.81042,1677630057999,0.35850802,4.0559053,1064862568763000,5.730696,Bike
Fix,FLP,37.4231292,-122.1627113,-2.658298763209657,4.855071,9.895,290.36484,1677630059290,,,1064862513441237,1.1860754,Bike
Fix,FLP,37.4231413,-122.1627511,-2.658298763209657,4.848664,10.212,290.44983,1677630059831,,,1064863055940749,1.1860754,Bike
Fix,GPS,37.4231511383,-122.162782029,-5.1713862587008,4.631684,5.028982,292.7034,1677630058999,0.35346818,4.1467843,1064863568617000,5.68702,Bike
Fix,FLP,37.4231477,-122.1627726,-7.400000095367432,4.859694,9.765,290.31934,1677630060375,,,1064863598426528,1.1960554,Bike
Fix,GPS,37.4231648954,-122.1628316523,-5.415915268793529,4.325481,5.054479,291.24527,1677630059999,0.35694817,4.51519,1064864568699000,5.6599326,Bike
Fix,FLP,37.4231651,-122.1628323,-7.400000095367432,4.6788106,8.823,291.0896,1677630061460,,,1064864683399855,1.2060654,Bike
Fix,GPS,37.4231760854,-122.1628811582,-5.49176425774642,3.915083,5.1512427,288.74106,1677630060999,0.38095972,5.3015246,1064865568904000,5.6894627,Bike
Fix,FLP,37.4231761,-122.1628671,-6.499999523162842,4.3842645,8.824,291.09924,1677630062002,,,1064865225884962,1.2160754,Bike
Fix,GPS,37.4231855445,-122.1629257895,-5.943189874692172,3.5339048,5.1636105,289.68097,1677630061999,0.3513138,5.3658442,1064866568738000,5.659532,Bike
Fix,FLP,37.4231861,-122.1629143,-5.5,3.980003,8.883,286.91928,1677630063087,,,1064866310862196,1.2260554,Bike
Fix,FLP,37.4231895,-122.1629407,-5.5,3.5930943,8.859,288.13123,1677630063630,,,1064866853348219,1.2260554,Bike
Fix,GPS,37.423201562,-122.1629703089,-6.087018338141481,3.7142353,4.952756,291.00613,1677630062999,0.36067614,5.253318,1064867568759000,5.6109495,Bike
Fix,FLP,37.4231927,-122.1629534,-3.542749734050787,3.5529344,8.813,288.99948,1677630064172,,,1064867395836195,1.2360654,Bike
Fix,FLP,37.4232033,-122.1629814,-3.542749734050787,3.6835704,8.76,291.19934,1677630064715,,,1064867938322340,1.2360654,Bike
Fix,GPS,37.4232192893,-122.1630127485,-6.061824635712509,3.9523268,4.8273435,286.1062,1677630063999,0.36376834,5.114904,1064868568678000,5.546443,Bike
Fix,FLP,37.4232105,-122.1629999,2.28145899235426,3.7154725,8.724,291.96793,1677630065257,,,1064868480810378,1.2460654,Bike
Fix,FLP,37.4232217,-122.1630306,2.28145899235426,3.9433305,8.617,287.12183,1677630065799,,,1064869023296401,1.2460654,Bike
Fix,GPS,37.4232322354,-122.1630667191,-5.44686379232355,4.4179916,4.8777657,286.61337,1677630064999,0.37622795,4.6808095,1064869568862000,5.5969224,Bike
Fix,FLP,37.4232274,-122.1630526,22.891224617332064,3.9713948,8.602,285.0978,1677630066341,,,1064869565783034,1.2560654,Bike
Fix,GPS,37.4232447788,-122.1631207119,-4.8809802744943775,4.898492,4.8456306,284.73257,1677630065999,0.37369996,4.2654033,1064870568785000,5.593952,Bike
Fix,FLP,37.4232398,-122.1631036,11.348352684376389,4.335292,8.546,285.15198,1677630067427,,,1064870650758986,1.2660555,Bike
Fix,GPS,37.4232554734,-122.1631790674,-4.679318964723245,4.9981256,4.908243,285.95578,1677630066999,0.38432708,4.3059835,1064871568786000,5.6166563,Bike
Fix,FLP,37.4232513,-122.1631511,10.179474600299436,4.8084426,8.52,284.90646,1677630067970,,,1064871193245070,1.276076,Bike
Fix,FLP,37.4232546,-122.1631689,10.179474600299436,4.941635,8.53,285.06683,1677630068519,,,1064871742000000,1.276076,Bike
Fix,FLP,37.4232637,-122.1632131,10.179474600299436,4.990156,8.522,285.11417,1677630069054,,,1064872278219252,1.276076,Bike
Fix,GPS,37.423269343,-122.1632377096,-4.738868816225242,5.299047,5.072506,288.90866,1677630067999,0.41590986,4.3391685,1064872568754000,5.6559024,Bike
Fix,FLP,37.4232674,-122.1632283,12.159369665459998,5.288951,8.235,287.9786,1677630069345,0.41590986,4.3391685,1064872568754000,1.2860559,Bike
Fix,GPS,37.4232840555,-122.1632972765,-4.864622161081059,5.262022,5.139078,289.43442,1677630068999,0.4147569,4.4326167,1064873568801000,5.7179904,Bike
Fix,FLP,37.4232834,-122.1632932,19.97510896732927,5.262283,7.773,288.9918,1677630070345,0.4147569,4.4326167,1064873568801000,1.2960559,Bike
Fix,GPS,37.4232980754,-122.163355881,-4.688615599145199,5.169299,5.1747384,284.44348,1677630069999,0.37741846,4.2371564,1064874568838000,5.7381835,Bike
Fix,FLP,37.4232983,-122.1633538,16.282943049342528,5.169828,7.482,284.035,1677630071345,0.37741846,4.2371564,1064874568838000,1.306056,Bike
Fix,GPS,37.4233077865,-122.1634090198,-4.872911805353532,4.867095,5.124893,279.47748,1677630070999,0.36045435,4.241071,1064875568782000,5.746312,Bike
Fix,FLP,37.4233084,-122.1634095,4.586401631387396,4.868835,7.03,279.03284,1677630072344,0.36045435,4.241071,1064875568782000,1.3160659,Bike
Fix,GPS,37.423316187,-122.1634633788,-5.530425676230977,4.814328,5.0690794,279.6116,1677630071999,0.3696673,4.4326205,1064876569161000,5.735576,Bike
Fix,FLP,37.4233161,-122.163464,9.309519441542648,4.9840384,6.63,278.8296,1677630073345,,,1064876569161000,1.4291769,Bike
Fix,FLP,37.4233209,-122.1634933,9.309519441542648,3.2499788,6.881,63.815197,1677630073933,,,1064877156080824,1.4291769,Bike
Fix,GPS,37.4233225885,-122.1635192773,-5.498572567552082,5.07621,5.2218003,280.04916,1677630072999,0.40716422,4.808384,1064877568854000,5.789174,Bike
Fix,FLP,37.423323,-122.1634851,23.669936703581385,4.0568094,7.917,58.222977,1677630074474,,,1064877698567885,1.439197,Bike
Fix,GPS,37.4233270274,-122.1635860527,-4.714037643023939,5.1906753,5.0682764,280.4147,1677630073999,0.36543563,4.0491133,1064878569219000,5.7373104,Bike
Fix,FLP,37.4233295,-122.1635504,9.309519441542648,5.1056595,8.669,280.32834,1677630075346,0.36543563,4.0491133,1064878569219000,1.4491769,Bike
Fix,GPS,37.4233345308,-122.1636484022,-4.177034035833807,5.061885,4.990924,281.942,1677630074999,0.37965038,4.3007174,1064879568904000,5.692487,Bike
Fix,FLP,37.4233355,-122.1636354,6.726493913472154,5.062278,8.643,280.99503,1677630076344,0.37965038,4.3007174,1064879568904000,1.4591769,Bike
Fix,GPS,37.423342915,-122.1637051223,-4.102327750453734,5.1782374,4.963973,283.17654,1677630075999,0.3752612,3.9963274,1064880568982000,5.6483665,Bike
Fix,FLP,37.4233433,-122.1637008,10.635994886742624,5.177496,8.62,282.98776,1677630077344,0.3752612,3.9963274,1064880568982000,1.469167,Bike
Fix,GPS,37.4233515502,-122.1637626692,-4.125039623707952,5.344378,4.9062967,286.73605,1677630076999,0.37443945,3.867397,1064881568886000,5.621782,Bike
Fix,FLP,37.4233523,-122.1637612,12.079794152905832,5.34327,8.155,285.98187,1677630078344,0.37443945,3.867397,1064881568886000,1.479167,Bike
Fix,GPS,37.4233639292,-122.1638217298,-4.418083464822836,5.255799,4.8656883,286.1988,1677630077999,0.35612956,3.6736763,1064882569237000,5.6388783,Bike
Fix,FLP,37.4233644,-122.163821,8.739553280225138,5.2563214,6.341,285.99973,1677630079346,0.35612956,3.6736763,1064882569237000,1.489187,Bike
Fix,GPS,37.4233762467,-122.163879097,-4.5533281947212565,5.089586,4.8503923,288.09207,1677630078999,0.35782188,3.8036213,1064883568963000,5.6626205,Bike
Fix,FLP,37.4233766,-122.1638788,6.225998860251707,5.090592,4.94,287.98822,1677630080344,0.35782188,3.8036213,1064883568963000,1.499177,Bike
Fix,GPS,37.4233896562,-122.1639318065,-4.838440309805411,5.234549,4.854888,287.74158,1677630079999,0.369522,3.819058,1064884569126000,5.6813917,Bike
Fix,FLP,37.42339,-122.1639324,19.77856890850218,5.233608,4.888,287.00592,1677630081346,0.369522,3.819058,1064884569126000,1.509167,Bike
Fix,GPS,37.4234027722,-122.1639881572,-5.264343723056636,5.0656796,4.8563604,286.1393,1677630080999,0.36702746,3.9027004,1064885569116000,5.7057304,Bike
Fix,FLP,37.4234031,-122.1639885,19.77856890850218,5.0667133,4.866,286.00565,1677630082346,0.36702746,3.9027004,1064885569116000,1.519167,Bike
Fix,GPS,37.4234138918,-122.1640438066,-5.471231547065962,4.8639913,4.843463,285.4221,1677630081999,0.34826392,3.9554355,1064886569013000,5.7098503,Bike
Fix,FLP,37.4234145,-122.1640438,-5.5,5.081171,5.482,285.37863,1677630083345,,,1064886569013000,1.529187,Bike
Fix,FLP,37.4234276,-122.1640811,-5.5,4.667666,6.811,339.8921,1677630084385,,,1064887609000000,1.529187,Bike
Fix,GPS,37.4234229623,-122.1641009207,-5.298681688691709,4.8906083,4.892644,285.8607,1677630082999,0.36106372,4.127783,1064887568964000,5.7212477,Bike
Fix,FLP,37.4234433,-122.1641113,1.8198414155178424,5.028829,7.358,300.7861,1677630084936,,,1064888159534133,1.539177,Bike
Fix,NLP,37.4221452,-122.1652151,-1.5000001192092896,,98.4,,1677630085140,,,1064888364000000,16.950441,Bike
Fix,GPS,37.4234325038,-122.1641588939,-4.989604448188851,5.1124916,4.9813037,286.17584,1677630083999,0.39346078,4.2548294,1064888569010000,5.73767,Bike
Fix,FLP,37.4234367,-122.1641447,11.496800340602933,5.106226,7.407,286.12463,1677630085345,0.39346078,4.2548294,1064888569010000,1.2696177,Bike
Fix,GPS,37.4234434669,-122.164217302,-4.893466575178054,5.464485,5.030054,286.0616,1677630084999,0.38910708,3.9488833,1064889569062000,5.7661366,Bike
Fix,FLP,37.4234455,-122.1642115,16.90503331928622,5.4619784,7.169,286.00082,1677630086346,0.38910708,3.9488833,1064889569062000,1.2497009,Bike
Fix,GPS,37.4234551751,-122.1642806642,-5.134419186419266,5.2985053,4.9512277,286.04175,1677630085999,0.3770475,3.950167,1064890569108000,5.797296,Bike
Fix,FLP,37.4234564,-122.1642776,14.22411904153124,5.299619,7.179,285.99966,1677630087345,0.3770475,3.950167,1064890569108000,1.2597009,Bike
Fix,GPS,37.4234674166,-122.1643410371,-5.1662751376014,4.914541,4.8968534,287.20898,1677630086999,0.36244425,4.0400434,1064891569023000,5.7789016,Bike
Fix,FLP,37.4234681,-122.1643392,11.117747519890813,4.9169273,7.094,286.9931,1677630088345,0.36244425,4.0400434,1064891569023000,1.2721587,Bike
Fix,GPS,37.4234810306,-122.1643995482,-4.831829449620132,4.864724,4.9367375,288.79837,1677630087999,0.38175848,4.277875,1064892569175000,5.7758436,Bike
Fix,FLP,37.4234818,-122.1643952,14.22411904153124,4.8895802,6.729,287.5689,1677630089345,,,1064892569175000,1.2821988,Bike
Fix,FLP,37.4234896,-122.1644129,14.22411904153124,2.9020963,6.513,34.203888,1677630089950,,,1064893173020948,1.2821988,Bike
Fix,GPS,37.4234940018,-122.164457923,-4.918800304090916,5.082274,4.9159846,286.13214,1677630088999,0.3749376,4.050928,1064893569175000,5.7546554,Bike
Fix,FLP,37.4234997,-122.1644241,19.26856070651978,4.022368,7.012,298.65494,1677630090492,,,1064893715508315,1.2921687,Bike
Fix,GPS,37.4235038136,-122.1645154828,-4.774004802851753,5.1239977,4.8473477,284.8013,1677630089999,0.36095876,4.012052,1064894569127000,5.7236614,Bike
Fix,FLP,37.4235046,-122.1644915,13.140072735078348,5.1137295,6.986,284.08276,1677630091345,0.36095876,4.012052,1064894569127000,1.3021587,Bike
Fix,GPS,37.4235123392,-122.164573743,-4.5856235439553545,4.8553777,4.8691297,286.29367,1677630090999,0.35507125,4.145668,1064895569150000,5.7197194,Bike
Fix,FLP,37.4235139,-122.1645573,9.92163400761467,5.0735126,7.554,285.38522,1677630092346,,,1064895569150000,1.3121687,Bike
Fix,FLP,37.4235181,-122.1645984,9.92163400761467,2.2139168,7.821,95.68048,1677630092923,,,1064896147660231,1.3121687,Bike
Fix,GPS,37.4235202861,-122.1646275665,-4.30868568756195,4.754716,4.886836,288.0892,1677630091999,0.35334727,4.2831154,1064896569128000,5.7007446,Bike
Fix,FLP,37.4235204,-122.164612,18.46967825734386,3.586252,8.066,280.20834,1677630094008,,,1064897232635024,1.3221587,Bike
Fix,GPS,37.4235302647,-122.1646811702,-3.988919086431338,4.91318,5.006978,288.71307,1677630092999,0.37320375,4.312927,1064897569128000,5.7162986,Bike
Fix,FLP,37.4235355,-122.1646907,18.769892922506727,4.795968,8.077,286.5648,1677630095076,,,1064898299000000,1.3321587,Bike
Fix,GPS,37.4235454618,-122.1647395797,-4.007709915072788,5.0946765,5.07971,288.84973,1677630093999,0.3930816,4.2641373,1064898569130000,5.7723675,Bike
Fix,FLP,37.4235432,-122.1647262,18.46967825734386,5.0917444,7.805,287.9946,1677630095346,0.3930816,4.2641373,1064898569130000,1.3421587,Bike
Fix,GPS,37.4235600482,-122.1647988545,-3.979718206790552,4.9167995,5.1090612,290.68536,1677630094999,0.38501346,4.278962,1064899569174000,5.8125978,Bike
Fix,FLP,37.4235591,-122.1647929,9.858469128154724,4.9180627,7.646,289.98602,1677630096345,0.38501346,4.278962,1064899569174000,1.3521588,Bike
Fix,GPS,37.4235757217,-122.1648554625,-4.28812128501195,4.9501615,5.1643615,288.03098,1677630095999,0.39937344,4.443844,1064900569205000,5.8459544,Bike
Fix,FLP,37.4235757,-122.1648497,2.134344204594427,4.9319363,7.573,288.2245,1677630097346,,,1064900569205000,1.3621588,Bike
Fix,FLP,37.4235833,-122.16487,2.134344204594427,4.981948,7.988,313.64706,1677630097887,,,1064901110000000,1.3621588,Bike
Fix,GPS,37.4235886105,-122.1649125312,-4.499920863462856,4.9896617,5.1357527,283.2736,1677630096999,0.40008858,4.233856,1064901569199000,5.8538494,Bike
Fix,FLP,37.4235884,-122.1648738,15.011809554147575,4.934609,8.302,323.83264,1677630098447,,,1064901671980971,1.3721787,Bike
Fix,FLP,37.4236018,-122.1649205,15.011809554147575,5.174605,8.073,292.85938,1677630099008,,,1064902232557814,1.3721787,Bike
Fix,GPS,37.4235986453,-122.1649705795,-4.487156046411766,4.919205,5.1995854,280.30682,1677630097999,0.41324073,4.5155096,1064902569300000,5.8974466,Bike
Fix,FLP,37.4236005,-122.1649699,21.174565259141858,4.959688,7.957,279.8958,1677630099552,,,1064902775044936,1.3821588,Bike
Fix,GPS,37.4236019538,-122.1650290565,-4.330512365732689,4.7413483,5.1643515,279.2646,1677630098999,0.37933695,4.127525,1064903569226000,5.8983374,Bike
Fix,FLP,37.4235995,-122.1649946,15.011809554147575,4.936403,8.216,275.44226,1677630100094,,,1064903317531752,1.3921688,Bike
Fix,FLP,37.4236009,-122.1650261,15.011809554147575,4.770975,8.25,276.47858,1677630100634,,,1064903858255202,1.3921688,Bike
Fix,GPS,37.4236018007,-122.1650868413,-3.753683889710094,4.3863363,5.0515556,275.8454,1677630099999,0.34983525,4.327409,1064904569250000,5.8996305,Bike
Fix,FLP,37.423603,-122.1650571,14.322769018605683,4.750417,8.621,276.08386,1677630101179,,,1064904402505079,1.4021688,Bike
Fix,FLP,37.4236021,-122.1650829,14.322769018605683,4.462815,8.635,274.05652,1677630101713,,,1064904936000000,1.4021688,Bike
