Fix,Provider,LatitudeDegrees,LongitudeDegrees,AltitudeMeters,SpeedMps,AccuracyMeters,BearingDegrees,UnixTimeMillis,SpeedAccuracyMps,BearingAccuracyDegrees,elapsedRealtimeNanos,VerticalAccuracyMeters,TransitType
Fix,FLP,37.4271993,-122.1726735,-2.6999998092651367,0.0,5.747,,1677111951685,0.25472534,,546747042000000,1.8837637,Bike
Fix,GPS,37.4271966231,-122.1726727519,-5.095631661238426,0.0,5.425948,118.64751,1677111951000,0.2536077,180.0,546747757453000,5.9350657,Bike
Fix,FLP,37.4271979,-122.1726731,-2.6999998092651367,4.4436896e-05,5.64,,1677111952400,0.2536077,,546747757453000,1.8782467,Bike
Fix,GPS,37.4271944779,-122.1726726383,-5.632566346197014,0.0,5.217971,118.64751,1677111952000,0.31658,180.0,546748757462000,5.6355767,Bike
Fix,FLP,37.4271962,-122.1726729,-2.6999998092651367,0.00011484429,5.534,,1677111953400,0.31658,,546748757462000,1.8712089,Bike
Fix,GPS,37.4271958239,-122.1726736098,-5.93180883821167,0.7517176,5.197724,306.31708,1677111953000,0.299231,21.148378,546749757506000,5.548003,Bike
Fix,FLP,37.4271958,-122.1726739,-2.6999998092651367,0.1545051,5.425,295.6273,1677111954400,0.299231,21.148378,546749757506000,1.89188,Bike
Fix,GPS,37.4271995891,-122.172674299,-5.201191505864148,0.4006064,5.1981997,306.31708,1677111954000,0.39978892,14.581615,546750757771000,5.4977345,Bike
Fix,FLP,37.4271981,-122.1726758,-2.6999998092651367,0.2925999,5.368,301.02283,1677111955400,0.39978892,14.581615,546750757771000,1.8819529,Bike
Fix,NLP,37.4271718,-122.1728068,0.1000000461935997,,31.139,,1677111951685,,,546747042000000,3.2987905,Bike
Fix,GPS,37.4272010923,-122.1726744221,-4.852454354923353,0.36025724,5.3813143,306.31708,1677111955000,0.43164077,41.7748,546751757527000,5.5638185,Bike
Fix,FLP,37.4272003,-122.1726755,0.1000000461935997,0.36381808,5.298,305.94214,1677111956400,0.43164077,41.7748,546751757527000,1.8919429,Bike
Fix,GPS,37.4272014947,-122.1726740464,-4.736911266862316,0.3527519,5.5907173,306.31708,1677111956000,0.4497018,34.007908,546752757558000,5.6716857,Bike
Fix,FLP,37.4272018,-122.1726759,-2.6999998092651367,0.35281098,5.266,305.99866,1677111957399,0.4497018,34.007908,546752757558000,1.9019328,Bike
Fix,GPS,37.4272016215,-122.1726775286,-5.160319312025867,0.78161275,5.842517,277.896,1677111957000,0.5153465,33.46391,546753757595000,5.82351,Bike
Fix,FLP,37.4272024,-122.1726782,-2.6999998092651367,0.7756667,5.335,277.13626,1677111958399,0.5153465,33.46391,546753757595000,1.9119428,Bike
Fix,GPS,37.4272022754,-122.1726863334,-5.424752914904686,0.9767304,6.108517,267.0321,1677111958000,0.5378383,30.10959,546754757699000,6.0234065,Bike
Fix,FLP,37.4272027,-122.1726865,-4.5894522308689005,0.9738485,5.464,267.0984,1677111959400,0.5378383,30.10959,546754757699000,1.9219428,Bike
Fix,GPS,37.4272022157,-122.1726940924,-5.551128549932246,0.90041846,6.219162,250.98323,1677111959000,0.5157762,30.842026,546755757625000,6.2386374,Bike
Fix,FLP,37.4272022,-122.1726955,-4.674557379602618,0.900871,5.592,250.2065,1677111960400,0.5157762,30.842026,546755757625000,1.9319328,Bike
Fix,FLP,37.4271999,-122.1726865,-4.674557379602618,0.88985205,5.696,295.7171,1677111961001,,,546756358141774,1.9319328,Bike
Fix,GPS,37.4271984317,-122.1726962248,-5.986200950061062,0.6231558,6.3687644,186.76115,1677111960000,0.46231696,42.240673,546756757684000,6.430576,Bike
Fix,FLP,37.4272002,-122.1726832,-4.518188826737699,0.6316319,5.668,330.69662,1677111961543,,,546756900644276,1.9419329,Bike
Fix,NLP,37.4269921,-122.1728161,0.1000000461935997,,21.343,,1677111961867,,,546757224000000,1.5439343,Bike
Fix,GPS,37.4271910544,-122.1726959773,-5.822995921017511,0.3976094,6.463624,186.76115,1677111961000,0.45928025,22.903097,546757757680000,6.647139,Bike
Fix,FLP,37.4271985,-122.1726839,-5.483013562008111,0.8401106,5.478,348.00223,1677111962085,,,546757443134755,1.8264382,Bike
Fix,FLP,37.4271968,-122.1726848,-5.483013562008111,0.43087938,5.433,6.413071,1677111962628,,,546757985628895,1.8264382,Bike
Fix,GPS,37.4271835462,-122.1726911147,-6.271778752521898,0.72510785,6.4367537,157.90967,1677111962000,0.37725994,30.372763,546758757681000,6.7420883,Bike
Fix,FLP,37.4271964,-122.1726842,-2.6999998092651367,0.39749965,5.35,359.26456,1677111963154,,,546758512031360,1.8341738,Bike
Fix,GPS,37.4271753817,-122.1726811058,-6.619472660585872,0.6062478,6.3745594,148.79074,1677111963000,0.40479824,38.172638,546759757717000,6.8490324,Bike
Fix,FLP,37.4271972,-122.172682,-25.182967880458783,0.69830185,5.282,18.633842,1677111964256,,,546759613092579,1.8428723,Bike
Fix,GPS,37.4271687805,-122.1726650723,-6.6915621868832815,0.33994487,6.2939,148.79074,1677111964000,0.4250372,54.151974,546760758172000,6.941891,Bike
Fix,FLP,37.4271989,-122.1726778,-17.1035218454143,0.6113992,5.282,26.598875,1677111965341,,,546760698068653,1.8549082,Bike
Fix,GPS,37.4271665048,-122.1726196536,-1.844949640820684,1.4442736,5.861768,96.13583,1677111965000,0.09044962,10.0,546761758043000,6.096091,Bike
Fix,FLP,37.4271994,-122.1726727,-2.6999998092651367,0.34710386,5.544,51.93453,1677111966426,,,546761783042653,1.8649182,Bike
Fix,FLP,37.4271986,-122.1726652,-6.461567608308904,1.2690011,5.917,74.72064,1677111966968,,,546762325532154,1.8100595,Bike
Fix,NLP,37.4272444,-122.1727541,0.1000000461935997,,26.937,,1677111966891,,,546762248000000,1.8284403,Bike
Fix,GPS,37.4271638086,-122.1725945393,-1.7991785588965334,1.5578474,5.7149134,83.49245,1677111966000,0.36494347,11.5333185,546762757741000,6.0264773,Bike
Fix,FLP,37.427198,-122.1726598,-8.23641350482417,1.4161401,6.668,75.80738,1677111967511,,,546762868014271,1.8144889,Bike
Fix,GPS,37.4271724909,-122.172557218,-2.178843791154361,2.1991887,5.5661283,71.66496,1677111967000,0.39958978,10.0,546763757727000,5.933013,Bike
Fix,FLP,37.4271992,-122.1726449,-2.1825699786165487,1.5454929,7.461,71.6164,1677111968053,,,546763410499439,1.8239831,Bike
Fix,FLP,37.4271913,-122.17261,-2.1825699786165487,2.0610723,7.662,69.14056,1677111968595,,,546763952984059,1.8239831,Bike
Fix,GPS,37.4271869645,-122.1725223685,-2.315510504914348,2.7179668,5.476699,47.447582,1677111968000,0.38065198,10.0,546764757775000,5.861266,Bike
Fix,FLP,37.4271912,-122.1725775,-8.23641350482417,2.170745,8.088,52.099472,1677111969138,,,546764495468738,1.8364538,Bike
Fix,FLP,37.4271972,-122.1725547,-8.23641350482417,2.5752995,8.151,45.127266,1677111969680,,,546765037952260,1.8364538,Bike
Fix,FLP,37.4272064,-122.1725351,-8.23641350482417,2.6997721,8.22,35.29621,1677111970254,,,546765611000000,1.8364538,Bike
Fix,GPS,37.4272240288,-122.1724985609,-2.0815969175750166,3.5879958,5.487966,18.99877,1677111969000,0.046965186,10.0,546765757827000,5.6344633,Bike
Fix,GPS,37.4272572492,-122.1724865005,-2.210129124670575,3.593512,5.002515,16.89142,1677111970000,0.04932319,10.0,546766757759000,5.5444484,Bike
Fix,FLP,37.4272396,-122.1725043,-8.23282626262067,3.524956,8.494,14.149887,1677111971308,,,546766665403370,1.8560596,Bike
Fix,NLP,37.4271807,-122.172516,0.1000000461935997,,53.086,,1677111971884,,,546767241000000,2.0162768,Bike
Fix,FLP,37.4272634,-122.172494,-6.045349977386415,3.588438,8.511,16.024925,1677111971850,,,546767207882923,1.8127512,Bike
Fix,GPS,37.4272905154,-122.1724779161,-2.316756079406116,3.6625676,4.891966,15.850284,1677111971000,0.05884068,10.0,546767757810000,5.4618015,Bike
Fix,FLP,37.4272829,-122.1724857,-3.9690815860182624,3.597434,8.517,16.687252,1677111972393,,,546767750358875,1.8208799,Bike
Fix,GPS,37.427322609,-122.1724652468,-2.445660873389229,3.6782246,4.79517,16.281193,1677111972000,0.07031558,10.0,546768757846000,5.389905,Bike
Fix,FLP,37.4273176,-122.1724717,-3.11484386372792,3.6574292,8.285,17.775902,1677111973478,,,546768835326588,1.8359755,Bike
Fix,GPS,37.4273548742,-122.172453283,-2.466779076899799,3.686959,4.9788814,17.389977,1677111973000,0.45244628,10.0,546769757860000,5.3763466,Bike
Fix,FLP,37.4273423,-122.172459,-3.11484386372792,3.6746514,7.973,15.918449,1677111974020,,,546769377806995,1.8459755,Bike
Fix,FLP,37.4273523,-122.1724558,-3.11484386372792,3.6863003,8.065,16.354889,1677111974610,,,546769967000000,1.8459755,Bike
Fix,FLP,37.4273729,-122.172447,-3.11484386372792,3.6902225,7.89,15.314736,1677111975155,,,546770512031360,1.8459755,Bike
Fix,GPS,37.4273932113,-122.1724480262,-2.848433996878512,3.813692,5.1917005,14.650214,1677111974000,0.36427438,10.0,546770757833000,5.3598747,Bike
Fix,FLP,37.4273964,-122.1724373,-5.0257352260879244,3.799322,7.932,14.240959,1677111975756,,,546771113751454,1.8578631,Bike
Fix,GPS,37.4274296242,-122.1724410646,-3.30733735693615,3.8598328,5.3597355,14.983332,1677111975000,0.3873467,10.0,546771757833000,5.3690925,Bike
Fix,FLP,37.4274107,-122.1724319,-5.43277567184829,3.8126824,7.999,14.897503,1677111976299,,,546771656221303,1.8678331,Bike
Fix,GPS,37.4274665758,-122.1724272699,-3.1825605902990546,3.9245102,5.4589605,16.545753,1677111976000,0.416633,10.0,546772757857000,5.4025598,Bike
Fix,FLP,37.4274497,-122.172419,-4.648923388829559,3.8533506,8.196,16.981571,1677111977384,,,546772741178577,1.8778331,Bike
Fix,FLP,37.4274738,-122.1724081,-4.648923388829559,3.913306,8.268,17.868427,1677111977926,,,546773283645070,1.8778331,Bike
Fix,GPS,37.4275037025,-122.1724112375,-3.364112627468382,3.9835472,5.2844763,16.421278,1677111977000,0.034401976,10.0,546773757919000,5.245466,Bike
Fix,FLP,37.4274889,-122.1724006,-5.43277567184829,3.92217,8.469,19.525154,1677111978469,,,546773826135181,1.8878431,Bike
Fix,FLP,37.427518,-122.1723884,-5.43277567184829,3.9885013,8.551,17.186468,1677111979011,,,546774368613148,1.8878431,Bike
Fix,GPS,37.4275419217,-122.1723977848,-3.331033105810372,4.033601,5.341617,15.833413,1677111978000,0.39887285,10.0,546774757954000,5.209525,Bike
Fix,FLP,37.4275295,-122.1723848,-4.672506663200707,4.002518,8.712,15.783685,1677111979554,,,546774911090687,1.8978531,Bike
Fix,FLP,37.427562,-122.172373,-4.672506663200707,4.034803,8.802,14.657907,1677111980095,,,546775453556874,1.8978531,Bike
Fix,GPS,37.4275773162,-122.1723848817,-3.456157900339376,4.029297,5.442559,13.085701,1677111979000,0.46049127,10.0,546775757889000,5.204226,Bike
Fix,FLP,37.4275824,-122.1723663,-4.672506663200707,4.0333977,8.897,13.609848,1677111980639,,,546775996045582,1.9078231,Bike
Fix,GPS,37.4276124145,-122.1723725559,-3.680179134433416,4.021262,5.5591884,14.405248,1677111980000,0.4787148,10.0,546776758260000,5.218123,Bike
Fix,FLP,37.4275984,-122.172362,-6.229369905600741,4.03688,8.835,12.018022,1677111981154,,,546776512031360,1.9178331,Bike
Fix,FLP,37.4276129,-122.1723581,-6.229369905600741,4.0176473,8.807,13.94241,1677111981731,,,546777088000000,1.9178331,Bike
Fix,GPS,37.4276496619,-122.1723610878,-4.086268783755196,4.0424275,5.6771,16.95424,1677111981000,0.49118626,10.0,546777758026000,5.2593117,Bike
Fix,FLP,37.4276365,-122.1723495,-4.853993138520778,3.99492,8.838,18.727415,1677111982266,,,546777623475025,1.9278331,Bike
Fix,FLP,37.4276733,-122.1723318,-4.853993138520778,4.048942,8.956,17.310299,1677111983351,,,546778708426807,1.9278331,Bike
Fix,GPS,37.4276885881,-122.1723478526,-4.217621920777021,4.0846915,5.806609,15.857472,1677111982000,0.5689131,10.0,546778758189000,5.3254128,Bike
Fix,FLP,37.4276955,-122.1723258,-5.318457727481871,4.0831146,9.005,16.13347,1677111983894,,,546779251000000,1.9378431,Bike
Fix,GPS,37.427726319,-122.1723358656,-4.800393772719942,4.1043544,5.909084,15.690558,1677111983000,0.42562196,10.0,546779758011000,5.366747,Bike
Fix,FLP,37.4277166,-122.17232,-6.4641304612732,4.0909977,9.0,15.338708,1677111984436,,,546779793378101,1.9478331,Bike
Fix,GPS,37.4277659683,-122.1723228732,-4.7008993397351935,4.145605,5.5743337,14.9969425,1677111984000,0.071089044,10.0,546780758031000,5.1232133,Bike
Fix,FLP,37.4277573,-122.1723075,-4.120333171487985,4.0998454,8.937,17.115545,1677111985521,,,546780878328418,1.957833,Bike
Fix,GPS,37.4278067234,-122.1723102239,-4.862020232534042,4.3974724,5.549791,18.496563,1677111985000,0.22226882,10.0,546781758030000,5.10139,Bike
Fix,FLP,37.4277895,-122.1722998,-5.490190379086755,4.130826,8.89,16.35329,1677111986063,,,546781420803089,1.967823,Bike
Fix,GPS,37.4278461076,-122.1722852384,-4.997373550098003,4.4569874,5.061306,22.06278,1677111986000,0.018144052,10.0,546782758058000,4.931348,Bike
Fix,FLP,37.4278282,-122.1722884,-5.490190379086755,4.348132,8.946,18.273848,1677111987147,,,546782505754932,1.9778231,Bike
Fix,FLP,37.4278451,-122.1722791,-5.490190379086755,4.4219775,8.802,20.63375,1677111987690,,,546783048226125,1.9778231,Bike
Fix,FLP,37.4278675,-122.1722673,-5.490190379086755,4.442085,8.688,22.997345,1677111988233,,,546783590700062,1.9778231,Bike
Fix,GPS,37.4278887538,-122.1722631141,-5.158569850745991,4.432603,4.6688166,20.553576,1677111987000,0.02903775,10.0,546783758387000,4.796299,Bike
Fix,FLP,37.4278986,-122.172253,-3.857820217611632,4.4395733,8.221,20.470089,1677111988776,,,546784133173939,1.987843,Bike
Fix,GPS,37.4279323271,-122.1722486102,-5.075422096042296,4.4071755,4.3486357,14.210277,1677111988000,0.020508401,10.0,546784758034000,4.6479073,Bike
Fix,FLP,37.427909,-122.1722496,-3.857820217611632,4.4557004,8.099,18.528582,1677111989317,,,546784675647877,1.9978231,Bike
Fix,GPS,37.4279767544,-122.1722388144,-5.015507002897538,4.361649,4.0673156,11.283567,1677111989000,0.021659931,10.0,546785758177000,4.5077205,Bike
Fix,FLP,37.4279596,-122.1722328,-5.65320501173364,4.4475036,7.926,13.187825,1677111990403,,,546785760594166,2.007833,Bike
Fix,FLP,37.4279919,-122.1722249,-5.65320501173364,4.3808694,7.761,12.838252,1677111990945,,,546786303067310,2.007833,Bike
Fix,GPS,37.4280158806,-122.1722240953,-5.065999554834374,4.190275,3.872763,13.083739,1677111990000,0.036553204,1.0,546786758118000,4.378329,Bike
Fix,FLP,37.4280095,-122.1722204,-5.65320501173364,4.378298,7.589,12.757037,1677111991488,,,546786845542530,2.017863,Bike
Fix,FLP,37.4280555,-122.1722035,-5.65320501173364,4.2032447,7.359,16.686607,1677111992553,,,546787910000000,2.017863,Bike
Fix,GPS,37.4280552373,-122.1722119744,-5.16817966196612,4.344995,3.7300987,14.409898,1677111991000,0.029452588,1.0,546787758145000,4.2680764,Bike
Fix,FLP,37.4280827,-122.1721914,-8.069861368582764,4.331338,7.057,13.74994,1677111993115,,,546788472958118,2.027833,Bike
Fix,GPS,37.4280938932,-122.1721990932,-4.8781963121948175,4.019214,4.5217137,12.212921,1677111992000,0.44031549,5.7736998,546788758160000,4.3104568,Bike
Fix,FLP,37.4281156,-122.1721817,-8.920011589782284,4.06686,6.938,12.886756,1677111994246,,,546789603000000,2.037843,Bike
Fix,GPS,37.4281297768,-122.17218775,-4.965978498626785,4.1560526,5.010138,19.759491,1677111993000,0.43367708,5.6599708,546789758164000,4.396404,Bike
Fix,GPS,37.4281666281,-122.1721700194,-4.962532034357594,4.1045356,5.458993,22.718353,1677111994000,0.43372265,5.7825933,546790758276000,4.5380425,Bike
Fix,FLP,37.4281562,-122.1721642,-8.581806553046064,4.1101255,6.987,19.74053,1677111995394,,,546790751340871,2.057863,Bike
Fix,GPS,37.4282084784,-122.17215484,-5.178092103593335,4.422723,5.703803,14.145936,1677111995000,0.4684674,5.7606883,546791758204000,4.775246,Bike
Fix,FLP,37.4281953,-122.1721398,-8.581806553046064,4.122284,7.219,20.60035,1677111996478,,,546791836284290,2.0678432,Bike
Fix,FLP,37.428227,-122.1721302,-8.581806553046064,4.395532,7.447,15.65611,1677111997021,,,546792378755849,2.0678432,Bike
Fix,GPS,37.4282493996,-122.1721432354,-5.117222907469095,4.176441,5.607849,14.178261,1677111996000,0.43085366,5.532998,546792758398000,4.983168,Bike
Fix,FLP,37.4282586,-122.1721198,-6.216042691594183,4.2207065,8.016,14.777335,1677111998116,,,546793473000000,2.077923,Bike
Fix,GPS,37.428289267,-122.1721321979,-5.23273516868887,4.0492516,5.7824197,13.183853,1677111997000,0.43589446,5.6338983,546793758329000,5.173548,Bike
Fix,FLP,37.4283,-122.172105,-5.570160214326691,4.078855,9.096,13.946905,1677111999155,,,546794512031360,2.0878532,Bike
Fix,GPS,37.4283281245,-122.172122301,-5.4280111440900685,3.7260733,5.891322,16.286985,1677111998000,0.4491393,6.3481913,546794758211000,5.349663,Bike
Fix,FLP,37.4283298,-122.1720981,-5.4348262038205775,3.7807,9.438,15.407078,1677111999733,,,546795091111195,2.0978131,Bike
Fix,GPS,37.4283639265,-122.1721112285,-5.394148403141704,3.8255627,6.121884,21.688736,1677111999000,0.46047077,6.488098,546795758467000,5.5020375,Bike
Fix,FLP,37.4283483,-122.1720927,-6.501035457795467,3.735512,9.583,16.968296,1677112000275,,,546795633581959,2.1080232,Bike
Fix,FLP,37.4283839,-122.1720781,-6.501035457795467,3.8010902,9.806,21.461723,1677112001361,,,546796718523487,2.1080232,Bike
Fix,GPS,37.4284024326,-122.1720942198,-5.173825161319187,4.019537,6.365657,27.566338,1677112000000,0.47715408,6.433459,546796758264000,5.702123,Bike
Fix,FLP,37.4284057,-122.172067,-7.360056242433501,3.958679,9.926,24.21144,1677112001903,,,546797260994251,2.1178231,Bike
Fix,GPS,37.4284380762,-122.1720743487,-4.808090796743133,4.0264893,6.4875965,31.038183,1677112001000,0.47318,6.5337343,546797758279000,5.909041,Bike
Fix,FLP,37.4284237,-122.1720568,-7.012563121402557,4.0009904,10.067,26.023844,1677112002445,,,546797803464710,2.1278331,Bike
Fix,GPS,37.4284714048,-122.1720471587,-4.631380817796513,3.699787,6.4505796,36.835793,1677112002000,0.44257605,6.648494,546798758298000,6.0942564,Bike
Fix,FLP,37.42846,-122.1720351,-5.123139635552619,4.0264935,10.29,26.951067,1677112003531,,,546798888402760,2.137823,Bike
Fix,GPS,37.4285035973,-122.1720281247,-5.793462903573413,3.2566826,6.419565,32.7369,1677112003000,0.41260123,7.0613937,546799758392000,6.2194657,Bike
Fix,FLP,37.428491,-122.1720145,-4.550488141898214,3.7353435,10.467,33.67504,1677112004073,,,546799430876514,2.147823,Bike
Fix,FLP,37.4285167,-122.1719988,-4.550488141898214,3.3498068,10.492,32.25678,1677112005155,,,546800512031360,2.147823,Bike
Fix,GPS,37.4285366574,-122.172012873,-6.060438525616037,3.5714464,6.270749,32.472954,1677112004000,0.35940713,5.5260124,546800758303000,6.306277,Bike
Fix,GPS,37.4285670299,-122.1719925638,-6.1931646009303485,3.517245,6.275935,50.552208,1677112005000,0.4225435,6.760041,546801758326000,6.368107,Bike
Fix,FLP,37.4285525,-122.1719797,-5.313331326045507,3.5148847,10.434,39.07758,1677112006243,,,546801600757557,2.167823,Bike
Fix,FLP,37.4285806,-122.1719509,-5.313331326045507,3.5475328,10.335,63.59317,1677112007328,,,546802685701038,2.167823,Bike
Fix,GPS,37.4285869229,-122.1719700274,-6.570962877038942,3.7809367,6.4882717,68.195465,1677112006000,0.44679138,6.835085,546802758320000,6.375494,Bike
Fix,FLP,37.428588,-122.1719322,-5.220030276732288,3.7646248,10.346,76.54003,1677112007871,,,546803228169117,2.1768432,Bike
Fix,GPS,37.4285937971,-122.1719280442,-6.973638364105567,4.03995,6.346345,86.20426,1677112007000,0.42463133,5.7552114,546803758362000,6.371788,Bike
Fix,FLP,37.4285892,-122.1719149,-4.509985806410491,3.7613714,10.305,86.82172,1677112008413,,,546803770638599,2.187823,Bike
Fix,NLP,37.4285286,-122.1722085,-3.0999999046325684,,77.6,,1677112006762,,,546802119000000,4.125868,Bike
Fix,FLP,37.4285886,-122.1718573,-3.0999999046325684,4.020423,10.376,89.97407,1677112008956,,,546804313108753,3.928514,Bike
Fix,GPS,37.4285891913,-122.1718797203,-7.272617568826751,3.8812184,6.443118,95.61978,1677112008000,0.44426548,6.3940783,546804758315000,6.431572,Bike
Fix,FLP,37.4285887,-122.1718561,-3.0999999046325684,4.030364,10.356,90.15416,1677112009497,,,546804855581593,3.9105175,Bike
Fix,GPS,37.428586733,-122.1718380122,-6.84968166554466,3.478983,6.6761656,95.890175,1677112009000,0.43749535,7.1160903,546805758371000,6.4815183,Bike
Fix,FLP,37.4285833,-122.1718284,-3.0999999046325684,3.879837,10.348,95.44155,1677112010041,,,546805398049367,3.9263468,Bike
Fix,FLP,37.4285777,-122.1717952,-3.0999999046325684,3.5097024,10.361,96.946625,1677112011125,,,546806482991689,3.9263468,Bike
Fix,GPS,37.4285843914,-122.1718008358,-6.790699926674319,2.8952305,6.822462,96.27847,1677112010000,0.4228236,7.850699,546806758469000,6.564604,Bike
Fix,GPS,37.4285836398,-122.1717639599,-6.2783016560124505,2.6958957,6.995723,90.07684,1677112011000,0.42179543,8.33946,546807758522000,6.6604376,Bike
Fix,FLP,37.4285734,-122.1717686,-5.13288687248248,2.950275,10.34,95.87045,1677112012210,,,546807567936574,3.9463067,Bike
Fix,FLP,37.4285756,-122.1717626,-5.13288687248248,2.7423103,10.427,91.69108,1677112012734,,,546808091000000,3.9463067,Bike
Fix,FLP,37.428578,-122.1717457,-5.13288687248248,2.6919453,10.488,83.621796,1677112013295,,,546808652882680,3.9463067,Bike
Fix,GPS,37.428589366,-122.171735795,-6.295878241484319,2.8468206,6.989678,80.77564,1677112012000,0.44000354,8.333425,546808758486000,6.7456937,Bike
Fix,FLP,37.4285845,-122.1717336,-5.348141285290808,2.8027782,10.655,78.69744,1677112013838,,,546809195354114,3.9562867,Bike
Fix,GPS,37.4286022532,-122.1716915437,-7.085993055988164,3.6468062,6.874202,66.09364,1677112013000,0.44048133,6.741401,546809758405000,6.8195477,Bike
Fix,FLP,37.4285887,-122.1717235,-6.558463684887059,2.8301485,10.886,75.2182,1677112014380,,,546809737829700,3.5366046,Bike
Fix,FLP,37.4285999,-122.1716998,-6.558463684887059,3.4141982,10.869,64.25025,1677112014932,,,546810289000000,3.5366046,Bike
Fix,GPS,37.4286266436,-122.1716442533,-6.1525524091604336,4.0576286,6.478911,52.791916,1677112014000,0.45369592,6.329467,546810758453000,6.7575226,Bike
Fix,FLP,37.4286123,-122.1716794,-3.0999999046325684,3.570724,10.958,50.17803,1677112015465,,,546810822777271,3.5466247,Bike
Fix,FLP,37.4286337,-122.1716551,-3.0999999046325684,3.9559648,11.035,41.968178,1677112016008,,,546811365251270,3.5466247,Bike
Fix,GPS,37.4286604997,-122.1716186494,-6.408600123550435,3.9477072,6.4538965,34.1758,1677112015000,0.43852606,6.1894903,546811758666000,6.769263,Bike
Fix,GPS,37.4286948754,-122.171598555,-5.6256245787625705,3.1914425,6.7195344,29.408964,1677112016000,0.45738575,7.9716015,546812758547000,6.8088164,Bike
Fix,FLP,37.4286813,-122.1716154,-3.0999999046325684,4.0028996,11.284,29.985462,1677112017093,,,546812450200368,3.5666046,Bike
Fix,GPS,37.4287315844,-122.1715786345,-5.547126743826438,2.9082417,6.7178717,24.21432,1677112017000,0.39250538,7.346788,546813758518000,6.7904572,Bike
Fix,FLP,37.4287174,-122.171597,-3.0999999046325684,3.298468,11.342,24.001297,1677112018155,,,546813512031360,3.5757148,Bike
Fix,FLP,37.4287386,-122.1715875,-3.0999999046325684,3.007671,11.227,23.015646,1677112018720,,,546814077621632,3.5757148,Bike
Fix,GPS,37.4287699977,-122.1715596904,-6.0014110357620885,3.2310817,6.605643,20.12762,1677112018000,0.39736766,6.800629,546814758469000,6.7555366,Bike
Fix,FLP,37.4287606,-122.1715766,-3.0999999046325684,2.9323504,11.012,22.255653,1677112019263,,,546814620099477,3.5855947,Bike
Fix,FLP,37.4287956,-122.1715573,3.7241208500851712,3.2044482,11.044,23.099941,1677112020348,,,546815705049428,3.5956247,Bike
Fix,GPS,37.428805107,-122.1715494029,-6.392036266251241,3.7958715,6.599207,17.263468,1677112019000,0.4367098,6.345131,546815758552000,6.7225738,Bike
Fix,GPS,37.4288419568,-122.1715351035,-6.633086902244499,4.3635335,6.590182,16.677656,1677112020000,0.484228,5.6321225,546816758729000,6.757036,Bike
Fix,FLP,37.4288311,-122.1715404,7.5063313514486225,3.7138128,10.432,22.872236,1677112021432,,,546816789996510,3.6056347,Bike
Fix,GPS,37.4288796312,-122.1715218764,-6.728631211855946,4.33941,6.5523148,18.953415,1677112021000,0.42908883,5.2901373,546817758580000,6.7563887,Bike
Fix,FLP,37.4288719,-122.1715212,6.9443574739213005,4.3074064,10.259,18.377907,1677112022517,,,546817874943043,3.6168747,Bike
Fix,FLP,37.4289053,-122.17151,6.9443574739213005,4.3369694,9.942,16.793522,1677112023059,,,546818417427418,3.6168747,Bike
Fix,GPS,37.4289187161,-122.1715052384,-6.439667336937609,4.1734934,6.588929,21.034836,1677112022000,0.4001777,5.1178737,546818758568000,6.7192597,Bike
Fix,FLP,37.4289403,-122.1714954,-3.0999999046325684,4.200965,9.8,15.405748,1677112024145,,,546819502380788,3.6265948,Bike
Fix,GPS,37.4289576572,-122.1714885021,-6.501487569651509,3.751615,6.495803,22.14791,1677112023000,0.38868555,5.476947,546819758792000,6.661232,Bike
Fix,FLP,37.428956,-122.171488,-8.961193720905932,3.838025,9.873,18.333979,1677112024687,,,546820044857776,3.6366448,Bike
Fix,FLP,37.4289722,-122.1714804,-8.961193720905932,3.7606604,9.921,20.281656,1677112025230,,,546820587337452,3.6366448,Bike
Fix,GPS,37.4289916973,-122.1714754575,-6.968390074918831,3.5391092,6.392906,20.646564,1677112024000,0.37641633,5.544742,546820758732000,6.60245,Bike
Fix,FLP,37.428988,-122.1714735,-10.058332834901565,3.5973725,9.982,19.780766,1677112025771,,,546821129810963,3.6456046,Bike
Fix,GPS,37.429027321,-122.1714664636,-7.472996434463452,3.8311148,6.2923546,14.744114,1677112025000,0.3799908,5.0724025,546821758635000,6.485751,Bike
Fix,FLP,37.4290052,-122.1714668,-3.0999999046325684,3.5428655,10.244,19.545477,1677112026315,,,546821672288563,3.6566148,Bike
Fix,GPS,37.4290690809,-122.1714607746,-7.264459665819097,3.9294426,6.116316,17.528694,1677112026000,0.3545131,4.6501117,546822758677000,6.3773966,Bike
Fix,FLP,37.4290404,-122.171457,-3.0999999046325684,3.801988,10.531,15.594918,1677112027400,,,546822757242847,3.6667447,Bike
Fix,GPS,37.4291119499,-122.1714477873,-6.799926750521934,4.1705227,6.142474,20.293306,1677112027000,0.3695338,4.6267967,546823758711000,6.3257933,Bike
Fix,FLP,37.4290858,-122.1714458,-3.0999999046325684,3.910207,10.686,18.59709,1677112028485,,,546823842184987,3.6756246,Bike
Fix,FLP,37.4291251,-122.171435,-3.0999999046325684,4.145255,10.717,17.39231,1677112029027,,,546824384673512,3.6756246,Bike
Fix,GPS,37.4291531146,-122.1714325893,-6.346050218440785,4.1135945,6.0662527,19.676495,1677112028000,0.38942304,4.832711,546824758689000,6.268324,Bike
Fix,FLP,37.4291482,-122.1714298,-3.0999999046325684,4.125513,10.715,17.87931,1677112029570,,,546824927150563,3.6866047,Bike
Fix,GPS,37.4291940176,-122.1714188983,-6.35962090723001,4.18915,6.0682726,16.498093,1677112029000,0.3766106,4.6894693,546825758723000,6.2486267,Bike
Fix,FLP,37.4291767,-122.1714199,-5.50391577242921,4.1160865,10.794,17.588928,1677112030111,,,546825469624134,3.6966648,Bike
Fix,GPS,37.4292351449,-122.1714091534,-6.302925152088535,3.8170812,5.975625,11.790277,1677112030000,0.34545043,4.6951084,546826758826000,6.265802,Bike
Fix,FLP,37.4292152,-122.1714067,-6.4119211652096695,4.1845646,10.424,16.660128,1677112031197,,,546826554580434,3.7066247,Bike
Fix,FLP,37.4292356,-122.1714036,-6.4119211652096695,3.903246,10.251,12.849538,1677112031740,,,546827097056019,3.7066247,Bike
Fix,GPS,37.4292735994,-122.1714079309,-7.009403705509481,2.8929787,5.8425517,18.50777,1677112031000,0.34870943,6.60985,546827758746000,6.241804,Bike
Fix,FLP,37.4292593,-122.1713993,-6.75521607977241,3.8256252,10.303,14.504006,1677112032282,,,546827639531850,3.7165947,Bike
Fix,GPS,37.429299992,-122.1713990119,-7.793281502183362,2.3807323,6.0383635,45.22169,1677112032000,0.40626204,9.552288,546828758719000,6.215267,Bike
Fix,FLP,37.4292967,-122.1713875,-6.338648952713839,2.9782891,10.206,33.428417,1677112033367,,,546828724483266,3.7267146,Bike
Fix,FLP,37.4293115,-122.1713777,-6.338648952713839,2.4603434,10.21,53.18713,1677112033909,,,546829266958607,3.7267146,Bike
Fix,GPS,37.4293134626,-122.1713804514,-8.558028995408534,2.5271273,6.1053934,79.94926,1677112033000,0.42003897,9.504114,546829758763000,6.149933,Bike
Fix,FLP,37.4293168,-122.1713675,-6.338648952713839,2.387247,10.366,69.82783,1677112034452,,,546829809433033,3.7356148,Bike
Fix,FLP,37.4293188,-122.171347,-6.338648952713839,2.499618,10.458,86.642265,1677112034994,,,546830351908864,3.7356148,Bike
Fix,GPS,37.4293152171,-122.1713440127,-9.631838330926731,3.0555284,6.15179,93.759674,1677112034000,0.44838777,8.39905,546830758747000,6.0833917,Bike
Fix,FLP,37.4293161,-122.1713179,-4.965317958220197,2.9846413,10.476,97.9965,1677112036079,,,546831436858754,3.7466247,Bike
Fix,GPS,37.4293067473,-122.1712945136,-9.615131994893147,3.5422218,6.0939856,107.86049,1677112035000,0.40848187,6.3915653,546831758871000,6.042321,Bike
Fix,FLP,37.4293068,-122.1712723,0.1000000461935997,3.4614244,10.565,107.02542,1677112037155,,,546832512031360,3.7566147,Bike
Fix,GPS,37.4292901731,-122.1712409403,-8.672663566275716,3.9468482,5.927059,113.48677,1677112036000,0.38099232,5.327055,546832758785000,6.0207014,Bike
Fix,FLP,37.4292908,-122.1712196,23.53599829070238,3.9084344,10.616,105.61706,1677112038248,,,546833606755482,3.7665946,Bike
Fix,GPS,37.4292749383,-122.1711899737,-8.306492136672725,3.85089,5.8340836,107.61652,1677112037000,0.3731291,5.3226743,546833758829000,5.981299,Bike
Fix,FLP,37.429274,-122.1711625,19.167890102282485,3.8642945,10.569,107.56166,1677112039334,,,546834691702992,3.7766447,Bike
Fix,GPS,37.4292642334,-122.1711329078,-7.632767936002959,3.9248216,5.447054,103.048584,1677112038000,0.35401252,4.925311,546834758815000,5.9103727,Bike
Fix,FLP,37.4292616,-122.1711158,14.461476005748423,3.9312782,10.323,104.131836,1677112039877,,,546835234174915,3.7866347,Bike
Fix,GPS,37.4292570913,-122.1710791164,-7.040190088413095,4.288256,5.3327837,101.59061,1677112039000,0.37711442,4.8157578,546835758880000,5.818284,Bike
Fix,FLP,37.4292593,-122.1711042,19.167890102282485,3.9360178,10.255,103.39705,1677112040419,,,546835776650014,3.7966647,Bike
Fix,FLP,37.4292538,-122.1710648,19.167890102282485,4.2454515,10.179,102.20367,1677112040962,,,546836319122852,3.7966647,Bike
Fix,GPS,37.4292481678,-122.1710260905,-7.098700803202323,4.5897546,5.421302,103.003555,1677112040000,0.4063731,4.7323833,546836758802000,5.7949104,Bike
Fix,FLP,37.4292455,-122.1710087,25.17339947374657,4.553597,9.945,102.14577,1677112042047,,,546837404068958,3.8056147,Bike
Fix,GPS,37.4292395935,-122.170975342,-7.580517328086871,4.793121,5.5235577,102.18682,1677112041000,0.4074496,4.616129,546837758878000,5.8102293,Bike
Fix,FLP,37.4292415,-122.1709876,23.767395671067103,4.674452,9.571,102.22252,1677112042589,,,546837946541859,3.45544,Bike
Fix,NLP,37.4289994,-122.1708091,1.399999976158142,,45.485,,1677112041724,,,546837082000000,5.7363763,Bike
Fix,GPS,37.4292299915,-122.170924863,-8.089075562035344,4.6692586,5.6215405,102.13294,1677112042000,0.4079814,4.7088213,546838758888000,5.871024,Bike
Fix,FLP,37.4292309,-122.17093,23.767395671067103,4.7834687,9.408,101.6405,1677112043132,,,546838489014455,3.46544,Bike
Fix,FLP,37.4292271,-122.1709057,23.767395671067103,4.6823807,9.394,101.99699,1677112043674,,,546839031487721,3.46544,Bike
Fix,GPS,37.4292220794,-122.1708770589,-7.822097373037505,4.602236,5.523331,102.968445,1677112043000,0.39493358,4.643125,546839758892000,5.931954,Bike
Fix,FLP,37.4292236,-122.1708822,17.352321915299456,4.673039,9.367,101.55289,1677112044215,,,546839573950856,3.479443,Bike
Fix,FLP,37.4292213,-122.1708613,17.352321915299456,4.6135006,9.392,101.85476,1677112044759,,,546840116434437,3.479443,Bike
Fix,GPS,37.4292123589,-122.1708251965,-7.189083068678037,4.6797585,5.3039293,105.908356,1677112044000,0.379407,4.425421,546840759062000,5.93971,Bike
Fix,FLP,37.4292173,-122.1708314,16.83131095322851,4.598864,9.353,102.07135,1677112045301,,,546840658907459,3.4894333,Bike
Fix,FLP,37.4292041,-122.1707776,16.83131095322851,4.660674,9.366,104.89157,1677112046385,,,546841743842457,3.4894333,Bike
Fix,GPS,37.429199991,-122.1707706257,-6.9148799738532345,4.698982,5.1246963,106.83939,1677112045000,0.37005642,4.3255987,546841758931000,5.967601,Bike
Fix,FLP,37.4291909,-122.1707355,17.352321915299456,4.6842046,9.443,106.17522,1677112046929,,,546842286318409,3.4996831,Bike
Fix,GPS,37.4291862948,-122.1707126433,-6.922273425978254,5.0067987,5.2196083,107.774254,1677112046000,0.40894666,4.4439807,546842758976000,5.9870257,Bike
Fix,FLP,37.429189,-122.1707314,17.352321915299456,4.6948204,9.459,106.105774,1677112047471,,,546842828800281,3.5089731,Bike
Fix,FLP,37.4291795,-122.1706849,17.352321915299456,4.9520664,9.518,106.17965,1677112048014,,,546843371273304,3.5089731,Bike
Fix,GPS,37.4291715861,-122.170653307,-7.040613590372997,5.0824203,5.3171344,106.464134,1677112047000,0.42041686,4.496861,546843758991000,6.01986,Bike
Fix,FLP,37.429174,-122.1706628,20.84402674356963,5.080021,9.19,106.012344,1677112048401,0.42041686,4.496861,546843758991000,3.5194433,Bike
Fix,GPS,37.4291594415,-122.1706021003,-7.835125364507228,4.962028,5.3364916,106.833595,1677112048000,0.4042072,4.552541,546844759233000,6.022814,Bike
Fix,FLP,37.4291601,-122.170604,20.84402674356963,4.9629536,8.642,106.00001,1677112049402,0.4042072,4.552541,546844759233000,3.5294433,Bike
Fix,GPS,37.4291473964,-122.170549752,-8.169334219948436,5.023354,5.175446,106.961815,1677112049000,0.38346782,4.3252454,546845758989000,6.008746,Bike
Fix,FLP,37.4291473,-122.1705494,20.84402674356963,4.996958,8.584,106.254005,1677112050401,,,546845758989000,3.5394232,Bike
Fix,FLP,37.4291485,-122.1705232,20.84402674356963,4.7832065,8.545,28.64048,1677112051002,,,546846359391590,3.5394232,Bike
Fix,GPS,37.4291344983,-122.170495808,-8.020140335662441,4.992068,5.06911,107.64055,1677112050000,0.37637353,4.2250395,546846758995000,5.994638,Bike
Fix,FLP,37.4291415,-122.1705013,15.67533620911422,4.9413056,8.126,106.060844,1677112051400,0.37637353,4.2250395,546846758995000,3.548453,Bike
Fix,GPS,37.4291216449,-122.1704437552,-8.085925608576733,5.056113,5.040072,105.62976,1677112051000,0.3835873,4.2278576,546847759009000,5.985962,Bike
Fix,FLP,37.4291241,-122.170445,15.67533620911422,5.055319,7.49,105.007225,1677112052402,0.3835873,4.2278576,546847759009000,3.5594332,Bike
Fix,GPS,37.429108255,-122.1703871678,-8.633259873827308,5.221091,5.1331167,102.48941,1677112052000,0.41529503,4.365555,546848759022000,6.0343466,Bike
Fix,FLP,37.4291096,-122.170388,22.66548666296281,5.219667,6.959,102.02237,1677112053402,0.41529503,4.365555,546848759022000,3.5694232,Bike
Fix,GPS,37.4290963853,-122.170328488,-8.647330984027908,5.1819696,5.240815,102.23218,1677112053000,0.41907403,4.3598557,546849759142000,6.0692472,Bike
Fix,FLP,37.4290976,-122.1703291,21.705611139052507,5.1822877,6.744,102.00022,1677112054402,0.41907403,4.3598557,546849759142000,3.5784233,Bike
Fix,GPS,37.4290856164,-122.170271922,-8.30133751717876,5.043783,5.269616,101.38989,1677112054000,0.41381264,4.4167724,546850759092000,6.090166,Bike
Fix,FLP,37.4290864,-122.1702718,20.21126024629372,5.0448756,6.401,101.00726,1677112055402,0.41381264,4.4167724,546850759092000,3.5894732,Bike
Fix,GPS,37.4290755513,-122.1702154164,-7.728441441237076,5.1339765,5.143176,102.26983,1677112055000,0.39224595,4.1788073,546851759024000,6.086272,Bike
Fix,FLP,37.4290763,-122.1702155,16.76297560561551,5.133339,5.165,101.99365,1677112056402,0.39224595,4.1788073,546851759024000,3.5984132,Bike
Fix,GPS,37.4290647288,-122.1701591735,-7.141617667191385,4.925767,5.0076184,104.464714,1677112056000,0.3828831,4.2812824,546852759153000,6.0623064,Bike
Fix,FLP,37.4290653,-122.170159,9.095456929229172,4.927195,5.159,103.98626,1677112057402,0.3828831,4.2812824,546852759153000,3.6084232,Bike
Fix,GPS,37.4290521813,-122.1701027113,-6.483797158029615,4.93567,4.9416585,106.80398,1677112057000,0.3833408,4.2911677,546853759128000,6.0596,Bike
Fix,FLP,37.4290514,-122.1701042,16.76297560561551,4.989672,5.749,105.68802,1677112058402,,,546853759128000,3.6194432,Bike
Fix,GPS,37.4290377861,-122.1700494605,-5.793915710520306,4.8591914,4.9539876,108.197945,1677112058000,0.37716788,4.3529587,546854759103000,6.0009704,Bike
Fix,FLP,37.4290403,-122.1700682,-10.807092062277356,4.8845406,6.529,110.489586,1677112058984,,,546854342768177,3.6294732,Bike
Fix,FLP,37.4290357,-122.1700502,-10.807092062277356,4.880816,7.011,109.55286,1677112059528,,,546854885228321,3.6294732,Bike
Fix,GPS,37.4290251148,-122.170001845,-5.709242816341494,4.826071,4.8859334,105.40863,1677112059000,0.36710888,4.4142137,546855759182000,5.9689116,Bike
Fix,FLP,37.4290266,-122.1700141,-10.17664325317336,4.8604927,7.497,109.26339,1677112060070,,,546855427714344,3.6394331,Bike
Fix,GPS,37.4290161933,-122.1699535767,-6.192641850997818,4.694732,4.8042684,101.80074,1677112060000,0.35707316,4.34683,546856759196000,5.966435,Bike
Fix,FLP,37.4290172,-122.1699653,-10.17664325317336,4.843946,8.03,104.342316,1677112061155,,,546856512654896,3.6494532,Bike
Fix,FLP,37.4290131,-122.1699384,-10.17664325317336,4.724797,8.123,102.72724,1677112061696,,,546857053450000,3.6494532,Bike
Fix,GPS,37.4290101024,-122.1699049827,-6.164703971682137,4.3945603,4.836895,99.625114,1677112061000,0.3593721,4.657528,546857759347000,5.9348264,Bike
Fix,FLP,37.4290098,-122.1699139,-7.004224264101751,4.713292,8.617,100.42871,1677112062240,,,546857597595570,3.6584632,Bike
Fix,GPS,37.4290047836,-122.1698596924,-6.064428519393899,4.1620016,4.9724674,99.20449,1677112062000,0.37046257,5.004685,546858759159000,5.9405665,Bike
Fix,FLP,37.4290059,-122.1698603,-6.053239944149567,4.430794,8.678,96.438705,1677112063325,,,546858682542103,3.669423,Bike
Fix,FLP,37.4290031,-122.1698343,-6.053239944149567,4.201638,8.734,97.41988,1677112063868,,,546859225014027,3.669423,Bike
Fix,GPS,37.4289992664,-122.1698091811,-5.932366934445488,4.1931005,5.359084,98.01832,1677112063000,0.39170724,5.2033377,546859759337000,5.97944,Bike
Fix,FLP,37.4290008,-122.1698099,-3.0999999046325684,4.173727,8.719,96.07246,1677112064409,,,546859767484364,3.6795232,Bike
Fix,FLP,37.4289976,-122.1697838,-3.0999999046325684,4.1859818,8.784,97.36972,1677112064952,,,546860309946400,3.6795232,Bike
Fix,GPS,37.4289934393,-122.1697537774,-5.638942241530161,4.5221334,5.5754747,99.48729,1677112064000,0.39666504,4.9653735,546860759264000,6.0196085,Bike
Fix,FLP,37.4289945,-122.1697613,18.458677516852475,4.1896415,8.869,98.58227,1677112065495,,,546860852429554,3.689443,Bike
Fix,GPS,37.4289850298,-122.1697005774,-5.3042357179494966,4.6767225,5.767385,104.709595,1677112065000,0.41197732,5.0352216,546861759216000,6.080874,Bike
Fix,FLP,37.4289893,-122.1697242,18.458677516852475,4.4353533,8.985,101.22098,1677112066037,,,546861394901539,3.6994631,Bike
Fix,FLP,37.4289857,-122.1697015,18.458677516852475,4.604853,9.074,103.17556,1677112066580,,,546861937374500,3.6994631,Bike
Fix,FLP,37.4289837,-122.1696916,18.458677516852475,4.629131,9.105,105.55748,1677112067122,,,546862479844776,3.6994631,Bike
Fix,NLP,37.4323173,-122.1708797,,,899.999,,1677112066315,,,546861672000000,,Bike
Fix,GPS,37.4289737032,-122.1696474315,-4.698405376636552,4.764762,5.6085186,109.95807,1677112066000,0.3887,4.7150373,546862759268000,6.1348,Bike
Fix,FLP,37.4289619,-122.1696059,-10.59097274666358,4.754069,9.314,107.098366,1677112068206,,,546863564787892,3.709443,Bike
Fix,GPS,37.428962271,-122.1695998295,-4.024810432644401,4.866131,5.3497815,110.876205,1677112067000,0.3978265,4.6827865,546863759263000,6.1017265,Bike
Fix,FLP,37.4289557,-122.1695801,-10.59097274666358,4.829018,9.391,107.7638,1677112068750,,,546864107257374,3.7194133,Bike
Fix,GPS,37.4289486121,-122.1695485127,-3.5058722025526534,5.016496,5.240471,108.65398,1677112068000,0.40951544,4.6071763,546864759272000,6.1038733,Bike
Fix,FLP,37.4289495,-122.1695536,-10.59097274666358,4.871212,9.511,106.583305,1677112069292,,,546864649731556,3.7284632,Bike
Fix,FLP,37.4289433,-122.1695293,-10.59097274666358,4.9822106,9.512,106.87176,1677112069809,,,546865166000000,3.7284632,Bike
Fix,GPS,37.4289352513,-122.1694927788,-3.4192967342500373,5.1212416,5.1421356,106.4882,1677112069000,0.38763967,4.378093,546865759317000,6.0502024,Bike
Fix,FLP,37.4289354,-122.1694942,-18.59138462530467,5.1200123,9.194,106.00749,1677112070402,0.38763967,4.378093,546865759317000,3.7394233,Bike
Fix,GPS,37.4289250223,-122.1694377432,-3.16537231801118,5.109028,4.984144,105.288376,1677112070000,0.37729052,4.3425117,546866759347000,6.0101767,Bike
Fix,FLP,37.4289243,-122.1694379,-16.38536004398201,5.1091037,8.71,105.00704,1677112071402,0.37729052,4.3425117,546866759347000,3.7494233,Bike
Fix,GPS,37.4289142987,-122.1693820582,-2.4838423445059905,5.0006375,4.824258,106.33692,1677112071000,0.34619665,4.1604266,546867759654000,5.8379593,Bike
Fix,FLP,37.4289137,-122.1693821,-3.0999999046325684,5.001246,7.902,105.99383,1677112072402,0.34619665,4.1604266,546867759654000,3.7594233,Bike
Fix,GPS,37.4289012929,-122.1693278522,-2.0226472619863034,4.912682,4.8153496,107.17399,1677112072000,0.36787003,4.461347,546868759350000,5.713949,Bike
Fix,FLP,37.4289017,-122.1693266,0.1000000461935997,5.0082893,7.718,106.524,1677112073402,,,546868759350000,3.7694333,Bike
Fix,GPS,37.4288886793,-122.1692765645,-1.956629807470544,4.890877,4.733465,108.34606,1677112073000,0.3432731,4.1953483,546869759335000,5.5446754,Bike
Fix,FLP,37.4288974,-122.1693023,1.399999976158142,3.8571715,6.96,272.87006,1677112073993,,,546869351154591,3.778443,Bike
Fix,FLP,37.4288918,-122.1692892,1.399999976158142,2.0768132,7.085,110.30869,1677112074536,,,546869893629627,3.778443,Bike
Fix,GPS,37.4288750149,-122.1692262478,-1.8231544074323784,4.920251,4.6907334,107.5048,1677112074000,0.34458736,4.0758257,546870759608000,5.4615517,Bike
Fix,FLP,37.4288828,-122.1692548,0.1000000461935997,4.4120526,7.295,106.49316,1677112075078,,,546870436098743,3.7894332,Bike
Fix,FLP,37.4288765,-122.1692306,0.1000000461935997,4.7923946,7.351,107.062096,1677112075621,,,546870978570606,3.7894332,Bike
Fix,GPS,37.4288628605,-122.1691734157,-1.273866647376031,4.8620224,4.725763,105.86726,1677112075000,0.36879575,4.263758,546871759426000,5.4505277,Bike
Fix,FLP,37.4288677,-122.1691957,-3.0999999046325684,4.896681,7.759,107.37437,1677112076164,,,546871521042347,3.7984831,Bike
Fix,FLP,37.4288544,-122.1691414,-3.0999999046325684,4.894472,7.792,105.75215,1677112077248,,,546872605985951,3.7984831,Bike
Fix,GPS,37.4288508328,-122.1691202492,-0.8616646572819211,4.804947,4.794786,104.766624,1677112076000,0.38167152,4.337028,546872759548000,5.5195117,Bike
Fix,FLP,37.4288415,-122.1690775,-3.0999999046325684,4.832681,8.187,103.06638,1677112078333,,,546873690929493,3.8094332,Bike
Fix,GPS,37.4288382851,-122.1690692279,-0.7051926960180391,4.8490853,4.9487824,106.50532,1677112077000,0.40573657,4.5371027,546873759396000,5.569417,Bike
Fix,FLP,37.428833,-122.1690357,-3.0999999046325684,4.82977,8.226,104.18464,1677112078875,,,546874233400440,3.8194232,Bike
Fix,GPS,37.4288264414,-122.1690192382,-0.8527033941762305,4.9695954,5.00476,107.654465,1677112078000,0.4155609,4.5936933,546874759430000,5.6027246,Bike
Fix,FLP,37.4288294,-122.1690222,-10.509542471870432,4.8403287,8.121,105.45099,1677112079418,,,546874775870045,3.828473,Bike
Fix,GPS,37.428813487,-122.168969192,-0.937112981950228,5.0127325,5.0671673,109.48302,1677112079000,0.41553253,4.6407495,546875759430000,5.7319746,Bike
Fix,FLP,37.4288129,-122.1689642,-14.634356413000276,4.940617,8.233,108.67105,1677112080503,,,546875860815967,3.8394332,Bike
Fix,GPS,37.4287999539,-122.1689184142,-1.0412032823659745,5.050984,5.11224,107.57235,1677112080000,0.4232829,4.6867533,546876759716000,5.8173146,Bike
Fix,FLP,37.4287998,-122.1689165,-10.631431522323377,5.0497236,8.006,107.01,1677112081402,0.4232829,4.6867533,546876759716000,3.8494732,Bike
Fix,FLP,37.4287873,-122.1688619,-3.0999999046325684,5.021995,7.639,105.01502,1677112082402,0.4031352,4.5205245,546877759788000,3.8594332,Bike
Fix,GPS,37.4287875977,-122.1688620232,-1.0762980140860074,5.0218167,5.111407,105.0978,1677112081000,0.4031352,4.5205245,546877759788000,5.853815,Bike
Fix,GPS,37.4287774239,-122.1688059875,-1.0018268981606866,5.0271344,5.1097403,104.32457,1677112082000,0.40534788,4.543891,546878759514000,5.882962,Bike
Fix,FLP,37.4287768,-122.1688063,0.1000000461935997,5.0270853,7.11,104.00758,1677112083402,0.40534788,4.543891,546878759514000,3.8694332,Bike
Fix,GPS,37.4287666086,-122.1687492489,-0.6681335192385209,4.909242,5.199705,103.6195,1677112083000,0.43186447,4.9790807,546879759498000,5.9310746,Bike
Fix,FLP,37.4287677,-122.1687504,0.1000000461935997,5.019142,6.612,103.53629,1677112084401,,,546879759498000,3.8794231,Bike
Fix,GPS,37.4287581405,-122.1686949722,-0.4021644245006343,4.7547708,5.2255993,102.70494,1677112084000,0.42743742,5.141809,546880759493000,5.976649,Bike
Fix,FLP,37.4287588,-122.1687168,-3.0999999046325684,4.824673,6.899,131.05325,1677112084983,,,546880340729359,3.8894331,Bike
Fix,FLP,37.4287566,-122.1687001,-3.0999999046325684,4.99699,7.215,117.18944,1677112085550,,,546880907000000,3.8894331,Bike
Fix,FLP,37.4287497,-122.1686675,-3.0999999046325684,4.876261,7.469,108.85848,1677112086067,,,546881424000000,3.8894331,Bike
Fix,GPS,37.4287531968,-122.1686363475,-0.1056008531986708,4.529783,5.140121,103.61874,1677112085000,0.38584083,4.766669,546881759545000,5.9502983,Bike
Fix,FLP,37.4287468,-122.1686319,-3.0999999046325684,4.5926223,8.108,104.107315,1677112086611,,,546881968145314,3.8994231,Bike
Fix,GPS,37.4287444493,-122.1685845798,0.1342521452746336,4.414885,5.111454,108.09401,1677112086000,0.40087953,5.1251826,546882759580000,5.942353,Bike
Fix,FLP,37.4287434,-122.1686023,-5.135971598105719,4.5340524,8.2,104.013054,1677112087153,,,546882510615528,3.9095132,Bike
Fix,FLP,37.4287357,-122.1685538,-5.135971598105719,4.429186,8.637,105.45599,1677112088227,,,546883585000000,3.9095132,Bike
Fix,GPS,37.4287338356,-122.1685328482,0.378396481807182,4.406109,5.010809,108.40223,1677112087000,0.39047447,5.152597,546883759598000,5.9378524,Bike
Fix,GPS,37.4287239684,-122.1684841699,0.507048277552013,4.1661644,5.1007557,106.28437,1677112088000,0.40547,5.5526495,546884759736000,5.9752846,Bike
Fix,FLP,37.4287238,-122.1684917,-3.0999999046325684,4.4111176,9.126,105.724594,1677112089323,,,546884680502796,3.9284332,Bike
Fix,GPS,37.4287144898,-122.1684393693,-0.1938106634192788,4.10672,5.155408,104.15396,1677112089000,0.39998907,5.5287914,546885759721000,6.0019455,Bike
Fix,FLP,37.4287118,-122.1684401,-3.0999999046325684,4.1991014,8.96,106.491264,1677112090408,,,546885765446399,3.939443,Bike
Fix,FLP,37.428707,-122.1684093,-3.0999999046325684,4.113658,9.003,106.21565,1677112090950,,,546886307908253,3.939443,Bike
Fix,GPS,37.4287060268,-122.1683904076,-0.5129271300735988,4.142037,5.131181,105.96731,1677112090000,0.3597398,4.9394784,546886759677000,6.010495,Bike
Fix,FLP,37.4287048,-122.1683963,-3.0999999046325684,4.105598,9.057,107.49669,1677112091493,,,546886850390186,3.9494133,Bike
Fix,NLP,37.4280227,-122.1662674,,,699.999,,1677112091496,,,546886853000000,,Bike
Fix,GPS,37.4286954139,-122.1683420573,-1.3129183361319672,4.1125355,5.1370363,106.766716,1677112091000,0.38231915,5.2259336,546887760039000,5.9708285,Bike
Fix,FLP,37.4286978,-122.1683541,-3.0999999046325684,4.137823,9.147,105.71743,1677112092035,,,546887392863147,3.959423,Bike
Fix,FLP,37.4286924,-122.1683344,-3.0999999046325684,4.1212835,9.069,105.606674,1677112092578,,,546887935334462,3.959423,Bike
Fix,FLP,37.4286861,-122.1683112,-3.0999999046325684,4.1105595,9.014,107.28012,1677112093120,,,546888477807667,3.959423,Bike
Fix,GPS,37.4286820019,-122.1682928425,-2.099489649594649,3.89907,5.221916,109.44342,1677112092000,0.3594081,5.106228,546888759786000,5.945378,Bike
Fix,FLP,37.4286793,-122.1682816,-5.034502281507812,3.9307132,8.964,109.27937,1677112093663,,,546889020278614,3.969453,Bike
Fix,GPS,37.4286681341,-122.1682494858,-1.848135929850006,3.77484,5.270874,112.24471,1677112093000,0.34249964,5.217832,546889759635000,5.936264,Bike
Fix,FLP,37.4286743,-122.1682603,-4.814135429371248,3.9118977,8.976,108.77921,1677112094204,,,546889562752063,3.9784431,Bike
Fix,FLP,37.4286647,-122.1682327,-4.814135429371248,3.794406,8.944,111.215706,1677112094748,,,546890105223438,3.9784431,Bike
Fix,GPS,37.4286520981,-122.1682060586,-1.6260694466675822,3.8665662,5.316992,113.886345,1677112094000,0.3429774,4.9041204,546890759692000,5.94254,Bike
Fix,FLP,37.4286579,-122.1682143,-3.0999999046325684,3.7849777,8.951,112.310814,1677112095289,,,546890647700306,3.9894233,Bike
Fix,FLP,37.4286485,-122.1681884,-3.0999999046325684,3.8279436,8.984,115.48731,1677112095833,,,546891190169301,3.9894233,Bike
Fix,GPS,37.4286383218,-122.1681527034,-2.0615708237096726,3.7582974,5.1787567,120.55065,1677112095000,0.35686666,5.3006487,546891759693000,5.936384,Bike
Fix,FLP,37.4286414,-122.1681717,-3.0999999046325684,3.8464506,8.982,118.83598,1677112096375,,,546891732643666,3.9994433,Bike
Fix,FLP,37.4286211,-122.1681198,-3.0999999046325684,3.8068488,9.023,112.02913,1677112097459,,,546892817591420,3.9994433,Bike
Fix,GPS,37.42862288,-122.1681104535,-2.356540976030925,3.9424706,5.1921434,116.4595,1677112096000,0.3495102,4.962889,546892759721000,5.812389,Bike
Fix,FLP,37.4286112,-122.1680777,1.399999976158142,3.9240527,9.21,108.514725,1677112098003,,,546893360064320,4.0098534,Bike
Fix,GPS,37.4286092821,-122.1680722767,-2.6150783403564763,4.0418615,5.388663,106.30679,1677112097000,0.36577782,5.1808753,546893759845000,5.7217216,Bike
Fix,FLP,37.4286066,-122.1680613,-7.07441660397545,4.026953,9.194,106.436066,1677112098545,,,546893902539418,4.019483,Bike
Fix,GPS,37.4286017957,-122.1680257114,-2.964122966923015,4.0654674,5.4232383,102.39686,1677112098000,0.38000396,5.299542,546894760163000,5.6244407,Bike
Fix,FLP,37.4286014,-122.1680427,-8.01145413179021,4.0423627,9.198,106.00184,1677112099088,,,546894445012807,4.0294433,Bike
Fix,FLP,37.428597,-122.168016,-8.01145413179021,4.067731,9.151,104.24215,1677112099630,,,546894987486866,4.0294433,Bike
Fix,GPS,37.4285950685,-122.1679763592,-2.973689418870983,4.225945,5.5434647,104.08504,1677112099000,0.42509288,5.749516,546895759860000,5.669488,Bike
Fix,FLP,37.4285933,-122.1679932,-10.769194761881336,4.067197,9.135,104.690506,1677112100172,,,546895529961536,4.039423,Bike
Fix,FLP,37.4285849,-122.1679437,-10.769194761881336,4.208451,9.102,103.96849,1677112101257,,,546896614911243,4.039423,Bike
Fix,GPS,37.4285873433,-122.1679303517,-3.288524222979872,3.7651763,5.9303246,103.69376,1677112100000,0.43995374,6.7293153,546896759740000,5.7532625,Bike
Fix,FLP,37.4285774,-122.1678935,-10.256540261289842,3.8199117,9.279,102.760864,1677112102342,,,546897699860401,4.0484333,Bike
Fix,GPS,37.4285796585,-122.1678845857,-3.410755441301756,3.9299805,6.1057625,103.95817,1677112101000,0.4242719,6.0199757,546897759875000,5.812494,Bike
Fix,FLP,37.4285735,-122.1678588,-3.0999999046325684,3.899453,9.534,104.296,1677112102884,,,546898242336293,4.059423,Bike
Fix,GPS,37.4285715746,-122.1678355018,-3.2970370960369446,4.5430493,6.2610354,111.28804,1677112102000,0.4435263,5.530996,546898759857000,5.8577943,Bike
Fix,FLP,37.428571,-122.1678441,-10.905419400765048,3.9086618,9.695,106.885864,1677112103427,,,546898784809926,4.069423,Bike
Fix,GPS,37.4285608603,-122.1677859921,-3.7158387733060088,4.9631786,6.247766,113.05252,1677112103000,0.4452529,5.1341543,546899759757000,5.9180136,Bike
Fix,FLP,37.4285616,-122.1678063,-10.468570967800003,4.384812,9.991,109.88245,1677112103969,,,546899327284840,4.078473,Bike
Fix,FLP,37.4285516,-122.1677715,-10.468570967800003,4.822086,10.305,111.257576,1677112105024,,,546900382000000,4.078473,Bike
Fix,GPS,37.4285484273,-122.1677304826,-4.056805347091146,5.146039,6.2287254,109.8925,1677112104000,0.4601203,5.0392933,546900759796000,5.984647,Bike
Fix,FLP,37.4285474,-122.1677391,-10.34616741656221,5.140894,9.966,109.02652,1677112105402,0.4601203,5.0392933,546900759796000,4.0895033,Bike
Fix,GPS,37.4285345224,-122.1676741871,-4.583894489578051,5.048439,6.070514,106.835266,1677112105000,0.46125272,5.0834928,546901759842000,6.0773277,Bike
Fix,FLP,37.4285337,-122.167678,-5.597180414413288,5.0492935,9.864,106.029,1677112106401,0.46125272,5.0834928,546901759842000,4.0994234,Bike
Fix,GPS,37.4285255675,-122.1676193996,-4.763144499162699,4.8712325,6.0714183,106.92494,1677112106000,0.45411944,5.1898484,546902759884000,6.14424,Bike
Fix,FLP,37.4285232,-122.1676223,-3.0999999046325684,4.977744,9.659,105.94149,1677112107402,,,546902759884000,4.109423,Bike
Fix,GPS,37.4285152137,-122.1675611411,-4.835516566465906,4.9623847,6.1586423,110.01078,1677112107000,0.45385042,5.1039133,546903760217000,6.215356,Bike
Fix,FLP,37.4285128,-122.1675894,-3.0999999046325684,4.951542,9.505,142.98822,1677112108007,,,546903364199085,4.1194234,Bike
Fix,FLP,37.4285067,-122.1675694,-3.0999999046325684,5.2606955,9.591,124.71774,1677112108549,,,546903906674000,4.1194234,Bike
Fix,FLP,37.4284991,-122.1675424,-3.0999999046325684,5.1352105,9.5,116.68689,1677112109092,,,546904449147022,4.1194234,Bike
Fix,GPS,37.4284993966,-122.1674966447,-4.454355663952845,4.725122,6.2095013,110.37869,1677112108000,0.46325108,5.486831,546904760012000,6.214188,Bike
Fix,GPS,37.4284854381,-122.1674349769,-3.947720237394376,4.816369,6.116251,108.82586,1677112109000,0.48173663,5.767905,546905760192000,6.244844,Bike
Fix,FLP,37.4284864,-122.1674743,-3.0999999046325684,4.771465,9.875,111.54096,1677112110177,,,546905534087330,4.1394234,Bike
Fix,FLP,37.4284784,-122.1674367,-3.0999999046325684,4.828009,9.949,109.21122,1677112110716,,,546906074879261,4.1394234,Bike
Fix,FLP,37.4284725,-122.1674075,-3.0999999046325684,4.8269615,10.51,108.34322,1677112111261,,,546906619049427,4.1394234,Bike
Fix,GPS,37.4284705209,-122.1673788572,-4.612380357576679,4.3265424,6.142068,110.72998,1677112110000,0.46801403,6.0804267,546906759940000,6.346963,Bike
Fix,GPS,37.4284588881,-122.1673226507,-5.329315920079877,4.3115544,6.16578,107.6412,1677112111000,0.45311335,5.9668374,546907759962000,6.4411373,Bike
Fix,FLP,37.4284574,-122.1673479,-4.869996407523338,4.389979,10.547,109.23259,1677112112346,,,546907703999623,4.1496434,Bike
Fix,FLP,37.4284467,-122.1672935,-3.0999999046325684,4.338855,10.522,103.93867,1677112113426,,,546908783000000,4.159913,Bike
Fix,GPS,37.4284495708,-122.1672657015,-6.481249329220281,4.3553085,6.415368,107.7166,1677112112000,0.47253865,6.129353,546908759966000,6.4673657,Bike
Fix,GPS,37.428440218,-122.1672101351,-7.580933934705821,4.2976227,6.685419,103.839424,1677112113000,0.5157561,6.9192076,546909759977000,6.5298514,Bike
Fix,FLP,37.4284399,-122.1672375,9.008704316391317,4.3468304,10.763,103.82754,1677112114516,,,546909873888599,4.1794434,Bike
Fix,FLP,37.4284327,-122.1671885,9.008704316391317,4.312585,10.928,103.39879,1677112115059,,,546910416375111,4.1794434,Bike
Fix,GPS,37.428435806,-122.1671590532,-8.916170056893694,4.2012954,6.825694,105.87366,1677112114000,0.48126978,6.527606,546910759983000,6.566413,Bike
Fix,FLP,37.4284304,-122.1671634,9.158083629112651,4.221855,11.026,103.929955,1677112115601,,,546910958849659,4.189443,Bike
Fix,FLP,37.4284254,-122.1671303,9.158083629112651,4.1994667,11.183,104.659836,1677112116144,,,546911501324818,4.189443,Bike
Fix,GPS,37.4284259949,-122.1671030203,-8.52242588679281,4.512721,6.8022866,108.24417,1677112115000,0.4650391,5.9651284,546911760343000,6.561917,Bike
Fix,FLP,37.4284172,-122.1670806,4.758403472076829,4.449126,11.301,107.20991,1677112117229,,,546912586274525,4.1994333,Bike
Fix,GPS,37.4284124005,-122.1670456,-8.135289047029733,4.5399895,6.695503,110.20021,1677112116000,0.44463924,5.577677,546912760006000,6.5751905,Bike
Fix,FLP,37.4284107,-122.1670469,1.399999976158142,4.5163956,11.453,109.393234,1677112117802,,,546913159000000,4.209493,Bike
Fix,FLP,37.4284025,-122.1670166,1.399999976158142,4.4976516,11.491,114.578026,1677112118314,,,546913671224476,4.209493,Bike
Fix,GPS,37.4283933167,-122.1669986268,-8.627596324118864,4.4879537,6.667989,117.732994,1677112117000,0.5197706,5.798428,546913760002000,6.625501,Bike
Fix,FLP,37.4283904,-122.1669869,-3.0999999046325684,4.460115,11.636,122.618576,1677112118856,,,546914213699086,4.2195034,Bike
Fix,GPS,37.4283642431,-122.1669511949,-10.302284665103404,4.8334007,6.6139536,123.11851,1677112118000,0.50204057,5.4262366,546914760023000,6.606366,Bike
Fix,FLP,37.4283783,-122.1669679,-3.0999999046325684,4.4808054,11.64,132.80553,1677112119399,,,546914756174427,4.229413,Bike
Fix,FLP,37.4283564,-122.1669397,-3.0999999046325684,4.7092466,11.61,132.7901,1677112119941,,,546915298649281,4.229413,Bike
Fix,GPS,37.4283343859,-122.1669119035,-10.990360440322911,4.4980416,6.7507896,137.55127,1677112119000,0.5242305,6.5315447,546915760311000,6.6918435,Bike
Fix,FLP,37.4283486,-122.1669296,-3.0999999046325684,4.7970643,11.609,135.67953,1677112120484,,,546915841123890,4.2394233,Bike
Fix,FLP,37.4283263,-122.1669045,-3.0999999046325684,4.6117215,11.571,139.5608,1677112121013,,,546916371000000,4.2394233,Bike
Fix,GPS,37.4282990875,-122.1668820082,-10.646568136725888,4.461235,6.782402,152.46,1677112120000,0.4562506,5.9546876,546916760065000,6.7850323,Bike
Fix,FLP,37.428305,-122.1668858,-3.0999999046325684,4.5396714,11.471,145.86874,1677112121569,,,546916926073170,4.249453,Bike
Fix,NLP,37.4280227,-122.1662674,,,699.999,,1677112121650,,,546917007000000,,Bike
Fix,FLP,37.4282782,-122.1668648,-3.0999999046325684,4.478538,11.484,135.09721,1677112122111,,,546917468550465,4.249453,Bike
Fix,GPS,37.4282556469,-122.1668507395,-10.004307400517083,4.7771516,6.6647224,145.34486,1677112121000,0.45074686,5.351033,546917760095000,6.8838987,Bike
Fix,FLP,37.4282587,-122.1668447,-10.416332012102645,4.696154,11.501,138.78021,1677112122654,,,546918011021839,4.2594533,Bike
Fix,GPS,37.4282146555,-122.1668163684,-8.813719261915676,4.8921075,6.6313877,135.86893,1677112122000,0.49172384,5.6025896,546918760127000,7.0221887,Bike
Fix,FLP,37.4282411,-122.1668277,-15.671899279810368,4.75961,11.434,134.61742,1677112123196,,,546918553496205,4.269423,Bike
Fix,GPS,37.4281873613,-122.1667757817,-9.206604356567286,4.425812,6.174224,123.67197,1677112123000,0.5540494,6.7646136,546919760142000,7.0011597,Bike
Fix,FLP,37.4282075,-122.1667895,-8.791641780460225,4.9203057,11.422,124.98218,1677112124281,,,546919638445118,4.2794333,Bike
Fix,FLP,37.4281844,-122.1667579,-8.791641780460225,4.557819,11.355,120.58937,1677112124823,,,546920180919483,4.2794333,Bike
Fix,GPS,37.4281770189,-122.1667277355,-10.588343255399312,4.6451135,5.8635664,101.88383,1677112124000,0.43007043,5.40149,546920760455000,6.914516,Bike
Fix,FLP,37.4281794,-122.1667495,-8.039117958658665,4.522878,11.314,115.979614,1677112125366,,,546920723393604,4.289433,Bike
Fix,FLP,37.4281708,-122.166708,-8.039117958658665,4.670862,11.167,101.80457,1677112125908,,,546921265867787,4.289433,Bike
Fix,GPS,37.428179266,-122.16667593,-10.007945824741244,4.4978065,5.6187615,85.03326,1677112125000,0.41091937,5.360257,546921760136000,6.784447,Bike
Fix,FLP,37.4281713,-122.1666889,-5.1098356784699845,4.6461515,11.036,94.90905,1677112126450,,,546921808341847,4.2994533,Bike
Fix,GPS,37.4281901167,-122.1666248404,-9.117784026686108,4.690015,5.76764,68.61516,1677112126000,0.43295532,5.406561,546922760518000,6.6620827,Bike
Fix,FLP,37.428178,-122.1666303,-3.0999999046325684,4.435836,10.581,78.37932,1677112127536,,,546922893289601,4.309433,Bike
Fix,FLP,37.4281923,-122.1665999,-3.0999999046325684,4.5453224,10.403,65.573166,1677112128054,,,546923411000000,4.309433,Bike
Fix,GPS,37.4282098905,-122.1665779254,-8.648944152032195,4.42052,5.905922,62.526714,1677112127000,0.42772353,5.4121966,546923760216000,6.556124,Bike
Fix,FLP,37.428208,-122.1665761,1.399999976158142,4.482576,10.076,60.6399,1677112128621,,,546923978237660,4.319443,Bike
Fix,GPS,37.4282344903,-122.1665355378,-8.014510043521835,4.4279613,6.1379824,62.206795,1677112128000,0.46071285,5.881551,546924760272000,6.451804,Bike
Fix,FLP,37.4282228,-122.166548,3.734380968921826,4.4245644,9.956,58.444065,1677112129163,,,546924520699818,4.329423,Bike
Fix,FLP,37.4282326,-122.1665301,3.734380968921826,4.457721,9.909,61.206543,1677112129706,,,546925063185414,4.329423,Bike
Fix,GPS,37.4282582829,-122.1664916744,-7.3569802005961185,4.1754975,6.4178123,60.863712,1677112129000,0.456237,6.1028724,546925760198000,6.4067345,Bike
Fix,FLP,37.4282454,-122.1665018,4.139665624229856,4.4645185,9.939,65.22325,1677112130248,,,546925605656422,4.339423,Bike
Fix,GPS,37.4282807823,-122.1664459752,-7.1437689272258,4.0459957,6.677573,70.59404,1677112130000,0.49929383,6.9211807,546926760280000,6.413387,Bike
Fix,FLP,37.4282649,-122.1664566,-0.8224511693594607,4.2559395,10.212,71.13932,1677112131333,,,546926690594594,3.5139806,Bike
Fix,FLP,37.4282737,-122.1664324,-0.8224511693594607,4.112129,10.429,75.97886,1677112131872,,,546927229000000,3.5139806,Bike
Fix,GPS,37.4282903996,-122.1663953973,-6.4535147782839015,4.2495365,6.771253,86.46439,1677112131000,0.48982593,6.131536,546927760246000,6.3988276,Bike
Fix,FLP,37.4282786,-122.1664012,-3.0999999046325684,3.9948392,10.631,91.42776,1677112132418,,,546927775553333,3.5240006,Bike
Fix,FLP,37.4282816,-122.1663594,-3.0999999046325684,4.2247267,11.094,90.50372,1677112132961,,,546928318023793,3.7622454,Bike
Fix,GPS,37.4282907445,-122.1663454053,-6.745827956516843,4.3501635,6.8859577,100.686134,1677112132000,0.53608984,7.004908,546928760275000,6.448728,Bike
