Fix,Provider,LatitudeDegrees,LongitudeDegrees,AltitudeMeters,SpeedMps,AccuracyMeters,BearingDegrees,UnixTimeMillis,SpeedAccuracyMps,BearingAccuracyDegrees,elapsedRealtimeNanos,VerticalAccuracyMeters,TransitType
Fix,FLP,37.4274516,-122.1730185,-2.400000095367432,,24.417,310.68146,1677608902105,,,1043705328066958,1.7976543,Bike
Fix,NLP,37.4274301,-122.1729991,-2.400000095367432,,13.22,,1677608902076,,,1043705299000000,1.7976543,Bike
Fix,FLP,37.4274431,-122.1730118,-2.400000095367432,0.106583126,18.736,147.93387,1677608906156,,,1043709379423404,1.8349841,Bike
Fix,GPS,37.4274116809,-122.1731607349,-5.638708606706684,0.0,58.481422,,1677608911281,1.5149041,,1043715509364402,91.69211,Bike
Fix,FLP,37.4274194,-122.173117,-2.400000095367432,1.6156125,58.481,253.93935,1677608912285,1.5149041,,1043715509364402,1.8930941,Bike
Fix,NLP,37.4272267,-122.1730419,-0.1000000014901161,,25.244,,1677608912355,,,1043715578000000,2.156135,Bike
Fix,FLP,37.4272756,-122.1730626,-0.1000000014901161,3.28415,42.816,192.3681,1677608912355,,,1043715578000000,1.912901,Bike
Fix,GPS,37.4273816739,-122.1730064389,1.234357739668928,0.0,27.07836,,1677608912281,1.5665063,,1043716533535871,42.456364,Bike
Fix,FLP,37.4272491,-122.1730494,-2.400000095367432,3.1676364,37.052,180.87094,1677608913309,,,1043716533535871,1.9064943,Bike
Fix,GPS,37.4273502502,-122.1729798987,-0.215960783274109,0.0,27.356066,,1677608913281,0.93962896,,1043717525560977,31.770994,Bike
Fix,FLP,37.4272351,-122.1730397,-2.400000095367432,2.5409968,34.179,172.81644,1677608914301,,,1043717525560977,1.8811779,Bike
Fix,GPS,37.4273410643,-122.1729801837,0.4156472404596129,0.0,22.253658,,1677608914281,0.7859573,,1043718520524845,25.691853,Bike
Fix,FLP,37.4272354,-122.173032,-2.400000095367432,1.6133635,32.276,163.47006,1677608915297,,,1043718520524845,1.8897376,Bike
Fix,FLP,37.4272416,-122.1730292,-2.400000095367432,0.95801157,30.872,153.5429,1677608916015,,,1043719238134058,1.8951716,Bike
Fix,GPS,37.4273360073,-122.1730165486,0.6396196851226144,0.0,17.282814,,1677608915999,0.70268065,,1043720221839258,21.174706,Bike
Fix,FLP,37.4272486,-122.1730301,-2.400000095367432,0.36351615,29.769,137.61198,1677608916998,,,1043720221839258,1.9051716,Bike
Fix,NLP,37.4271531,-122.1730526,-0.1000000014901161,,18.451,,1677608917267,,,1043720491000000,2.540446,Bike
Fix,FLP,37.4272152,-122.1730383,-0.1000000014901161,1.6707498,28.328,181.97408,1677608917268,,,1043720491000000,2.4174402,Bike
Fix,GPS,37.4273362522,-122.1730203748,-0.3991358909548779,0.0,16.06668,,1677608916999,0.67157716,,1043721259212143,19.902588,Bike
Fix,FLP,37.427197,-122.1730426,-0.1000000014901161,1.9932716,22.71,185.79628,1677608918036,,,1043721259212143,2.4253502,Bike
Fix,GPS,37.4273353774,-122.1730136066,-3.155758058364805,0.0,14.897436,,1677608917999,20.0,,1043722245988000,18.751602,Bike
Fix,FLP,37.4271893,-122.173044,-0.1000000014901161,1.5431163,21.589,186.3003,1677608919021,,,1043722245988000,2.4166243,Bike
Fix,GPS,37.4273363604,-122.1730107957,-5.11954961195556,0.0,13.916828,,1677608918999,0.6767343,,1043723246204000,17.918833,Bike
Fix,FLP,37.4271912,-122.1730433,-0.1000000014901161,0.84766704,20.421,185.29218,1677608920022,,,1043723246204000,2.4453502,Bike
Fix,GPS,37.4273381846,-122.1730055781,-7.67152145584176,0.0,13.599481,,1677608919999,0.7959974,,1043724246022000,17.210842,Bike
Fix,FLP,37.4271956,-122.1730416,-0.1000000014901161,0.320637,18.619,177.85393,1677608921023,,,1043724246022000,2.4443803,Bike
Fix,GPS,37.4273455965,-122.1729974484,-6.52873362409463,0.0,13.4541645,,1677608920999,0.8494704,,1043725246218000,16.615072,Bike
Fix,FLP,37.4272008,-122.173039,-0.1000000014901161,0.10283382,17.632,71.23435,1677608922022,,,1043725246218000,2.4544103,Bike
Fix,NLP,37.4272215,-122.1730601,-0.1000000014901161,,26.359,,1677608922332,,,1043725556000000,2.378648,Bike
Fix,FLP,37.4272268,-122.1730366,-0.1000000014901161,1.3009251,18.212,7.702961,1677608922332,,,1043725556000000,2.3717053,Bike
Fix,GPS,37.4273531413,-122.1729944814,-5.341416815870455,0.0,19.925356,,1677608921999,1.1568617,,1043726246044000,15.999281,Bike
Fix,FLP,37.4272423,-122.1730381,-0.1000000014901161,1.656729,19.16,2.2463098,1677608923023,,,1043726246044000,2.3848586,Bike
Fix,GPS,37.4273605211,-122.1729935988,-4.165831906709505,0.0,23.079546,,1677608922999,1.1892298,,1043727246045000,15.465751,Bike
Fix,FLP,37.4272553,-122.1730421,-0.1000000014901161,1.5696895,21.29,356.33203,1677608924023,,,1043727246045000,2.3948486,Bike
Fix,GPS,37.4273570249,-122.1729962415,-3.175914390181261,0.0,17.045065,,1677608923999,0.97253835,,1043728246194000,15.212216,Bike
Fix,FLP,37.4272653,-122.1730425,-0.1000000014901161,1.4176726,22.055,357.40552,1677608925023,,,1043728246194000,2.4048586,Bike
Fix,FLP,37.4272638,-122.1729745,-0.1000000014901161,0.05811092,21.328,,1677608925277,,,1043728501305586,2.4048586,Bike
Fix,GPS,37.4273607007,-122.1730069674,-2.3155074746246345,0.0,20.750439,,1677608924999,1.2198956,,1043729246080000,15.12977,Bike
Fix,FLP,37.4272633,-122.1729613,-0.1000000014901161,0.009264005,20.449,,1677608925820,,,1043729043884077,2.414065,Bike
Fix,FLP,37.4272663,-122.1729548,-0.1000000014901161,0.0040844316,19.367,,1677608926362,,,1043729586453352,2.414065,Bike
Fix,GPS,37.4273622123,-122.1730147127,-2.3538844478571166,0.0,16.20251,,1677608925999,1.0013156,,1043730246109000,15.044547,Bike
Fix,FLP,37.4272681,-122.1729492,-0.1000000014901161,0.00048643898,17.708,,1677608926906,,,1043730129042707,2.4240649,Bike
Fix,NLP,37.4272546,-122.1730143,-0.1000000014901161,,31.785,,1677608927374,,,1043730597000000,2.5051808,Bike
Fix,FLP,37.4272712,-122.1729478,-0.1000000014901161,0.0006459199,16.031,,1677608927447,,,1043730671625227,2.3806088,Bike
Fix,GPS,37.427362318,-122.1730154798,-2.479417183686854,0.0,15.044412,,1677608926999,0.930748,,1043731246353000,15.126565,Bike
Fix,FLP,37.427275,-122.1729488,-0.1000000014901161,0.0022482392,14.334,,1677608927991,,,1043731214192915,2.3787131,Bike
Fix,GPS,37.4273645629,-122.173031612,-2.830080441895627,0.0,13.080657,,1677608927999,0.8403684,,1043732246120000,15.233973,Bike
Fix,FLP,37.4272774,-122.1729525,5.052378704238638,0.07733382,12.218,,1677608929075,,,1043732299361128,2.384996,Bike
Fix,GPS,37.427367038,-122.173040897,-2.572663954014899,0.0,12.994175,,1677608928999,0.6928548,,1043733246117000,15.248879,Bike
Fix,FLP,37.4272884,-122.1729564,-3.219007539907249,0.028694779,10.89,,1677608930160,,,1043733384515364,2.4406807,Bike
Fix,GPS,37.4273693924,-122.1730545555,-2.950662059408429,0.0,12.95929,,1677608929999,0.9954328,,1043734246115000,15.395321,Bike
Fix,FLP,37.4272985,-122.172958,-10.320395181367669,0.004423481,8.491,,1677608930703,,,1043733927091658,2.4153852,Bike
Fix,GPS,37.4273668269,-122.1730705798,-3.0500548556177987,0.0,12.978222,,1677608930999,1.043905,,1043735246377000,15.558899,Bike
Fix,FLP,37.4273081,-122.1729582,-18.71428979854532,0.004933737,8.345,,1677608931788,,,1043735012239484,2.4253953,Bike
Fix,NLP,37.4272908,-122.1730357,-0.1000000014901161,,28.895,,1677608932397,,,1043735621000000,2.3080938,Bike
Fix,FLP,37.4273137,-122.1729586,-18.71428979854532,0.004207574,8.131,,1677608932331,,,1043735554816877,2.367896,Bike
Fix,GPS,37.4273670789,-122.1730722997,-2.850538203924782,0.0,14.363074,,1677608931999,1.1726415,,1043736246178000,15.787451,Bike
Fix,FLP,37.4273167,-122.1729602,-16.947122623724567,0.019721946,7.973,,1677608932873,,,1043736097391096,2.3748088,Bike
Fix,GPS,37.4273656713,-122.173079865,-2.6400775468381297,0.0,13.320356,,1677608932999,1.0420074,,1043737246292000,16.033346,Bike
Fix,FLP,37.4273195,-122.1729617,-13.736341607344754,0.13336955,7.747,340.35526,1677608933958,,,1043737182538557,2.3847158,Bike
Fix,GPS,37.4273679202,-122.173087478,-2.938760052433073,0.0,13.477848,,1677608933999,1.0191836,,1043738246278000,16.314861,Bike
Fix,FLP,37.4273224,-122.1729625,-13.736341607344754,0.006313472,7.619,,1677608935043,,,1043738267681623,2.3847158,Bike
Fix,GPS,37.4273730208,-122.1730853178,-2.4835944553530807,0.0,13.512011,,1677608934999,0.828967,,1043739246239000,16.545479,Bike
Fix,FLP,37.4273245,-122.1729628,16.08361014547317,0.00029270543,7.415,,1677608936128,,,1043739352819379,2.404387,Bike
Fix,GPS,37.4273747388,-122.1730988514,-2.182053275288272,0.0,13.181566,,1677608935999,0.80210024,,1043740246262000,16.719976,Bike
Fix,FLP,37.4273254,-122.1729616,12.628860345906473,0.003279515,7.363,,1677608937214,,,1043740437974043,2.414387,Bike
Fix,NLP,37.4273629,-122.1730436,-0.1000000014901161,,18.415,,1677608937380,,,1043740603000000,2.3869135,Bike
Fix,GPS,37.4273822126,-122.1731028145,-1.4625861136787717,0.0,12.444107,,1677608936999,0.59576553,,1043741246265000,15.860296,Bike
Fix,FLP,37.4273272,-122.1729633,9.075868309784983,0.011950975,7.24,,1677608937756,,,1043740980542524,2.3642135,Bike
Fix,GPS,37.4273884738,-122.1730953695,-2.065176116479981,0.0,11.934901,,1677608937999,0.5970308,,1043742246245000,15.226439,Bike
Fix,FLP,37.4273276,-122.1729638,4.811285607092888,0.006797006,7.151,,1677608938842,,,1043742065682600,2.3739033,Bike
Fix,GPS,37.4273934917,-122.1730927881,-2.819648742973511,0.0,11.490319,,1677608938999,0.6508109,,1043743246290000,14.800318,Bike
Fix,FLP,37.4273276,-122.1729637,3.30971643976288,0.002405173,6.927,,1677608939927,,,1043743150821760,2.383334,Bike
Fix,GPS,37.4273958962,-122.1730880322,-2.0672372019691547,0.0,11.1844225,,1677608939999,0.621005,,1043744246313000,14.419534,Bike
Fix,FLP,37.4273274,-122.1729642,-0.1000000014901161,0.0032623133,6.707,,1677608941011,,,1043744235962141,2.3930063,Bike
Fix,GPS,37.427394727,-122.1730879468,-2.1867103371608554,0.0,10.917249,,1677608940999,0.66011816,,1043745246328000,14.056158,Bike
Fix,FLP,37.4273273,-122.1729656,-0.1000000014901161,0.009126362,6.686,,1677608942098,,,1043745321097883,2.4030263,Bike
Fix,NLP,37.4273289,-122.173042,-0.1000000014901161,,25.083,,1677608942469,,,1043745692000000,2.0443184,Bike
Fix,GPS,37.4273932954,-122.1730893813,-2.137117197035701,0.0,10.709755,,1677608941999,0.66446495,,1043746246338000,13.680409,Bike
Fix,FLP,37.4273276,-122.1729686,-0.1000000014901161,0.025615668,6.766,,1677608943183,,,1043746406230696,2.1418295,Bike
Fix,FLP,37.4273282,-122.1729713,-0.1000000014901161,0.05446017,6.888,,1677608943724,,,1043746948797529,2.1418295,Bike
Fix,GPS,37.4273938704,-122.1730904874,-2.615871935441373,0.0,10.5928955,,1677608942999,0.6834394,,1043747246296000,13.433465,Bike
Fix,FLP,37.4273285,-122.1729726,-0.1000000014901161,0.07212726,7.064,,1677608944268,,,1043747491361922,2.219073,Bike
Fix,GPS,37.4273949242,-122.1730904475,-3.0169883503356334,0.0,10.549045,,1677608943999,20.0,,1043748246358000,13.282686,Bike
Fix,FLP,37.4273288,-122.1729737,-0.1000000014901161,0.082471065,7.197,,1677608944809,,,1043748033930830,2.229043,Bike
Fix,FLP,37.4273291,-122.1729746,-0.1000000014901161,0.09383091,7.285,,1677608945353,,,1043748576497297,2.229043,Bike
Fix,GPS,37.4273935945,-122.1730905435,-3.2980199157522496,0.0,10.493488,,1677608944999,0.7132856,,1043749246453000,13.177795,Bike
Fix,FLP,37.4273297,-122.1729759,-0.1000000014901161,0.11097907,7.51,285.56198,1677608945896,,,1043749119063215,2.1581578,Bike
Fix,GPS,37.4273920124,-122.1730970078,-3.495973279189776,0.0,10.50585,,1677608945999,0.8183126,,1043750246388000,13.301972,Bike
Fix,FLP,37.4273305,-122.1729775,2.658608637919265,0.12446072,7.678,290.39374,1677608946980,,,1043750204194319,2.1681578,Bike
Fix,NLP,37.4273533,-122.1730235,-0.1999998986721038,,26.958,,1677608947532,,,1043750755000000,1.9531878,Bike
Fix,FLP,37.4273311,-122.1729786,2.856744370198985,0.054511372,7.856,,1677608947523,,,1043750746759321,2.097408,Bike
Fix,FLP,37.4273324,-122.1729816,2.856744370198985,0.08396685,7.982,,1677608948056,,,1043751280000000,2.097408,Bike
Fix,GPS,37.4273875971,-122.1731078444,-3.004907371132937,0.0,10.660767,,1677608946999,0.6756081,,1043751246421000,13.318698,Bike
Fix,FLP,37.4273336,-122.1729846,2.969091436226787,0.051337883,8.281,,1677608948608,,,1043751831888533,2.1021385,Bike
Fix,GPS,37.4273873996,-122.1731179053,-3.0220944408814243,0.0,10.522507,,1677608947999,0.68191403,,1043752246626000,12.86169,Bike
Fix,FLP,37.4273338,-122.172985,1.7205909031604385,0.035841018,8.289,,1677608949151,,,1043752374452803,2.094984,Bike
Fix,GPS,37.4273859128,-122.1731206143,-3.0731283137901824,0.0,10.637085,,1677608948999,0.70506215,,1043753246408000,12.630518,Bike
Fix,FLP,37.4273339,-122.1729853,-0.1999998986721038,0.019995553,8.383,,1677608949693,,,1043752917005049,2.0935416,Bike
Fix,FLP,37.427334,-122.1729856,-0.1999998986721038,0.013210518,8.403,,1677608950236,,,1043753459581037,2.0935416,Bike
Fix,FLP,37.4273341,-122.1729861,-0.1999998986721038,0.009815945,8.453,,1677608950778,,,1043754002143904,2.0935416,Bike
Fix,GPS,37.4273854416,-122.1731208749,-1.1077162649000123,0.0,10.576267,,1677608949999,0.6936121,,1043754246542000,11.412637,Bike
Fix,FLP,37.4273344,-122.172987,-0.1999998986721038,0.006559791,8.464,,1677608951320,,,1043754544707136,2.1006424,Bike
Fix,GPS,37.427384809,-122.1731206908,-1.1394948599783778,0.0,10.722128,,1677608950999,0.7589303,,1043755246517000,11.35601,Bike
Fix,FLP,37.4273345,-122.1729875,-0.1999998986721038,0.0055357246,8.477,,1677608951863,,,1043755087265974,2.1106625,Bike
Fix,NLP,37.4273636,-122.1730031,-2.400000095367432,,18.217,,1677608952583,,,1043755806000000,2.138697,Bike
Fix,FLP,37.4273347,-122.1729881,-0.1999998986721038,0.0053663184,8.504,,1677608952406,,,1043755629832930,2.055895,Bike
Fix,GPS,37.4273849838,-122.1731207737,-1.025445648094134,0.0,10.865029,,1677608951999,0.6902135,,1043756246809000,11.291015,Bike
Fix,FLP,37.4273357,-122.1729905,-0.1999998986721038,0.016788669,8.48,,1677608952949,,,1043756172392683,2.0608423,Bike
Fix,GPS,37.4273852721,-122.1731212578,-0.783149338571134,0.0,10.968803,,1677608952999,0.6638646,,1043757246850000,11.245167,Bike
Fix,FLP,37.4273369,-122.172993,-0.1999998986721038,0.04003055,8.5,,1677608954034,,,1043757257520186,2.0707934,Bike
Fix,GPS,37.4273856725,-122.1731219827,-0.591366400550038,0.0,11.04529,,1677608953999,0.6704066,,1043758246519000,11.199651,Bike
Fix,FLP,37.4273381,-122.1729954,-0.1999998986721038,0.07215777,8.601,,1677608955119,,,1043758342643721,2.080708,Bike
Fix,GPS,37.427384186,-122.1731218679,-0.3870504657950036,0.0,11.241207,,1677608954999,0.7645429,,1043759246524000,11.185807,Bike
Fix,FLP,37.4273392,-122.1729974,-0.1999998986721038,0.098378725,8.657,,1677608955648,,,1043758872268416,2.0907114,Bike
Fix,GPS,37.4273847141,-122.1731245289,-0.3879552193392782,0.0,11.215592,,1677608955999,0.7325253,,1043760246725000,11.144453,Bike
Fix,FLP,37.42734,-122.1729996,-0.1999998986721038,0.038662314,8.741,,1677608956746,,,1043759970328535,2.1007013,Bike
Fix,NLP,37.4273799,-122.1730349,-0.1999998986721038,,21.691,,1677608957569,,,1043760793000000,2.3240302,Bike
Fix,FLP,37.4273392,-122.1729987,-0.1999998986721038,0.014523468,8.815,,1677608957289,,,1043760512889570,2.1431782,Bike
Fix,GPS,37.4273834195,-122.17312312,-0.2494084755596698,0.0,11.122059,,1677608956999,0.8024519,,1043761246492000,11.057433,Bike
Fix,FLP,37.4273398,-122.173001,-0.1999998986721038,0.026244082,8.694,,1677608957832,,,1043761055447431,2.164903,Bike
Fix,GPS,37.4273837965,-122.1731216537,-0.631881875294502,0.0,12.728625,,1677608957999,0.9100881,,1043762246581000,11.014178,Bike
Fix,FLP,37.4273405,-122.1730036,-0.1999998986721038,0.047360122,8.723,,1677608958917,,,1043762140571882,2.174903,Bike
Fix,GPS,37.4273847124,-122.1731206853,-0.6343468656479744,0.0,14.3356695,,1677608958999,1.0624981,,1043763246571000,10.951431,Bike
Fix,FLP,37.4273414,-122.1730061,-0.1999998986721038,0.07600972,8.711,,1677608960002,,,1043763225689802,2.1656418,Bike
Fix,GPS,37.4273851825,-122.1731205937,-0.3659444261108797,0.0,13.853436,,1677608959999,1.0656582,,1043764246592000,10.92229,Bike
Fix,FLP,37.4273425,-122.1730085,-0.1999998986721038,0.109050535,8.719,294.28992,1677608961087,,,1043764310813337,2.1715279,Bike
Fix,GPS,37.4273862302,-122.1731207221,-0.2244902954536972,0.0,13.852627,,1677608960999,1.1036948,,1043765246606000,10.883234,Bike
Fix,FLP,37.4273433,-122.1730107,-0.1999998986721038,0.13146771,8.798,294.74512,1677608962172,,,1043765395933943,2.1815279,Bike
Fix,NLP,37.4274027,-122.1730383,-0.1000000014901161,,17.363,,1677608962607,,,1043765830000000,2.1804552,Bike
Fix,FLP,37.4273437,-122.1730116,-0.1000000014901161,0.13438812,8.815,294.45178,1677608962714,,,1043765938493818,2.1079917,Bike
Fix,GPS,37.4273862744,-122.1731207181,-0.1606793448542035,0.0,14.332655,,1677608961999,1.18152,,1043766246723000,10.842387,Bike
Fix,GPS,37.4273863118,-122.1731207091,0.1226982585259678,0.0,11.839431,,1677608962999,0.90891385,,1043767246644000,10.798721,Bike
Fix,FLP,37.4273485,-122.1730178,-0.1000000014901161,0.26807693,8.926,308.12753,1677608963800,,,1043767023613203,2.1223156,Bike
Fix,GPS,37.4273863128,-122.1731207031,0.2651438979116148,0.0,12.131617,,1677608963999,0.9077485,,1043768246765000,10.793882,Bike
Fix,FLP,37.4273519,-122.1730218,-0.1000000014901161,0.32698423,8.847,311.55167,1677608964884,,,1043768108729109,2.1311667,Bike
Fix,GPS,37.4273863141,-122.173120709,0.4115469489263043,0.0,12.404489,,1677608964999,0.9118043,,1043769246701000,10.761602,Bike
Fix,FLP,37.4273543,-122.1730242,-0.1000000014901161,0.32867685,8.769,313.7866,1677608965969,,,1043769193850447,2.1390297,Bike
Fix,GPS,37.4273863057,-122.1731207122,0.5790876229848709,0.0,12.690004,,1677608965999,0.92467254,,1043770246650000,10.756121,Bike
Fix,FLP,37.4273559,-122.173026,-0.1000000014901161,0.30808955,8.626,314.83395,1677608967054,,,1043770278968367,2.14897,Bike
Fix,FLP,37.4273568,-122.1730269,-0.1999998986721038,0.2945529,8.503,315.29474,1677608967598,,,1043770821527021,2.0402687,Bike
Fix,NLP,37.4273878,-122.1730273,-0.1999998986721038,,20.472,,1677608967631,,,1043770854000000,1.9907588,Bike
Fix,NLP,37.4273503,-122.1730436,-0.1000000014901161,,26.358,,1677608972691,,,1043775915000000,1.938736,Bike
Fix,FLP,37.4273799,-122.1730946,-0.1000000014901161,0.9477872,12.69,295.51474,1677608972692,0.92467254,,1043775915000000,2.0385058,Bike
Fix,GPS,37.4273671443,-122.1731031109,1.1213520013802274,0.0,15.5153475,,1677608971999,20.0,,1043776246782000,10.87254,Bike
Fix,FLP,37.4273803,-122.1731031,-0.1000000014901161,0.9921167,16.123,293.0699,1677608973022,,,1043776246782000,1.9951794,Bike
Fix,GPS,37.4273631057,-122.1731014506,1.2609780753573885,0.0,15.485495,,1677608972999,0.9426062,,1043777246996000,10.819037,Bike
Fix,FLP,37.4273762,-122.1731006,3.3515933246605627,0.7181476,18.867,287.6925,1677608974022,,,1043777246996000,2.0627759,Bike
Fix,GPS,37.4273626401,-122.1731011352,1.312815892530007,0.0,15.428458,,1677608973999,0.8229745,,1043778246804000,10.786454,Bike
Fix,FLP,37.4273686,-122.1730907,3.3807029888259628,0.34932625,20.403,268.15237,1677608975023,,,1043778246804000,2.0227666,Bike
Fix,GPS,37.4273622557,-122.1731012034,1.362449993746052,0.0,15.302276,,1677608974999,0.82279783,,1043779246825000,10.753488,Bike
Fix,FLP,37.4273656,-122.1730885,-3.5950889354342834,0.24294041,20.678,250.48563,1677608976023,,,1043779246825000,2.0127106,Bike
Fix,FLP,37.4273593,-122.1730528,-3.5950889354342834,0.15010951,19.382,111.77733,1677608976259,,,1043779482000000,2.0127106,Bike
Fix,GPS,37.4273622172,-122.1731010941,1.4266842278504908,0.0,14.555494,,1677608975999,0.749772,,1043780246983000,10.734145,Bike
Fix,FLP,37.4273561,-122.1730424,4.151890245271293,0.08681773,18.324,,1677608976820,,,1043780044996626,2.0869336,Bike
Fix,FLP,37.4273544,-122.1730373,4.151890245271293,0.066733465,17.444,,1677608977354,,,1043780577000000,2.0869336,Bike
Fix,NLP,37.4272473,-122.1730533,-0.1000000014901161,,21.062,,1677608977755,,,1043780979000000,2.308956,Bike
Fix,GPS,37.4273622424,-122.1731011213,1.5891331081190052,0.0,13.906332,,1677608976999,0.83113587,,1043781247028000,10.707454,Bike
Fix,FLP,37.4273513,-122.173032,6.440330112879511,0.058890317,16.027,,1677608977907,,,1043781130100874,2.038808,Bike
Fix,FLP,37.4273498,-122.1730289,6.440330112879511,0.079742156,14.643,,1677608979001,,,1043782224000000,2.038808,Bike
Fix,GPS,37.4273628302,-122.1731005818,1.7639852941242045,0.0,13.451813,,1677608977999,0.83747166,,1043782246825000,10.69973,Bike
Fix,GPS,37.4273700936,-122.1730949369,1.6745746576723053,0.0,13.219926,,1677608978999,20.0,,1043783246853000,10.627876,Bike
Fix,FLP,37.4273483,-122.1730247,2.878702997524762,0.12033185,9.451,109.22094,1677608980077,,,1043783300328657,2.0680013,Bike
Fix,GPS,37.4273724001,-122.173088225,2.3974187323464062,0.0,12.511295,,1677608979999,20.0,,1043784246898000,10.520318,Bike
Fix,FLP,37.4273465,-122.1730226,-2.0222735922386725,0.062033333,7.804,,1677608981162,,,1043784385437482,2.0249617,Bike
Fix,FLP,37.4273441,-122.173023,-2.0222735922386725,0.026911201,7.773,,1677608981703,,,1043784927991011,2.0249617,Bike
Fix,GPS,37.4273761548,-122.1730773313,2.2714323919508472,0.0,11.701296,,1677608980999,20.0,,1043785246862000,10.50757,Bike
Fix,FLP,37.4273419,-122.1730235,-23.6104030415557,0.008700004,7.708,,1677608982246,,,1043785470545332,2.0800576,Bike
Fix,NLP,37.4272674,-122.1730099,-0.1000000014901161,,21.21,,1677608982773,,,1043785996000000,2.1753466,Bike
Fix,FLP,37.4273403,-122.1730231,-18.88849036920635,0.007665049,7.667,,1677608982790,,,1043786013099714,1.9802437,Bike
Fix,GPS,37.4273810341,-122.1730521749,2.3738419972754863,1.584131,10.18829,91.40555,1677608981999,0.47730747,25.0,1043786246917000,9.73796,Bike
Fix,FLP,37.4273345,-122.1730195,-18.88849036920635,0.49890688,7.57,84.24092,1677608983332,,,1043786555649518,2.030876,Bike
Fix,GPS,37.4273755467,-122.1730182477,3.637750023746713,2.0330858,9.401204,96.10654,1677608982999,0.44366607,25.0,1043787246946000,9.319117,Bike
Fix,FLP,37.4273321,-122.1730163,18.78406385069003,0.8164869,7.497,79.75551,1677608983875,,,1043787098207625,1.9935554,Bike
Fix,FLP,37.4273314,-122.1730118,18.78406385069003,1.1935074,8.124,86.02229,1677608984416,,,1043787640761519,1.9935554,Bike
Fix,GPS,37.4273724274,-122.1729812651,4.336662856868238,2.4737234,8.752672,121.835396,1677608983999,0.41677904,25.0,1043788246942000,9.003353,Bike
Fix,FLP,37.4273307,-122.1730078,-8.586660502295313,1.4428021,8.706,83.17906,1677608984960,,,1043788183315657,2.050961,Bike
Fix,FLP,37.427327,-122.1729931,-8.586660502295313,1.7599587,9.71,95.88547,1677608985502,,,1043788725878034,2.050961,Bike
Fix,GPS,37.4273620988,-122.1729482765,4.38394705166081,3.010144,8.207633,124.720985,1677608984999,0.46035156,25.0,1043789247009000,8.79805,Bike
Fix,FLP,37.4273239,-122.1729919,24.691851685160632,1.8810289,10.251,103.705536,1677608986045,,,1043789268423140,2.0333865,Bike
Fix,FLP,37.4273168,-122.1729713,24.691851685160632,2.1812332,10.625,109.06474,1677608986586,,,1043789810976851,2.0333865,Bike
Fix,GPS,37.4273510328,-122.1729100286,4.607206448632293,3.4144654,7.8745317,116.1655,1677608985999,0.4907756,25.0,1043790246921000,8.731697,Bike
Fix,FLP,37.4273144,-122.1729691,32.0861124742852,2.3698432,11.009,111.15643,1677608987129,,,1043790353530623,2.0713406,Bike
Fix,NLP,37.4271827,-122.1728663,-0.1999998986721038,,22.146,,1677608987707,,,1043790931000000,1.7020618,Bike
Fix,FLP,37.4273066,-122.1729505,30.8312299664488,2.7585387,11.443,111.15647,1677608987649,,,1043790872268416,1.8735969,Bike
Fix,GPS,37.4273392144,-122.1728717936,4.913617189624207,3.5968006,7.581991,101.96194,1677608986999,0.48380455,25.0,1043791246919000,8.74223,Bike
Fix,FLP,37.4273041,-122.1729179,23.06022414476223,3.1999636,12.518,106.558495,1677608988214,,,1043791438637983,1.8785963,Bike
Fix,FLP,37.4272992,-122.1728957,23.06022414476223,3.3379946,13.277,104.80596,1677608988757,,,1043791981191816,1.8785963,Bike
Fix,GPS,37.4273321905,-122.1728247263,4.547423903688403,3.7481768,7.385984,97.319,1677608987999,0.43105987,25.0,1043792246962000,8.683014,Bike
Fix,FLP,37.4272943,-122.1728741,-4.90690770644002,3.5141785,13.046,103.33298,1677608989299,,,1043792523749677,1.8859673,Bike
Fix,GPS,37.4273255055,-122.1727818651,5.428587536831343,3.22133,7.240118,89.481865,1677608988999,0.47274557,25.0,1043793246976000,8.669489,Bike
Fix,FLP,37.4272898,-122.1728534,-0.1999998986721038,3.5831118,12.652,103.333786,1677608989843,,,1043793066298933,1.7610346,Bike
Fix,GPS,37.4273100899,-122.1727494029,5.032639404071402,2.733869,7.043308,85.37953,1677608989999,0.5440948,25.0,1043794247077000,8.71908,Bike
Fix,FLP,37.4272839,-122.1728148,-0.1999998986721038,3.44494,12.105,102.554634,1677608990927,,,1043794151405378,1.7790927,Bike
Fix,FLP,37.4272789,-122.1727896,-0.1999998986721038,3.1856663,12.234,100.92292,1677608991469,,,1043794693958845,1.7790927,Bike
Fix,FLP,37.4272741,-122.1727736,-0.1999998986721038,3.0334222,12.361,102.78774,1677608992012,,,1043795236512007,1.7790927,Bike
Fix,GPS,37.4272718448,-122.1727294524,3.4508868459027178,1.7775578,6.7030864,98.35911,1677608990999,0.5228635,25.0,1043795246999000,8.747988,Bike
Fix,NLP,37.4271477,-122.1728337,-0.1999998986721038,,23.493,,1677608992735,,,1043795958000000,1.3909854,Bike
Fix,FLP,37.4272611,-122.1727444,-0.1999998986721038,2.5849624,12.363,104.77073,1677608992556,,,1043795779065291,1.7489125,Bike
Fix,GPS,37.4272316894,-122.1727216093,2.0283352734937585,1.6201833,6.422603,133.59198,1677608991999,0.5474628,25.0,1043796247036000,8.728447,Bike
Fix,FLP,37.4272498,-122.1727313,-0.1999998986721038,2.389168,12.083,105.86411,1677608993097,,,1043796321618452,1.6840663,Bike
Fix,FLP,37.4272372,-122.1727148,-0.1999998986721038,2.0634184,11.676,113.69844,1677608993640,,,1043796864172163,1.6840663,Bike
Fix,GPS,37.4271921019,-122.1727203937,0.1962801156377948,2.3973567,6.226939,166.00682,1677608992999,0.41766647,25.0,1043797247046000,8.470231,Bike
Fix,FLP,37.4272299,-122.1727084,-0.1999998986721038,1.9010229,11.389,117.95219,1677608994182,,,1043797406725142,1.6840663,Bike
Fix,FLP,37.4272093,-122.1727001,-0.1999998986721038,1.8982719,10.778,139.99152,1677608994725,,,1043797949278608,1.6302425,Bike
Fix,GPS,37.427151223,-122.1727177861,-0.709157119521113,3.3098423,6.0710535,167.32623,1677608993999,0.44156674,25.0,1043798247261000,8.301749,Bike
Fix,FLP,37.4271786,-122.1726941,13.730176999537182,2.4382463,10.291,156.05646,1677608995810,,,1043799034385664,1.7019752,Bike
Fix,GPS,37.4271096745,-122.1727071687,-0.4761404021018462,3.3650422,6.080144,159.99629,1677608994999,0.4184891,25.0,1043799247043000,8.185895,Bike
Fix,FLP,37.4271445,-122.1726852,30.774895840880102,2.8861485,9.753,156.81241,1677608996895,,,1043800119495283,1.756399,Bike
Fix,GPS,37.4270721336,-122.1726934384,0.3076199412388669,3.8307774,6.1276493,157.21286,1677608995999,0.39167702,25.0,1043800247078000,8.128009,Bike
Fix,FLP,37.4271068,-122.1726736,20.395500394367307,3.3101032,9.193,158.23933,1677608997953,,,1043801176000000,1.7311902,Bike
Fix,GPS,37.4270263514,-122.1726779419,1.899186665805526,3.9336686,6.0324106,160.48535,1677608996999,0.3456766,25.0,1043801247060000,7.9509354,Bike
Fix,FLP,37.4270729,-122.1726695,21.070327637230918,3.6413126,9.531,160.14937,1677608998476,,,1043801699000000,1.819266,Bike
Fix,FLP,37.4270473,-122.1726645,21.070327637230918,3.759293,9.788,160.92664,1677608999021,,,1043802244000000,1.819266,Bike
Fix,GPS,37.4269801873,-122.1726592464,2.711884425611203,4.131757,5.851553,162.60345,1677608997999,0.35135236,25.0,1043802247135000,7.7049475,Bike
Fix,FLP,37.4270008,-122.1726569,22.16046069519597,3.9431841,10.547,162.32669,1677608999608,,,1043802832247175,1.829266,Bike
Fix,GPS,37.4269360934,-122.1726436837,2.388453509019843,4.396621,5.67096,161.50954,1677608998999,0.32956535,25.0,1043803247142000,7.521705,Bike
Fix,FLP,37.4269931,-122.1726583,21.48563345233236,4.0135455,10.601,162.673,1677609000151,,,1043803374812117,1.7612102,Bike
Fix,FLP,37.4269463,-122.172647,21.48563345233236,4.300164,11.041,161.83452,1677609000693,,,1043803917365217,1.7612102,Bike
Fix,GPS,37.4268916439,-122.1726227838,2.602933976000865,5.093187,5.5707555,161.18463,1677608999999,0.33993858,25.0,1043804247354000,7.4914412,Bike
Fix,FLP,37.4268914,-122.1726279,9.388120081579142,5.037623,11.015,166.01253,1677609001779,,,1043805002469587,1.8492659,Bike
Fix,GPS,37.4268476165,-122.1726068656,1.9478915950406932,4.4178863,5.4233923,157.46729,1677609000999,0.3460134,25.0,1043805247170000,7.165304,Bike
Fix,FLP,37.426846,-122.1726125,-8.03128029013345,4.502811,10.74,160.65053,1677609002322,,,1043805545024824,1.8592559,Bike
Fix,GPS,37.4268106063,-122.1725802888,1.3853062617747502,4.4567966,5.048651,148.95013,1677609001999,0.09098706,25.0,1043806247176000,6.618899,Bike
Fix,FLP,37.4268323,-122.1726046,-1.9896978185651868,4.4197745,10.311,154.66185,1677609002864,,,1043806087576338,1.7911901,Bike
Fix,FLP,37.426807,-122.1725832,-1.9896978185651868,4.42613,10.1,148.16747,1677609003406,,,1043806630118696,1.7911901,Bike
Fix,GPS,37.4267776472,-122.1725356562,1.8094890701294248,4.3878016,4.5942426,131.93448,1677609002999,0.032641146,25.0,1043807247187000,6.3471627,Bike
Fix,FLP,37.4267945,-122.1725698,-0.1999998986721038,4.454142,9.779,142.0578,1677609003948,,,1043807172683638,1.8012002,Bike
Fix,GPS,37.4267521721,-122.1724980251,2.3403127323491564,4.036389,4.294718,126.56766,1677609003999,0.024905909,25.0,1043808247220000,6.105177,Bike
Fix,FLP,37.4267607,-122.1725171,2.996667762478449,4.485099,9.316,125.90083,1677609005034,,,1043808257786237,1.8892659,Bike
Fix,FLP,37.4267441,-122.1724865,2.996667762478449,4.1740737,8.934,125.88553,1677609005577,,,1043808800341902,1.8892659,Bike
Fix,FLP,37.4267303,-122.1724617,2.996667762478449,4.087934,8.536,125.17533,1677609006118,,,1043809342894819,1.8892659,Bike
Fix,GPS,37.4267290931,-122.1724613548,2.5914417144266806,3.6059456,4.248465,124.43267,1677609004999,0.25319487,25.0,1043809247394000,5.908387,Bike
Fix,FLP,37.4267164,-122.1724349,3.934316384859308,3.6998916,8.377,122.17272,1677609006649,,,1043809872268416,1.899416,Bike
Fix,GPS,37.4267107442,-122.1724300036,2.8887994497529563,3.669408,4.358211,124.95024,1677609005999,0.25411576,25.0,1043810247270000,5.7575464,Bike
Fix,FLP,37.4267108,-122.172422,3.6548035513409687,3.6503682,8.14,121.059326,1677609007205,,,1043810428000532,1.8311901,Bike
Fix,GPS,37.4266902665,-122.1723983772,3.512069172143241,3.9860902,4.3555737,118.90944,1677609006999,0.2635243,25.0,1043811247297000,5.572669,Bike
Fix,FLP,37.4266975,-122.1723993,12.434074144016716,3.6300645,7.851,123.67459,1677609007746,,,1043810970553267,1.919256,Bike
Fix,FLP,37.4266877,-122.1723846,12.434074144016716,3.9184957,7.793,117.89742,1677609008289,,,1043811513106306,1.919256,Bike
Fix,GPS,37.4266743608,-122.1723545822,3.1322293533256627,4.1810303,4.37543,103.227844,1677609007999,0.24471264,25.0,1043812247216000,5.3992577,Bike
Fix,FLP,37.4266804,-122.1723674,17.860625451112977,4.002289,7.603,112.445915,1677609008831,,,1043812055658857,1.9292759,Bike
Fix,FLP,37.4266746,-122.1723474,17.860625451112977,4.183216,7.566,105.49184,1677609009375,,,1043812598211531,1.9292759,Bike
Fix,GPS,37.42666672,-122.1723071199,2.422110866692873,3.7635922,4.502546,104.5677,1677609008999,0.25383458,25.0,1043813247467000,5.255554,Bike
Fix,FLP,37.4266693,-122.1723172,-2.0177704948236403,4.199414,7.489,99.865074,1677609009917,,,1043813140746626,1.8612002,Bike
Fix,FLP,37.4266659,-122.1722951,-2.0177704948236403,3.8435423,7.488,102.06878,1677609010457,,,1043813681000000,1.8612002,Bike
Fix,FLP,37.4266611,-122.1722705,-2.0177704948236403,3.7772655,7.497,103.281525,1677609010974,,,1043814198000000,1.8612002,Bike
Fix,GPS,37.4266554047,-122.1722661797,2.1044937053717816,3.8522348,4.277741,111.14201,1677609009999,0.06374611,25.0,1043814247283000,5.0053735,Bike
Fix,FLP,37.4266529,-122.1722432,-2.0177704948236403,3.7935247,7.488,111.139435,1677609011545,,,1043814768421675,1.8711902,Bike
Fix,GPS,37.4266345727,-122.1722370551,1.7981963531782943,3.6257944,4.1874824,132.9711,1677609010999,0.064358436,25.0,1043815247459000,4.8777075,Bike
Fix,FLP,37.4266438,-122.1722231,-0.1999998986721038,3.8060126,7.448,120.83967,1677609012087,,,1043815310973982,1.959276,Bike
Fix,FLP,37.426624,-122.1722084,-0.1999998986721038,3.6688552,7.392,138.56091,1677609012630,,,1043815853524946,1.959276,Bike
Fix,GPS,37.426614006,-122.1722097102,1.7986647166884595,3.5401976,4.784344,149.42291,1677609011999,0.36860058,25.0,1043816247319000,4.952553,Bike
Fix,FLP,37.4266157,-122.172208,2.0591231333677023,3.6945198,7.398,147.59663,1677609013172,,,1043816396081526,1.9692559,Bike
Fix,GPS,37.4265868735,-122.1721940625,1.6671610284453988,2.0458388,5.379463,166.69121,1677609012999,0.39165923,10.156442,1043817247387000,5.006963,Bike
Fix,FLP,37.4265899,-122.1721915,-0.1999998986721038,3.5773735,7.53,159.80148,1677609013715,,,1043816938630903,1.9011902,Bike
Fix,GPS,37.4265701053,-122.1721904647,1.80335963241939,0.83296657,5.7584777,166.69121,1677609013999,0.31705093,10.666424,1043818247595000,5.126413,Bike
Fix,FLP,37.4265644,-122.1721849,-0.1999998986721038,2.1619382,7.834,177.0035,1677609014799,,,1043818023738875,1.9111902,Bike
Fix,GPS,37.4265577288,-122.1721908327,1.5126929063887602,0.74091965,5.9662757,166.69121,1677609014999,0.30287585,25.813217,1043819247443000,5.251104,Bike
Fix,FLP,37.4265495,-122.1721854,-0.1999998986721038,0.9291996,8.281,158.65695,1677609015885,,,1043819108839460,1.9992859,Bike
Fix,FLP,37.4265474,-122.1721861,-0.1999998986721038,0.75463843,8.567,162.58456,1677609016428,,,1043819651390913,1.9992859,Bike
Fix,GPS,37.4265476581,-122.1721825701,1.8749138684876585,0.8541666,6.072402,166.69121,1677609015999,0.31438908,66.03496,1043820247410000,5.415494,Bike
Fix,FLP,37.4265455,-122.172186,-0.1999998986721038,0.74771756,8.715,155.92119,1677609016970,,,1043820193942671,2.009266,Bike
Fix,NLP,37.426897,-122.1719105,0.2999999821186065,,27.673,,1677609018000,,,1043821224000000,1.8535898,Bike
Fix,FLP,37.4265374,-122.1721761,5.696626768094816,0.81589794,9.026,110.072426,1677609018056,,,1043821279046492,1.601275,Bike
Fix,GPS,37.4265529354,-122.17217667,1.964730392498802,1.3590481,6.0548573,98.02392,1677609016999,0.29234976,12.092197,1043821247390000,5.562261,Bike
Fix,GPS,37.4265659728,-122.1721507219,2.370759852891027,2.7353961,5.580132,84.68126,1677609017999,0.05965187,10.0,1043822247424000,5.38615,Bike
Fix,FLP,37.4265405,-122.1721576,22.676276635263136,1.3204637,8.839,124.00649,1677609019141,,,1043822364149763,1.6130527,Bike
Fix,GPS,37.4265678127,-122.1721189066,2.266065447225164,2.9175053,5.30536,88.406075,1677609018999,0.055371556,10.0,1043823247372000,5.2874002,Bike
Fix,FLP,37.4265378,-122.1721385,-2.292255239240859,2.433582,8.609,127.84734,1677609019649,,,1043822872268416,1.7701842,Bike
Fix,FLP,37.4265438,-122.1721113,-2.292255239240859,2.8420756,8.55,95.824715,1677609020768,,,1043823991803633,1.7701842,Bike
Fix,GPS,37.4265698532,-122.1720812835,2.148441662700943,3.1437368,5.0585966,95.53055,1677609019999,0.054490075,10.0,1043824247422000,5.2015543,Bike
Fix,FLP,37.4265585,-122.1720786,-4.749253279656465,3.1114635,8.5,93.95093,1677609021310,,,1043824534355146,1.7677792,Bike
Fix,GPS,37.4265697068,-122.1720438759,2.194747355711498,3.6158721,5.4797983,101.033646,1677609020999,0.3271816,10.0,1043825247466000,5.230234,Bike
Fix,FLP,37.4265619,-122.1720589,-4.0870939267356725,3.1364074,8.256,95.596565,1677609021853,,,1043825076906538,1.7069296,Bike
Fix,FLP,37.4265633,-122.1720292,-4.00405847185263,3.5387692,8.494,100.92856,1677609022396,,,1043825619458845,1.7314049,Bike
Fix,GPS,37.4265631683,-122.1720033912,2.30785158517679,3.5329037,5.821996,105.79336,1677609021999,0.3557159,10.0,1043826247509000,5.2132387,Bike
Fix,FLP,37.4265622,-122.1720207,6.819006412795002,3.568747,8.941,105.09978,1677609022938,,,1043826162011091,1.7414049,Bike
Fix,FLP,37.4265573,-122.1719902,6.819006412795002,3.530626,9.04,106.442955,1677609023481,,,1043826704564070,1.7414049,Bike
Fix,GPS,37.4265564495,-122.1719678817,2.252680780965029,3.6211114,6.3326464,102.20278,1677609022999,0.38242254,10.0,1043827247483000,5.2692223,Bike
Fix,FLP,37.4265556,-122.1719798,28.74341601943689,3.5341597,9.271,106.51481,1677609024024,,,1043827247116987,1.7269295,Bike
Fix,FLP,37.4265512,-122.1719559,28.74341601943689,3.6181056,9.606,102.19071,1677609024565,,,1043827789669966,1.7269295,Bike
Fix,GPS,37.426552693,-122.1719275491,2.6141050236895764,3.6107848,6.723394,99.6451,1677609023999,0.38712776,10.0,1043828247498000,5.339741,Bike
Fix,FLP,37.4265494,-122.1719405,0.2999999821186065,3.6225908,9.914,101.26349,1677609025108,,,1043828332211409,1.7369496,Bike
Fix,FLP,37.4265464,-122.1719063,0.2999999821186065,3.608375,10.29,100.73909,1677609025649,,,1043828872268416,1.7369496,Bike
Fix,GPS,37.4265472489,-122.1718798819,3.1061719565347667,3.4645681,7.074942,107.43404,1677609024999,0.43715036,10.0,1043829247534000,5.474869,Bike
Fix,FLP,37.4265433,-122.1718758,0.2999999821186065,3.4696667,10.525,105.793846,1677609026727,,,1043829950000000,1.7471097,Bike
Fix,GPS,37.4265352435,-122.1718297295,2.9647829708781206,3.4799228,7.3801246,107.70869,1677609025999,0.38348457,10.0,1043830247535000,5.6487365,Bike
Fix,FLP,37.4265386,-122.1718451,-2.350552208573564,3.4801803,11.213,106.78957,1677609027279,,,1043830502425581,1.781405,Bike
Fix,FLP,37.4265336,-122.1718174,-2.350552208573564,3.486083,11.566,104.83472,1677609027820,,,1043831044990645,1.781405,Bike
Fix,GPS,37.4265229972,-122.1717934183,3.299594538410145,3.9350815,7.489175,98.251945,1677609026999,0.47346112,10.0,1043831247571000,5.7403736,Bike
Fix,FLP,37.4265254,-122.1717772,0.2999999821186065,3.897052,11.944,96.06617,1677609028906,,,1043832130101912,1.791395,Bike
Fix,GPS,37.42651751,-122.1717474501,3.827405126555071,3.9221306,7.5267572,97.3047,1677609027999,0.50207454,10.0,1043832247549000,5.832896,Bike
Fix,FLP,37.4265202,-122.1717412,-0.1999998986721038,3.919719,12.365,96.09828,1677609029449,,,1043832672651472,1.7769296,Bike
Fix,GPS,37.4265174579,-122.1717035556,4.29903868323365,3.8182318,7.516158,98.28871,1677609028999,0.4186331,10.0,1043833247605000,5.937949,Bike
Fix,FLP,37.4265176,-122.1717289,-0.1999998986721038,3.9144812,12.522,98.16636,1677609029992,,,1043833215204939,1.7869096,Bike
Fix,FLP,37.4265152,-122.1717026,-0.1999998986721038,3.8315558,12.616,99.56267,1677609030534,,,1043833758000000,1.7869096,Bike
Fix,GPS,37.4265112777,-122.1716619013,4.6842914004556055,3.8776145,7.7830515,97.437164,1677609029999,0.52980494,10.0,1043834247620000,6.040298,Bike
Fix,FLP,37.4265127,-122.1716804,-1.9752438009571591,3.8170366,12.726,100.58742,1677609031077,,,1043834300300154,1.7969196,Bike
Fix,FLP,37.4265101,-122.1716531,-1.9752438009571591,3.8734844,12.926,99.034966,1677609031598,,,1043834821000000,1.7969196,Bike
Fix,GPS,37.4265041753,-122.1716092587,5.404909433411202,3.8530772,7.524411,101.0782,1677609030999,0.40042126,10.0,1043835247631000,6.105888,Bike
Fix,FLP,37.4265083,-122.1716336,0.2999999821186065,3.872447,13.178,100.10739,1677609032161,,,1043835385415388,1.8069196,Bike
Fix,FLP,37.426503,-122.1715945,0.2999999821186065,3.8525813,13.267,101.337105,1677609032704,,,1043835927970930,1.8069196,Bike
Fix,GPS,37.4264984266,-122.1715670019,5.292062017823629,3.2542622,7.845832,102.33057,1677609031999,0.48489317,10.0,1043836247605000,6.249951,Bike
Fix,FLP,37.4264995,-122.1715731,0.2999999821186065,3.3723018,13.367,101.604645,1677609033246,,,1043836470525923,1.8414049,Bike
Fix,FLP,37.4264958,-122.1715487,0.2999999821186065,3.2729661,13.448,99.50371,1677609033790,,,1043837013065046,1.8414049,Bike
Fix,GPS,37.4264757932,-122.1715202473,5.282874449618047,2.7367346,7.691437,103.907646,1677609032999,0.3494867,10.0,1043837247709000,6.4458346,Bike
Fix,GPS,37.426459906,-122.1714824753,5.044896519527739,1.8985232,7.5513854,112.05273,1677609033999,0.31819367,10.0,1043838247615000,6.5799494,Bike
Fix,FLP,37.4264857,-122.1715092,2.3143850867260447,2.7888122,13.499,102.89553,1677609034875,,,1043838098181990,1.8369195,Bike
Fix,GPS,37.4264405581,-122.1714565417,4.596611084305777,1.5025154,7.4450073,127.0432,1677609034999,0.42834544,16.28314,1043839247689000,6.705352,Bike
Fix,FLP,37.4264691,-122.1714745,0.2999999821186065,1.9708722,13.589,121.689926,1677609035959,,,1043839183286665,1.8469296,Bike
Fix,FLP,37.4264501,-122.1714566,0.2999999821186065,1.544296,13.393,137.80249,1677609036502,,,1043839725841353,1.8469296,Bike
Fix,GPS,37.4264098462,-122.1714334997,4.627448277184942,1.5209239,7.2626915,167.34113,1677609035999,0.42104134,15.31329,1043840247694000,6.8333693,Bike
Fix,FLP,37.4264432,-122.1714536,3.381258973808933,1.4718506,13.269,155.57112,1677609037045,,,1043840268390486,1.8569496,Bike
Fix,FLP,37.4264151,-122.171443,3.381258973808933,1.5058486,13.167,189.17421,1677609038129,,,1043841353497481,1.8569496,Bike
Fix,GPS,37.4263810233,-122.1714304701,4.102974278173635,2.280341,7.24606,195.39333,1677609036999,0.36032468,10.0,1043841247713000,6.963647,Bike
Fix,GPS,37.4263470257,-122.1714460594,3.83692426810762,3.4633095,7.154072,201.68295,1677609037999,0.36162463,10.0,1043842247731000,6.9915624,Bike
Fix,FLP,37.4263865,-122.1714404,13.726231334846656,2.21089,12.828,185.59787,1677609038649,,,1043841872268416,1.9039,Bike
Fix,FLP,37.4263714,-122.1714434,13.726231334846656,3.0029917,12.545,194.28098,1677609039226,,,1043842449000000,1.9039,Bike
Fix,FLP,37.4263403,-122.1714533,13.726231334846656,3.434625,12.311,200.21893,1677609039757,,,1043842981148970,1.9039,Bike
Fix,GPS,37.4263069699,-122.1714653207,3.699551871326958,3.4259186,7.1004195,202.6029,1677609038999,0.44848746,10.0,1043843247701000,7.0596232,Bike
Fix,FLP,37.4263027,-122.17147,23.567512814388376,3.4335108,12.151,200.14235,1677609040843,,,1043844066254377,1.9138801,Bike
Fix,GPS,37.4262652114,-122.1714849703,3.704099871371762,3.5729406,6.930034,204.08807,1677609039999,0.46553132,10.0,1043844247858000,7.10508,Bike
Fix,FLP,37.4262772,-122.1714807,21.519158824233504,3.5346408,12.056,202.95808,1677609041385,,,1043844608802778,1.9737717,Bike
Fix,FLP,37.4262608,-122.1714884,21.519158824233504,3.57126,12.034,202.50276,1677609041927,,,1043845151353804,1.9737717,Bike
Fix,GPS,37.4262180399,-122.1715048545,3.1584772584031997,4.9263334,6.6678686,198.1984,1677609040999,0.3459882,10.0,1043845247719000,7.156013,Bike
Fix,FLP,37.426224,-122.1715029,24.22646935464122,4.718251,11.922,197.41321,1677609042470,,,1043845693905378,1.9837717,Bike
Fix,GPS,37.4261660895,-122.171521651,2.5537858676734366,5.3313518,6.3830867,192.65985,1677609041999,0.32515794,10.0,1043846247716000,7.136465,Bike
Fix,FLP,37.4261887,-122.1715144,25.874109691640715,5.3243217,11.444,192.29025,1677609043024,0.32515794,10.0,1043846247716000,1.9937717,Bike
Fix,GPS,37.4261126716,-122.1715355491,2.8838760689519862,5.208366,6.1743717,193.07889,1677609042999,0.3211632,10.0,1043847247890000,7.1511965,Bike
Fix,FLP,37.4261242,-122.1715323,24.772233846392336,5.2090693,10.831,192.98865,1677609044023,0.3211632,10.0,1043847247890000,2.0037718,Bike
Fix,GPS,37.4260623706,-122.1715469867,4.455443177825691,5.245024,6.014926,191.20369,1677609043999,0.32024017,10.0,1043848247811000,7.0201626,Bike
Fix,FLP,37.4260685,-122.1715464,20.38577683534728,5.245818,10.132,191.0679,1677609045023,0.32024017,10.0,1043848247811000,1.96387,Bike
Fix,GPS,37.4260160135,-122.171555583,4.036110708388989,5.0396814,6.0499334,191.82008,1677609044999,0.35271662,10.0,1043849247775000,6.9248276,Bike
Fix,FLP,37.4260184,-122.1715564,9.343453061712784,5.0413513,9.58,191.01256,1677609046024,0.35271662,10.0,1043849247775000,1.97388,Bike
Fix,GPS,37.4259720216,-122.1715708068,3.497249034276867,4.4227552,6.1286216,195.82256,1677609045999,0.30243447,10.0,1043850247790000,6.891123,Bike
Fix,FLP,37.4259723,-122.1715673,2.498265079197456,4.9182014,7.626,193.68518,1677609047024,,,1043850247790000,2.0337818,Bike
Fix,FLP,37.4259589,-122.171573,2.498265079197456,2.7191315,7.986,322.39447,1677609047583,,,1043850807450056,2.0337818,Bike
Fix,GPS,37.4259402061,-122.1715817815,3.113197995517712,3.8302479,5.525643,188.27171,1677609046999,0.07775238,10.0,1043851247994000,6.5016627,Bike
Fix,FLP,37.4259688,-122.1715771,0.2999999821186065,3.8977716,8.387,330.79367,1677609048127,,,1043851350000349,2.0437717,Bike
Fix,GPS,37.4259066546,-122.171589036,2.94846789688729,2.660316,5.738179,185.19028,1677609047999,0.27371144,10.0,1043852248037000,6.477149,Bike
Fix,FLP,37.4259477,-122.1715901,0.2999999821186065,3.300861,8.915,193.83102,1677609049212,,,1043852435102217,2.0537517,Bike
Fix,FLP,37.4258951,-122.1715936,0.2999999821186065,2.7905545,9.454,179.33711,1677609049754,,,1043852977654035,2.0537517,Bike
Fix,GPS,37.4258885153,-122.171592689,2.4279825766147414,2.3367546,6.0705633,160.63329,1677609048999,0.37519997,10.0,1043853248706000,6.504033,Bike
Fix,FLP,37.4258685,-122.1715874,4.48183687834592,2.3583846,9.981,163.40154,1677609050838,,,1043854062754255,2.0638218,Bike
Fix,GPS,37.4258733723,-122.1715814921,1.97178948385527,2.2113557,6.423917,122.88038,1677609049999,0.53041923,12.751596,1043854247859000,6.567045,Bike
Fix,FLP,37.4258524,-122.1715676,6.70088375403002,2.1551843,10.154,111.869255,1677609051923,,,1043855147851790,2.0738018,Bike
Fix,GPS,37.4258584557,-122.1715430961,1.4058904265708414,4.5037503,6.6940713,108.55003,1677609050999,0.37447786,10.0,1043855248466000,6.518514,Bike
Fix,FLP,37.4258477,-122.1715292,16.458373726832395,4.178499,10.448,105.10392,1677609052998,,,1043856221000000,2.03388,Bike
Fix,GPS,37.4258460188,-122.1714811608,1.7134021212827433,4.763042,6.493869,108.50481,1677609051999,0.32320142,10.0,1043856247887000,6.3283205,Bike
Fix,FLP,37.4258397,-122.1714765,16.522826533164956,4.69811,10.586,105.24515,1677609053551,,,1043856775501691,2.04388,Bike
Fix,GPS,37.4258327642,-122.171422111,1.708130891059102,5.0297327,6.2327824,110.111046,1677609052999,0.2872609,10.0,1043857247879000,6.160825,Bike
Fix,FLP,37.4258375,-122.1714594,14.395433587046558,4.753423,10.696,104.51262,1677609054094,,,1043857318054304,2.1037717,Bike
Fix,FLP,37.4258272,-122.1714091,14.395433587046558,4.937266,10.939,109.18354,1677609054637,,,1043857860589949,2.1037717,Bike
Fix,GPS,37.4258254785,-122.1713691491,3.304952069717677,5.202411,5.663886,105.65981,1677609053999,0.039879616,10.0,1043858247951000,5.7593293,Bike
Fix,FLP,37.4258257,-122.1713827,5.55195365968898,5.2041283,10.499,105.2044,1677609055024,0.039879616,10.0,1043858247951000,2.1137617,Bike
Fix,GPS,37.4258176729,-122.1713175302,3.0859786137068634,5.0864263,5.271342,106.26172,1677609054999,0.037912145,10.0,1043859247898000,5.5515823,Bike
Fix,FLP,37.4258163,-122.1713203,0.2999999821186065,5.086379,10.218,105.98214,1677609056024,0.037912145,10.0,1043859247898000,2.1237917,Bike
Fix,GPS,37.4258058255,-122.1712601421,2.963374032779922,5.044934,5.081959,103.57694,1677609055999,0.034114998,10.0,1043860247972000,5.357797,Bike
Fix,FLP,37.4258052,-122.1712616,0.2999999821186065,5.0468388,9.69,103.095764,1677609057023,0.034114998,10.0,1043860247972000,2.1337616,Bike
Fix,NLP,37.4257527,-122.1711744,-0.3999999463558197,,16.365,,1677609057541,,,1043860765000000,1.4622309,Bike
Fix,FLP,37.4258019,-122.1712424,-0.3999999463558197,5.0445213,9.162,103.03816,1677609057541,0.034114998,10.0,1043860765000000,1.557572,Bike
Fix,GPS,37.4257953863,-122.1712026861,2.91425502947482,4.9900103,4.768175,103.702774,1677609056999,0.03581781,10.0,1043861248022000,5.1787663,Bike
Fix,FLP,37.425796,-122.1712074,-0.3999999463558197,4.99084,7.92,103.01698,1677609058024,0.03581781,10.0,1043861248022000,1.615097,Bike
Fix,GPS,37.4257833654,-122.1711481172,2.7495203398614114,4.9500637,4.8378344,106.29501,1677609057999,0.038813442,10.0,1043862248023000,5.0235343,Bike
Fix,FLP,37.425784,-122.1711499,-0.3999999463558197,5.0027347,6.725,105.12393,1677609059025,,,1043862248023000,1.6455429,Bike
Fix,GPS,37.4257718037,-122.171094989,2.6027073087068437,4.8443646,4.8382883,107.89541,1677609058999,0.048685156,10.0,1043863247953000,4.876765,Bike
Fix,FLP,37.4257705,-122.1711115,0.2999999821186065,4.937743,7.235,136.78821,1677609060143,,,1043863367478560,1.6755788,Bike
Fix,GPS,37.4257580588,-122.1710430768,2.727060840214371,4.7710457,5.2224884,107.17825,1677609059999,0.045768708,10.0,1043864248045000,4.76747,Bike
Fix,FLP,37.4257554,-122.1710653,-0.3999999463558197,4.96688,7.75,115.3311,1677609060686,,,1043863910027144,1.6676527,Bike
Fix,GPS,37.4257504092,-122.1709880371,2.8179786218079137,4.850324,5.091318,101.208435,1677609060999,0.0780609,10.0,1043865248200000,4.671087,Bike
Fix,FLP,37.425746,-122.1710113,0.2999999821186065,4.81688,8.347,108.35251,1677609061772,,,1043864995124983,1.6776727,Bike
Fix,FLP,37.4257426,-122.1709767,0.2999999821186065,4.8596244,8.466,102.86338,1677609062313,,,1043865537673872,1.6776727,Bike
Fix,GPS,37.4257418007,-122.1709390168,2.2939150752846813,4.7043095,6.6924486,101.74418,1677609061999,0.4511678,10.0,1043866248019000,4.204584,Bike
Fix,FLP,37.4257422,-122.1709569,0.2999999821186065,4.8650365,8.536,100.78867,1677609062857,,,1043866080221968,1.6877027,Bike
Fix,FLP,37.4257381,-122.1709296,0.2999999821186065,4.7396936,9.413,100.50673,1677609063399,,,1043866622770369,1.6877027,Bike
Fix,GPS,37.4257328443,-122.1708825248,2.6636343719470403,4.7201643,5.164909,100.82211,1677609062999,0.25459218,10.0,1043867248058000,3.9148839,Bike
Fix,FLP,37.4257354,-122.170904,2.3291947648090314,4.716661,10.033,97.8862,1677609063942,,,1043867165318403,1.6976627,Bike
Fix,FLP,37.4257305,-122.170867,2.3291947648090314,4.715396,9.831,99.12792,1677609064484,,,1043867707866499,1.6976627,Bike
Fix,GPS,37.4257283042,-122.1708248352,3.957502430396369,5.0376472,5.3445573,94.45364,1677609063999,0.2599791,10.0,1043868248121000,3.6946678,Bike
Fix,FLP,37.4257269,-122.1708422,6.9071393637607805,4.7203903,9.351,100.05903,1677609065027,,,1043868250402632,1.7076827,Bike
Fix,FLP,37.4257259,-122.1708076,6.9071393637607805,5.0029273,9.35,95.11965,1677609065562,,,1043868786000000,1.7076827,Bike
Fix,GPS,37.4257229959,-122.1707675591,2.926182834644054,5.7930126,5.4165907,102.31882,1677609064999,0.24917588,10.0,1043869248096000,3.577601,Bike
Fix,FLP,37.4257227,-122.1707726,6.9071393637607805,5.7791834,9.055,101.62437,1677609066024,0.24917588,10.0,1043869248096000,1.7176627,Bike
Fix,GPS,37.4257153183,-122.1707002096,4.260583370405975,6.124364,5.452226,105.98935,1677609065999,0.27902892,10.0,1043870248127000,3.5081244,Bike
Fix,FLP,37.4257142,-122.1707031,12.70152207765609,6.117428,8.728,104.82139,1677609067024,0.27902892,10.0,1043870248127000,1.7529123,Bike
Fix,GPS,37.4256983865,-122.1706329776,3.813615413339776,6.308469,5.487364,104.28722,1677609066999,0.29988757,10.0,1043871248409000,3.4781682,Bike
Fix,FLP,37.425699,-122.1706341,12.741914951117945,6.307524,8.33,104.022644,1677609068024,0.29988757,10.0,1043871248409000,1.7629123,Bike
Fix,GPS,37.4256812394,-122.1705598618,4.4224535520653365,6.3810854,5.662059,105.32435,1677609067999,0.298677,10.0,1043872248111000,3.4631548,Bike
Fix,FLP,37.4256826,-122.1705617,9.357763815045477,6.3793178,6.844,104.952255,1677609069024,0.298677,10.0,1043872248111000,1.7729023,Bike
Fix,GPS,37.4256590214,-122.1704889995,3.5220448306584213,6.411844,5.0077415,107.83907,1677609068999,0.04871833,10.0,1043873248176000,3.1337132,Bike
Fix,FLP,37.4256616,-122.1704899,-0.3999999463558197,6.409119,6.061,106.914925,1677609070025,0.04871833,10.0,1043873248176000,1.7576427,Bike
Fix,GPS,37.4256381122,-122.1704189604,3.492024401763707,6.274543,4.6880803,109.61554,1677609069999,0.035797264,10.0,1043874248282000,3.0,Bike
Fix,FLP,37.4256402,-122.1704194,-0.3999999463558197,6.2733397,5.259,108.933846,1677609071025,0.035797264,10.0,1043874248282000,1.7676526,Bike
Fix,GPS,37.4256216537,-122.1703505387,3.151535080043094,6.1623144,4.4311433,107.812225,1677609070999,0.037316516,10.0,1043875248420000,3.0,Bike
Fix,FLP,37.4256218,-122.170351,-0.3999999463558197,6.165684,5.055,107.095894,1677609072025,0.037316516,10.0,1043875248420000,1.7776527,Bike
Fix,GPS,37.4256166067,-122.1702789918,4.323257215712275,5.9303374,4.2283535,97.434395,1677609071999,0.07957724,10.0,1043876248346000,3.0,Bike
Fix,FLP,37.4256133,-122.1702807,-0.3999999463558197,5.936482,4.917,97.4668,1677609073025,0.07957724,10.0,1043876248346000,1.7876827,Bike
Fix,GPS,37.4256132306,-122.1702082565,5.251484828600256,5.8944364,4.8059883,86.85925,1677609072999,0.32751182,10.0,1043877248209000,3.0,Bike
Fix,FLP,37.4256112,-122.1702101,6.739547575713878,5.890975,4.632,86.51991,1677609074025,0.32751182,10.0,1043877248209000,1.7976627,Bike
Fix,GPS,37.425619948,-122.1701405369,5.359003104563504,5.850918,4.3701906,83.73842,1677609073999,0.04311774,10.0,1043878248184000,3.0,Bike
Fix,FLP,37.4256182,-122.1701415,10.007675764810898,5.8491426,4.504,83.1481,1677609075024,0.04311774,10.0,1043878248184000,1.8076627,Bike
Fix,GPS,37.4256139632,-122.170076877,4.912139866778389,5.7683773,4.19742,93.54917,1677609074999,0.04059477,10.0,1043879248196000,3.0,Bike
Fix,FLP,37.4256172,-122.1700765,7.0895524947526845,5.7662997,4.453,92.573944,1677609076025,0.04059477,10.0,1043879248196000,1.8176427,Bike
Fix,GPS,37.4256018798,-122.170011847,4.880793475849849,5.6745977,3.8703668,101.174194,1677609075999,0.03310971,10.0,1043880248233000,3.0,Bike
Fix,FLP,37.4256058,-122.1700116,-2.427620951874797,5.6687846,4.322,100.67522,1677609077024,0.03310971,10.0,1043880248233000,1.8529223,Bike
Fix,GPS,37.4255863711,-122.1699515964,4.045743368989323,5.5373917,3.756604,106.15073,1677609076999,0.034551244,10.0,1043881248242000,3.0,Bike
Fix,FLP,37.4255895,-122.1699506,-7.164723545291087,5.5335164,4.233,105.8271,1677609078025,0.034551244,10.0,1043881248242000,1.8629223,Bike
Fix,GPS,37.4255725861,-122.1698931421,3.860189585539764,5.4019055,4.053844,105.37662,1677609077999,0.032911737,10.0,1043882248450000,3.0,Bike
Fix,FLP,37.4255736,-122.1698922,-7.697655906434967,5.403348,4.084,105.04453,1677609079024,0.032911737,10.0,1043882248450000,1.8476627,Bike
Fix,GPS,37.4255640498,-122.1698331287,4.207833942436125,5.348576,3.7565885,101.16244,1677609078999,0.031829283,10.0,1043883248272000,3.0,Bike
Fix,FLP,37.4255631,-122.1698331,-0.3999999463558197,5.351221,3.99,101.14754,1677609080024,0.031829283,10.0,1043883248272000,1.8576727,Bike
Fix,GPS,37.4255566937,-122.1697752176,4.266916843496377,5.0829062,4.064869,99.65341,1677609079999,0.2114042,10.0,1043884248557000,3.0,Bike
Fix,FLP,37.4255558,-122.1697747,3.264810471547701,5.084842,3.963,99.08753,1677609081024,0.2114042,10.0,1043884248557000,1.8676727,Bike
Fix,GPS,37.4255557844,-122.1697174332,4.588792036627943,5.1420155,3.8714933,94.626274,1677609080999,0.0329184,10.0,1043885248314000,3.0,Bike
Fix,FLP,37.4255536,-122.1697175,5.2303492730733865,5.1430826,3.963,94.17053,1677609082025,0.0329184,10.0,1043885248314000,1.8776526,Bike
Fix,GPS,37.4255492545,-122.1696648668,4.580035348407934,5.016395,3.8714993,97.49132,1677609081999,0.03335534,10.0,1043886248319000,3.0,Bike
Fix,FLP,37.4255496,-122.1696631,5.195100400160975,5.015521,3.963,96.90964,1677609083024,0.03335534,10.0,1043886248319000,1.8876526,Bike
Fix,GPS,37.4255372868,-122.1696123817,4.269683339280138,4.680825,3.7583709,105.53441,1677609082999,0.073439986,10.0,1043887248352000,3.0,Bike
Fix,FLP,37.4255394,-122.1696106,2.7025093582306106,4.6775937,3.953,104.799324,1677609084024,0.073439986,10.0,1043887248352000,1.8976527,Bike
Fix,NLP,37.4253491,-122.1694818,-1.3000000715255735,,27.159,,1677609085060,,,1043888284000000,1.0,Bike
Fix,GPS,37.4255268868,-122.1695610268,3.9684244866318,3.637635,4.136772,105.64253,1677609083999,0.30743235,10.0,1043888248341000,3.0,Bike
Fix,FLP,37.4255321,-122.1695891,2.221442182158132,1.8461821,8.783,101.28552,1677609085061,,,1043888284000000,1.6155593,Bike
Fix,FLP,37.4255296,-122.1695711,2.221442182158132,3.0178385,11.797,101.69849,1677609085571,,,1043888794838606,1.6155593,Bike
Fix,GPS,37.4255189893,-122.1695214069,4.257956989997975,3.1557734,4.7746825,109.561325,1677609084999,0.31999093,10.0,1043889248364000,3.0,Bike
Fix,FLP,37.4255255,-122.1695507,-0.3999999463558197,3.476466,11.33,108.22466,1677609086113,,,1043889337384260,1.6428967,Bike
Fix,FLP,37.4255174,-122.1695189,-0.3999999463558197,3.264929,11.343,112.76169,1677609086623,,,1043889846000000,1.6428967,Bike
Fix,GPS,37.425507864,-122.1694881988,3.207610061246311,2.2953203,5.199196,114.78763,1677609085999,0.31116298,10.0,1043890248422000,3.0,Bike
Fix,FLP,37.4255102,-122.1694949,-1.3000000715255735,3.195741,11.77,112.87173,1677609087199,,,1043890422474898,1.5795536,Bike
Fix,GPS,37.4254952263,-122.1694619498,2.1433056709191685,1.6590681,5.479059,132.49199,1677609086999,0.29076064,10.0,1043891248503000,3.0743196,Bike
Fix,FLP,37.4254997,-122.1694637,-6.554503628532464,2.3994703,11.912,115.86903,1677609087741,,,1043890965021345,1.5549808,Bike
Fix,FLP,37.4254929,-122.1694552,-6.554503628532464,1.7433565,11.739,131.54959,1677609088283,,,1043891507564985,1.5549808,Bike
Fix,FLP,37.4254846,-122.1694489,-6.554503628532464,1.6639124,11.599,143.6951,1677609088826,,,1043892050109724,1.5549808,Bike
Fix,GPS,37.4254806798,-122.1694475563,1.4003824361416577,1.4111537,5.565838,163.99745,1677609087999,0.27445844,10.154805,1043892248426000,3.3352993,Bike
Fix,GPS,37.4254668367,-122.1694416702,1.9718905376352809,1.0629305,5.9937325,195.1102,1677609088999,0.43988392,18.41174,1043893248612000,3.4693773,Bike
Fix,FLP,37.4254687,-122.1694392,7.004609324025751,1.4117157,11.079,173.29816,1677609089912,,,1043893135199690,1.4816397,Bike
Fix,NLP,37.4252525,-122.1694502,-1.3000000715255735,,25.833,,1677609090058,,,1043893282000000,1.0807282,Bike
Fix,FLP,37.4254601,-122.1694414,7.004609324025751,1.1076968,8.867,196.02344,1677609090414,,,1043893637408491,1.4816397,Bike
Fix,GPS,37.4254565924,-122.1694503924,3.2755642002301104,1.1784831,6.4036064,220.70232,1677609089999,0.3943817,18.378939,1043894248407000,3.594239,Bike
Fix,FLP,37.4254531,-122.1694449,13.318470789796898,1.0687463,9.274,189.11278,1677609090997,,,1043894220289106,1.4922385,Bike
Fix,GPS,37.4254491035,-122.1694652125,1.481135841532794,1.3784487,6.599895,224.52953,1677609090999,0.35502714,14.258148,1043895248493000,3.713703,Bike
Fix,FLP,37.4254378,-122.1694493,10.772832481312548,1.1734681,9.714,195.59154,1677609092082,,,1043895305378889,1.5013481,Bike
Fix,GPS,37.4254401838,-122.169478097,1.218135246473206,1.2844121,6.785694,227.25859,1677609091999,0.35325772,15.25503,1043896248503000,4.035048,Bike
Fix,FLP,37.4254232,-122.1694563,2.1247196406697206,1.364681,9.882,209.3635,1677609093166,,,1043896390462263,1.5094128,Bike
Fix,GPS,37.4254325179,-122.1694847425,1.5233325094392962,1.2701558,6.7801595,200.91745,1677609092999,0.31542423,12.266385,1043897248829000,4.314354,Bike
Fix,FLP,37.4254155,-122.1694639,2.1247196406697206,1.287244,10.15,203.79326,1677609093710,,,1043896933015486,1.5203607,Bike
Fix,GPS,37.4254184391,-122.1694899461,-1.552654420397153,1.7907631,6.580134,185.62752,1677609093999,0.29959407,10.0,1043898248677000,4.2487073,Bike
Fix,FLP,37.4254099,-122.1694683,-8.365699868851657,1.263083,10.198,189.48672,1677609094795,,,1043898018103743,1.5303707,Bike
Fix,GPS,37.4253985809,-122.1694887008,1.3484120219755915,2.7211883,6.400679,183.25516,1677609094999,0.3702774,10.0,1043899248502000,4.1449623,Bike
Fix,FLP,37.425405,-122.1694675,16.58152630081375,1.732033,10.419,166.84093,1677609095879,,,1043899103196821,1.5403607,Bike
Fix,FLP,37.4253968,-122.1694718,16.58152630081375,2.5496914,10.589,177.40192,1677609096414,,,1043899637408491,1.5403607,Bike
Fix,NLP,37.4253205,-122.1695037,-1.5000001192092896,,16.326,,1677609096992,,,1043900215000000,1.0,Bike
Fix,FLP,37.4253904,-122.1694766,20.726092552559585,2.6809738,10.676,177.61569,1677609096965,,,1043900188283186,1.493138,Bike
Fix,GPS,37.4253689609,-122.1694864,1.33536182742802,2.6995823,6.3157854,182.24043,1677609095999,0.34241605,10.0,1043900248855000,4.1223474,Bike
Fix,FLP,37.4253744,-122.1694811,16.58152630081375,2.693769,10.833,184.31735,1677609097507,,,1043900730827315,1.4941279,Bike
Fix,GPS,37.42533898,-122.1694907131,-1.148721454938952,3.3108737,6.395383,183.07677,1677609096999,0.35038206,10.0,1043901248661000,4.1168647,Bike
Fix,FLP,37.4253621,-122.1694839,-1.5000001192092896,2.687287,10.907,191.45569,1677609098050,,,1043901273371809,1.5037261,Bike
Fix,FLP,37.4253339,-122.1694918,-1.5000001192092896,3.2387578,10.967,192.42628,1677609099121,,,1043902344000000,1.5037261,Bike
Fix,GPS,37.425300917,-122.1695004275,-1.3370366467315145,3.2597601,6.2159834,198.87794,1677609097999,0.29106945,10.0,1043902248606000,4.1197176,Bike
Fix,FLP,37.4253072,-122.1694985,-1.5000001192092896,3.2645333,10.987,192.1484,1677609099678,,,1043902901003950,1.3937472,Bike
