Fix,Provider,LatitudeDegrees,LongitudeDegrees,AltitudeMeters,SpeedMps,AccuracyMeters,BearingDegrees,UnixTimeMillis,SpeedAccuracyMps,BearingAccuracyDegrees,elapsedRealtimeNanos,VerticalAccuracyMeters,TransitType
Fix,FLP,37.4215272,-122.1586163,2.2143209797206334,0.0,9.247,,1678380918547,0.101199865,,1815733425000000,2.2161958,Bike
Fix,GPS,37.4215271924,-122.1586163228,-5.463515057821319,0.0,8.351336,43.55214,1678380918000,0.042882446,42.224167,1815733821519000,8.538634,Bike
Fix,FLP,37.4215272,-122.1586163,-0.0050594302437859,0.0,9.023,,1678380918944,0.042882446,,1815733821519000,1.9500141,Bike
Fix,GPS,37.4215271924,-122.1586163228,-4.7683820063895865,0.0,7.925477,43.55214,1678380919000,0.35813847,25.0,1815734821561000,8.373736,Bike
Fix,FLP,37.4215272,-122.1586163,-2.4492989559992338,0.0,8.728,,1678380919944,0.35813847,,1815734821561000,2.014648,Bike
Fix,GPS,37.4215107688,-122.1586322737,-4.290970915292595,0.4403506,7.7871075,43.55214,1678380920000,0.5515128,153.84721,1815735821591000,8.247358,Bike
Fix,FLP,37.421523,-122.1586204,-3.43566092443507,0.0051459745,8.51,,1678380920944,0.5515128,,1815735821591000,1.8799257,Bike
Fix,FLP,37.4215197,-122.1586244,-3.43566092443507,0.012888765,9.03,,1678380921657,,,1815736534746488,1.8799257,Bike
Fix,GPS,37.4215137003,-122.1586370833,-4.035810821535603,0.39430368,7.98772,43.55214,1678380921000,0.46567214,153.95288,1815736821596000,8.207551,Bike
Fix,NLP,37.4215013,-122.1586564,-7.299999713897705,,13.716,,1678380918548,,,1815733425000000,1.0497744,Bike
Fix,GPS,37.4215145416,-122.1586396406,-3.654651133964018,0.0,8.117978,43.55214,1678380922000,0.4404215,158.46312,1815737821578000,8.169386,Bike
Fix,FLP,37.4215192,-122.1586265,-7.299999713897705,0.026758559,9.831,,1678380922742,,,1815737619782132,1.8006313,Bike
Fix,GPS,37.4215145416,-122.1586396406,-3.3131574133822563,0.0,7.726906,43.55214,1678380923000,0.03968687,175.87277,1815738821647000,8.012716,Bike
Fix,FLP,37.4215187,-122.158628,-7.299999713897705,0.025847074,10.496,,1678380923827,,,1815738704827787,1.587197,Bike
Fix,GPS,37.4215145416,-122.1586396406,-3.146461547422904,0.0,7.40291,43.55214,1678380924000,0.03972986,180.0,1815739821667000,7.8793163,Bike
Fix,FLP,37.4215179,-122.1586298,-7.299999713897705,0.024786012,11.235,,1678380924912,,,1815739789868802,1.7667018,Bike
Fix,GPS,37.4215145416,-122.1586396406,-2.7339323466173213,0.0,7.2083244,43.55214,1678380925000,0.4155591,81.634995,1815740821752000,7.7683706,Bike
Fix,FLP,37.4215171,-122.1586315,-5.443147488264389,0.023502775,12.2,,1678380925997,,,1815740874919156,1.8051467,Bike
Fix,GPS,37.4215145416,-122.1586396406,-2.472368907384324,0.0,6.939269,43.55214,1678380926000,0.08589873,180.0,1815741821828000,7.660639,Bike
Fix,FLP,37.4215164,-122.158633,-5.444673912624149,0.020225694,11.914,,1678380927082,,,1815741959965238,1.8387526,Bike
Fix,FLP,37.4215156,-122.1586346,-5.444673912624149,0.018104855,11.662,,1678380927616,,,1815742493000000,1.8387526,Bike
Fix,GPS,37.4215145416,-122.1586396406,-2.0226120382773254,0.0,6.7785025,43.55214,1678380927000,0.42339596,180.0,1815742822044000,7.5678983,Bike
Fix,NLP,37.4215291,-122.1586507,-7.299999713897705,,13.782,,1678380928783,,,1815743660000000,1.0,Bike
Fix,FLP,37.4215145,-122.1586367,-5.21519835657528,0.015332634,11.009,,1678380928710,,,1815743587527188,1.3102053,Bike
Fix,GPS,37.4215145416,-122.1586396406,-1.9240935137725,0.0,6.5411644,43.55214,1678380928000,0.06352243,180.0,1815743821699000,7.468615,Bike
Fix,GPS,37.4215145416,-122.1586396406,-1.6295721501158722,0.0,6.375602,43.55214,1678380929000,0.066343874,180.0,1815744821816000,7.384252,Bike
Fix,FLP,37.4215144,-122.158639,-5.370387607411735,0.013898047,10.133,,1678380929795,,,1815744672580777,1.328539,Bike
Fix,GPS,37.4215145416,-122.1586396406,-1.538243105041715,0.0,6.294935,43.55214,1678380930000,0.42103556,180.0,1815745821807000,7.304192,Bike
Fix,FLP,37.4215144,-122.1586402,-7.299999713897705,0.01304746,9.697,,1678380930880,,,1815745757626432,1.471341,Bike
Fix,GPS,37.4215145416,-122.1586396406,-1.3890123020849772,0.0,6.334521,43.55214,1678380931000,0.48107526,143.06575,1815746821767000,7.236056,Bike
Fix,FLP,37.4215146,-122.1586412,-7.299999713897705,0.012566609,9.501,,1678380931965,,,1815746842649564,1.4614488,Bike
Fix,GPS,37.4215145416,-122.1586396406,-1.2802224638801991,0.0,6.391514,43.55214,1678380932000,0.52694607,33.644135,1815747822107000,7.163739,Bike
Fix,FLP,37.4215144,-122.1586417,-7.299999713897705,0.011220475,8.727,,1678380933050,,,1815747927709134,1.2891861,Bike
Fix,NLP,37.4215301,-122.1586595,-7.299999713897705,,14.309,,1678380933805,,,1815748682000000,1.0,Bike
Fix,FLP,37.4215142,-122.1586419,-7.299999713897705,0.0073845387,8.363,,1678380933593,,,1815748470228422,0.87604654,Bike
Fix,GPS,37.4214995318,-122.1586507529,-0.965246790422156,0.47723877,6.499647,43.55214,1678380933000,0.58173746,119.97838,1815748821783000,7.1030564,Bike
Fix,FLP,37.4215146,-122.1586428,-7.299999713897705,0.007863152,7.889,,1678380934135,,,1815749012749418,0.9761563,Bike
Fix,GPS,37.4214974517,-122.1586473038,-0.9882216609625823,0.0,7.061405,43.55214,1678380934000,0.56493795,161.48586,1815749821808000,7.140704,Bike
Fix,FLP,37.4215147,-122.1586435,-4.86103201562256,0.020495234,7.763,,1678380934678,,,1815749555272366,0.8824691,Bike
Fix,GPS,37.4214959491,-122.1586488382,-0.9487378979907746,0.34780324,7.105047,43.55214,1678380935000,0.5705807,90.99757,1815750822127000,7.087665,Bike
Fix,FLP,37.4215148,-122.1586443,-5.120048128312567,0.019110354,7.488,,1678380935763,,,1815750640297085,0.98216397,Bike
Fix,FLP,37.4215146,-122.1586449,-5.120048128312567,0.0370308,7.417,,1678380936292,,,1815751170000000,0.98216397,Bike
Fix,FLP,37.4215144,-122.1586452,-5.120048128312567,0.053330645,7.376,,1678380936829,,,1815751706000000,0.98216397,Bike
Fix,GPS,37.4214964606,-122.1586529269,-0.6968777813052652,0.6222403,7.611344,43.55214,1678380936000,0.5859187,177.95096,1815751821866000,7.1480823,Bike
Fix,FLP,37.421514,-122.1586455,-7.299999713897705,0.09599479,7.233,,1678380937390,,,1815752267863675,0.9220162,Bike
Fix,GPS,37.4214995701,-122.1586570017,-0.2976451062328562,0.57174,8.103714,43.55214,1678380937000,0.62172526,173.15897,1815752821867000,7.225727,Bike
Fix,FLP,37.4215136,-122.1586459,-7.299999713897705,0.12188847,7.167,216.07904,1678380937933,,,1815752810380216,0.927582,Bike
Fix,FLP,37.4215132,-122.1586465,-7.299999713897705,0.15542445,7.207,218.76947,1678380938475,,,1815753352899076,1.0205594,Bike
Fix,NLP,37.4215361,-122.1586616,-7.299999713897705,,13.75,,1678380938884,,,1815753762000000,1.0,Bike
Fix,FLP,37.4215134,-122.1586467,-7.299999713897705,0.1369307,7.198,232.95969,1678380939018,,,1815753895406400,0.8488122,Bike
Fix,GPS,37.4215043738,-122.1586511491,0.1281174178294531,0.0,8.409545,43.55214,1678380938000,0.5561345,39.315464,1815753821866000,7.309406,Bike
Fix,FLP,37.4215143,-122.1586483,-7.299999713897705,0.12590487,7.238,244.56676,1678380939560,,,1815754437936124,0.8495646,Bike
Fix,GPS,37.4215104317,-122.1586398613,0.7241570126606032,0.52002925,8.315362,43.55214,1678380939000,0.5875757,25.0,1815754821953000,7.3254614,Bike
Fix,FLP,37.421515,-122.1586484,-7.299999713897705,0.11482245,7.271,243.02014,1678380940103,,,1815754980444730,0.85542876,Bike
Fix,FLP,37.4215155,-122.1586492,-5.598256728760548,0.09248744,7.332,,1678380940645,,,1815755522966398,0.8647379,Bike
Fix,GPS,37.4215140951,-122.1586275396,1.2639940559432357,0.4732171,8.626932,43.55214,1678380940000,0.5900286,30.207304,1815755822061000,7.4727893,Bike
Fix,FLP,37.4215166,-122.1586491,-5.598256728760548,0.071543775,7.435,,1678380941188,,,1815756065481779,0.86486834,Bike
Fix,FLP,37.4215171,-122.1586485,-5.598256728760548,0.045944765,7.602,,1678380941730,,,1815756607999173,0.86486834,Bike
Fix,GPS,37.4215185177,-122.1586167203,1.4843501124324774,0.5743099,8.857911,43.55214,1678380941000,0.5906357,32.99031,1815756821922000,7.6388397,Bike
Fix,FLP,37.4215185,-122.1586471,-7.299999713897705,0.042679764,7.972,,1678380942816,,,1815757693019497,0.88464785,Bike
Fix,GPS,37.4215232012,-122.1586097133,1.8210429404326975,0.5212647,9.144108,43.55214,1678380942000,0.57972366,180.0,1815757821984000,7.833535,Bike
Fix,FLP,37.42152,-122.1586447,-7.299999713897705,0.065899216,8.526,,1678380943358,,,1815758235547452,0.8899615,Bike
Fix,NLP,37.4215373,-122.1586597,-7.299999713897705,,11.76,,1678380943882,,,1815758759000000,1.2344446,Bike
Fix,FLP,37.4215201,-122.1586434,-7.299999713897705,0.052362286,8.764,,1678380943901,,,1815758778060575,0.9439944,Bike
Fix,GPS,37.4215274615,-122.1586077936,1.8850127243140895,0.33915272,9.354496,43.55214,1678380943000,0.6117587,180.0,1815758821943000,8.049934,Bike
Fix,FLP,37.4215205,-122.1586414,-7.299999713897705,0.028415913,9.342,,1678380944443,,,1815759320574796,0.9458274,Bike
Fix,GPS,37.4215264201,-122.1586092996,1.742231644014081,0.0,9.681303,43.55214,1678380944000,0.66079533,144.2093,1815759822212000,8.302102,Bike
Fix,FLP,37.4215205,-122.1586405,-7.299999713897705,0.013507945,9.796,,1678380944986,,,1815759863090726,0.95615596,Bike
Fix,FLP,37.4215207,-122.1586393,-7.299999713897705,0.011145179,9.811,,1678380945528,,,1815760405604825,0.95615596,Bike
Fix,GPS,37.4215264201,-122.1586092996,2.2136555921423997,0.0,9.910347,43.55214,1678380945000,0.59004223,166.8711,1815760821995000,8.551823,Bike
Fix,FLP,37.4215206,-122.1586384,-7.299999713897705,0.010580772,9.817,,1678380946071,,,1815760948110135,0.99325913,Bike
Fix,GPS,37.4215264201,-122.1586092996,3.665988107532725,0.0,9.769012,43.55214,1678380946000,0.6263736,29.953068,1815761822068000,8.720921,Bike
Fix,FLP,37.4215207,-122.1586373,-1.1525286198191818,0.009485185,10.493,,1678380946613,,,1815761490633695,0.88796556,Bike
Fix,GPS,37.4215286394,-122.1586133512,3.9922223994350063,0.42885235,9.687389,43.55214,1678380947000,0.68762755,101.84652,1815762822069000,8.941436,Bike
Fix,FLP,37.4215206,-122.1586358,-0.8093437702293949,0.008396462,10.714,,1678380947698,,,1815762575664883,0.8987844,Bike
Fix,NLP,37.4215155,-122.1586618,-7.299999713897705,,16.665,,1678380948921,,,1815763798000000,1.0480086,Bike
Fix,FLP,37.4215203,-122.1586338,-2.6758160327713028,0.013886983,10.641,,1678380948783,,,1815763660688810,0.8566133,Bike
Fix,GPS,37.4215347174,-122.1586258566,2.076196789652547,1.147196,9.907138,329.27316,1678380948000,0.6069304,27.917963,1815763822010000,9.162599,Bike
Fix,GPS,37.4215571975,-122.1586339402,3.4047007777124536,1.7248878,9.95662,337.225,1678380949000,0.49964833,25.0,1815764822087000,9.389179,Bike
Fix,FLP,37.4215195,-122.1586337,-2.0328307947619493,0.068978176,10.436,,1678380949868,,,1815764745715665,0.87284124,Bike
Fix,GPS,37.4215752048,-122.1586494984,3.639087936632672,1.7415346,10.087448,329.05035,1678380950000,0.5051179,25.0,1815765822046000,9.593455,Bike
Fix,FLP,37.4215192,-122.1586339,-7.299999713897705,0.10537381,10.511,133.00734,1678380950953,,,1815765830741788,0.87878233,Bike
Fix,GPS,37.4215892014,-122.1586699382,3.448668248242112,1.1186568,10.068523,329.5239,1678380951000,0.4773093,25.0,1815766822366000,9.745252,Bike
Fix,FLP,37.4215286,-122.1586353,2.056335303711266,0.05604107,11.399,,1678380952038,,,1815766915767667,0.8886587,Bike
Fix,GPS,37.4215940049,-122.1586835321,4.3504877864908575,0.44732854,10.026489,329.5239,1678380952000,0.5153232,180.0,1815767822063000,9.855982,Bike
Fix,FLP,37.4215445,-122.158642,29.57802587598408,0.12113655,12.614,358.99084,1678380953122,,,1815768000788663,0.91102266,Bike
Fix,NLP,37.421653,-122.1588322,-8.5,,20.587,,1678380953976,,,1815768854000000,1.3444254,Bike
Fix,FLP,37.4215532,-122.1586478,16.88198189257681,0.2570046,14.472,328.01544,1678380953666,,,1815768543304716,0.87140954,Bike
Fix,GPS,37.4215904112,-122.1586921075,3.2130147908457367,0.91446704,10.03064,329.5239,1678380953000,0.552028,64.64632,1815768822091000,9.909263,Bike
Fix,GPS,37.4215971313,-122.1587047305,3.311272892813271,1.096246,10.015036,338.69214,1678380954000,0.55357754,25.0,1815769822069000,9.921566,Bike
Fix,FLP,37.4215719,-122.1586671,16.88198189257681,0.56755716,14.604,331.91293,1678380954751,,,1815769628328702,0.892646,Bike
Fix,FLP,37.421582,-122.1586776,16.88198189257681,0.7467186,14.947,341.95813,1678380955276,,,1815770153082547,0.892646,Bike
Fix,FLP,37.4215906,-122.1586846,16.88198189257681,0.847767,14.714,357.66974,1678380955817,,,1815770694000000,0.892646,Bike
Fix,GPS,37.4216036884,-122.1587104515,3.003688664898453,1.5757409,10.106543,21.527002,1678380955000,0.56247574,25.0,1815770822123000,9.8808775,Bike
Fix,FLP,37.4216032,-122.1586919,6.497296540505871,1.0934688,14.753,16.236664,1678380956378,,,1815771255855862,0.86872065,Bike
Fix,GPS,37.4216150616,-122.1587099103,2.529173159539801,2.2714608,9.735811,34.894157,1678380956000,0.4629984,25.0,1815771822154000,9.758162,Bike
Fix,FLP,37.4216083,-122.1586923,2.017610223634564,1.1548338,14.554,31.369665,1678380956921,,,1815771798375088,0.871105,Bike
Fix,FLP,37.4216148,-122.1586885,2.017610223634564,1.4694014,14.551,33.8743,1678380957463,,,1815772340883390,0.871105,Bike
Fix,GPS,37.4216268031,-122.1586999541,1.089877860771082,1.7052256,9.703979,350.38867,1678380957000,0.5786192,25.0,1815772822092000,9.69479,Bike
Fix,FLP,37.4216227,-122.1586846,2.017610223634564,1.7283851,14.609,29.371973,1678380958006,,,1815772883395597,0.871105,Bike
Fix,FLP,37.4216338,-122.1586863,-4.751891462684109,1.5681328,15.08,4.667261,1678380958548,,,1815773425905362,0.87991834,Bike
Fix,GPS,37.4216558359,-122.1587191585,1.4146382467793646,2.6795278,9.467634,315.5691,1678380958000,0.5076655,25.0,1815773822199000,9.668137,Bike
Fix,FLP,37.4216348,-122.1586915,-7.299999713897705,1.4131556,15.103,345.8048,1678380959090,,,1815773968416837,0.88937515,Bike
Fix,FLP,37.4216471,-122.1587029,-7.299999713897705,1.6875219,15.088,323.26447,1678380959633,,,1815774510926359,0.88937515,Bike
Fix,NLP,37.4216651,-122.1588919,-8.5,,24.717,,1678380959930,,,1815774807000000,1.0,Bike
Fix,GPS,37.4216808958,-122.1587630849,1.8330466385794413,3.7721488,9.342125,308.44025,1678380959000,0.54759157,25.0,1815774822169000,9.653359,Bike
Fix,FLP,37.4216649,-122.1587332,13.219662333880564,2.437275,15.664,307.2852,1678380960718,,,1815775595947111,0.83949494,Bike
Fix,GPS,37.4217068474,-122.1588143065,0.6006139752419833,4.024701,9.011641,298.2955,1678380960000,0.51072705,25.0,1815775822191000,9.518006,Bike
Fix,FLP,37.4216858,-122.1587722,13.868624783241607,3.090745,16.395,302.50714,1678380961261,,,1815776138458524,0.85103244,Bike
Fix,GPS,37.4217299217,-122.1588612765,1.6456307262099057,3.5326536,9.029834,310.14053,1678380961000,0.60680157,25.0,1815776822203000,9.489497,Bike
Fix,FLP,37.4216928,-122.158787,7.785221914059018,3.3366702,16.639,300.95078,1678380961803,,,1815776680967618,0.9070519,Bike
Fix,FLP,37.4217085,-122.1588176,7.785221914059018,3.4278655,16.421,303.79053,1678380962346,,,1815777223478849,0.9070519,Bike
Fix,GPS,37.4217545224,-122.1589000929,1.9705585895191453,3.6644754,10.846864,306.08502,1678380962000,0.8076249,25.0,1815777822208000,9.472541,Bike
Fix,FLP,37.4217166,-122.1588325,7.785221914059018,3.4797316,16.211,305.46576,1678380962888,,,1815777765988370,0.9177262,Bike
Fix,FLP,37.4217325,-122.1588598,7.785221914059018,3.5661466,16.238,305.22318,1678380963431,,,1815778308499357,0.9177262,Bike
Fix,GPS,37.4217801739,-122.158946044,3.048989518688368,4.0056176,8.998555,305.25394,1678380963000,0.51150644,25.0,1815778822263000,9.384838,Bike
Fix,FLP,37.4217408,-122.1588742,17.564515734870824,3.6186547,16.324,304.77194,1678380963973,,,1815778851007841,0.9276499,Bike
Fix,FLP,37.4217572,-122.1589031,17.564515734870824,3.7655947,16.232,304.7664,1678380964516,,,1815779393519071,0.9276499,Bike
Fix,GPS,37.4218133464,-122.1589943249,4.1838559036293566,4.408228,8.737102,303.43542,1678380964000,0.5974597,25.0,1815779822287000,9.296062,Bike
Fix,FLP,37.4217687,-122.158923,17.564515734870824,3.8531888,16.074,305.00894,1678380965059,,,1815779936027432,0.9377,Bike
Fix,GPS,37.421836883,-122.159042748,2.25067071222939,3.8051789,8.622981,309.51724,1678380965000,0.5142018,25.0,1815780822333000,9.242811,Bike
Fix,FLP,37.4217941,-122.1589666,20.25596543070745,4.042219,15.941,305.26202,1678380965601,,,1815780478538846,0.9162265,Bike
Fix,FLP,37.4218105,-122.1589949,20.25596543070745,4.0604105,15.832,306.32364,1678380966144,,,1815781021047452,0.9162265,Bike
Fix,GPS,37.421860537,-122.1590800304,2.0070732029133524,3.6692104,8.557037,317.83917,1678380966000,0.46234494,25.0,1815781822351000,9.199426,Bike
Fix,FLP,37.4218244,-122.1590189,20.25596543070745,4.045782,15.792,306.8129,1678380966686,,,1815781563547757,0.92736644,Bike
Fix,FLP,37.4218384,-122.1590415,20.25596543070745,4.016194,15.684,308.92328,1678380967229,,,1815782106058927,0.92736644,Bike
Fix,GPS,37.4218909681,-122.1591197637,1.2125646219691375,4.1648145,8.404248,314.65506,1678380967000,0.42817125,25.0,1815782822611000,9.192741,Bike
Fix,FLP,37.4218532,-122.1590641,26.04040238554032,3.9661105,15.613,310.9027,1678380967771,,,1815782648578458,0.93720895,Bike
Fix,FLP,37.4218684,-122.1590856,26.04040238554032,4.0693374,15.461,311.61942,1678380968276,,,1815783153082547,0.93720895,Bike
Fix,GPS,37.4219209718,-122.1591617984,1.2477156988288731,4.1577144,8.324519,314.42752,1678380968000,0.4120458,25.0,1815783822322000,9.135166,Bike
Fix,FLP,37.421886,-122.15911,22.48338330167481,4.1234465,14.726,312.59787,1678380968856,,,1815783733597928,1.1512711,Bike
Fix,GPS,37.4219519394,-122.1592016875,1.1858897180546906,4.6726117,8.452371,317.10873,1678380969000,0.5037197,25.0,1815784822340000,9.098481,Bike
Fix,FLP,37.4219195,-122.1591536,23.51075612344219,4.1770563,14.524,314.18073,1678380969941,,,1815784818616910,0.9622556,Bike
Fix,FLP,37.4219503,-122.1591942,23.51075612344219,4.3189526,14.424,315.7141,1678380970484,,,1815785361125333,0.9610301,Bike
Fix,GPS,37.4219846833,-122.1592428339,1.3809841805551804,4.5126295,8.602908,320.77414,1678380970000,0.4708776,25.0,1815785822578000,9.052544,Bike
Fix,FLP,37.4219521,-122.1591973,22.48338330167481,4.4093094,14.447,317.05484,1678380971026,,,1815785903635892,0.9670265,Bike
Fix,FLP,37.4219798,-122.1592315,22.48338330167481,4.469657,14.452,317.8843,1678380971569,,,1815786446144254,0.9670265,Bike
Fix,GPS,37.4220167095,-122.1592805837,1.2702092572458694,4.816948,8.536273,321.89978,1678380971000,0.47262496,25.0,1815786822373000,9.017742,Bike
Fix,FLP,37.4219844,-122.1592386,5.572689581190039,4.5003095,14.466,318.11526,1678380972110,,,1815786988654630,0.9928641,Bike
Fix,FLP,37.4220117,-122.1592718,5.572689581190039,4.580939,14.522,318.693,1678380972653,,,1815787531162382,0.9928641,Bike
Fix,GPS,37.4220466004,-122.1593127744,0.7488375642885903,4.546081,8.310289,318.4996,1678380972000,0.42471677,25.0,1815787822361000,8.934569,Bike
Fix,FLP,37.4220295,-122.1592925,3.9136350618901337,4.648417,14.53,318.82053,1678380973196,,,1815788073672635,1.0011388,Bike
Fix,GPS,37.4220783042,-122.1593478103,0.9296739867953524,4.4491944,8.177552,319.33322,1678380973000,0.451829,25.0,1815788822391000,8.854917,Bike
Fix,FLP,37.4220507,-122.1593157,2.8099970021032847,4.6328197,14.612,318.95914,1678380973739,,,1815788616178128,1.1609242,Bike
Fix,FLP,37.4220847,-122.1593534,2.5461913912127008,4.5738645,14.592,318.9176,1678380974824,,,1815789701193204,1.030075,Bike
Fix,GPS,37.4221084159,-122.1593838972,0.7437843429095798,4.825828,8.097179,314.7182,1678380974000,0.43080696,25.0,1815789822407000,8.754379,Bike
Fix,FLP,37.4221137,-122.1593878,2.5461913912127008,4.6121535,14.505,317.69168,1678380975889,,,1815790767000000,1.02892,Bike
Fix,GPS,37.4221368534,-122.1594249019,0.0509897854673261,4.5327415,8.020372,317.5286,1678380975000,0.4166528,25.0,1815790822614000,8.639687,Bike
Fix,FLP,37.422137,-122.1594196,21.59470059731635,4.6310573,14.365,316.63287,1678380976451,,,1815791328725553,1.0376885,Bike
Fix,GPS,37.4221711416,-122.1594621316,0.8622670836419463,4.763666,7.969343,323.84415,1678380976000,0.4344829,25.0,1815791822470000,8.604436,Bike
Fix,FLP,37.4221435,-122.1594295,20.681315967773912,4.6111674,14.214,316.56058,1678380976994,,,1815791871232694,1.0183682,Bike
Fix,GPS,37.4222087853,-122.1594974994,1.7257629838220836,5.3171563,7.89466,323.2377,1678380977000,0.46490687,25.0,1815792822487000,8.586386,Bike
Fix,FLP,37.422187,-122.1594761,0.778608197648802,5.020546,13.403,319.69287,1678380977945,0.46490687,25.0,1815792822487000,1.0210577,Bike
Fix,GPS,37.4222474735,-122.1595389276,1.018223448612514,5.146432,7.812582,321.54248,1678380978000,0.42124936,25.0,1815793822519000,8.566399,Bike
Fix,FLP,37.4222315,-122.1595228,-1.6484331608719929,5.1624026,12.654,320.1409,1678380978945,0.42124936,25.0,1815793822519000,1.0299257,Bike
Fix,GPS,37.4222862158,-122.1595786089,2.0322762082720227,5.038821,7.721511,313.5093,1678380979000,0.40925866,25.0,1815794822465000,8.534594,Bike
Fix,FLP,37.4222732,-122.1595684,0.778608197648802,5.181064,11.773,317.26135,1678380979945,0.40925866,25.0,1815794822465000,1.0395609,Bike
Fix,GPS,37.4223202109,-122.1596234604,2.6108730087513115,5.204046,7.700096,314.99866,1678380980000,0.39311296,25.0,1815795822509000,8.524944,Bike
Fix,FLP,37.4223118,-122.1596146,15.170781473361505,5.236272,10.707,315.95166,1678380980945,0.39311296,25.0,1815795822509000,1.0582532,Bike
Fix,GPS,37.4223533157,-122.1596727743,2.18610781390508,5.495981,7.7298126,317.49704,1678380981000,0.42149264,25.0,1815796822457000,8.523848,Bike
Fix,FLP,37.422349,-122.1596624,5.527233551398239,5.376495,9.419,316.2634,1678380981945,0.42149264,25.0,1815796822457000,1.0691495,Bike
Fix,GPS,37.422391426,-122.1597178564,1.7301553182715028,5.1298637,7.851029,315.74997,1678380982000,0.48416555,25.0,1815797822548000,8.543654,Bike
Fix,FLP,37.4223861,-122.1597091,7.053943820665395,5.30906,7.763,315.6891,1678380982945,0.48416555,25.0,1815797822548000,1.0784585,Bike
Fix,GPS,37.4224310751,-122.1597542462,2.960333655735668,5.5115285,7.874996,320.8025,1678380983000,0.45434272,25.0,1815798822616000,8.504253,Bike
Fix,FLP,37.4224252,-122.1597519,16.66820054297763,5.423371,7.775,317.571,1678380983945,0.45434272,25.0,1815798822616000,1.1155089,Bike
Fix,GPS,37.4224726127,-122.1597928882,3.990534018041892,4.887875,7.8130026,319.89264,1678380984000,0.4056237,25.0,1815799822584000,8.441908,Bike
Fix,FLP,37.4224646,-122.1597919,13.07572686530674,5.208059,7.793,318.22318,1678380984945,0.4056237,25.0,1815799822584000,1.1261373,Bike
Fix,GPS,37.4225061376,-122.1598325817,3.157822967943944,5.263682,7.799164,319.8333,1678380985000,0.4151709,25.0,1815800822649000,8.408724,Bike
Fix,FLP,37.4225021,-122.1598317,6.659510669001034,5.2450976,7.813,318.62485,1678380985945,0.4151709,25.0,1815800822649000,1.1409221,Bike
Fix,GPS,37.4225401138,-122.1598741458,2.1091995039003137,5.511948,7.791795,322.1338,1678380986000,0.403074,25.0,1815801822555000,8.389932,Bike
Fix,FLP,37.4225393,-122.1598719,15.76717656114337,5.3711915,7.826,320.03415,1678380986945,0.403074,25.0,1815801822555000,1.119672,Bike
Fix,GPS,37.4225796054,-122.1599100781,2.2268254406964187,5.814531,7.898468,321.78607,1678380987000,0.47908163,25.0,1815802822555000,8.398669,Bike
Fix,FLP,37.4225781,-122.1599107,13.624156252102871,5.760517,7.835,320.98132,1678380987945,0.47908163,25.0,1815802822555000,1.1298667,Bike
Fix,GPS,37.4226196825,-122.1599471601,2.158144201383336,5.510937,7.9686375,323.06055,1678380988000,0.4989739,25.0,1815803822648000,8.42542,Bike
Fix,FLP,37.4226191,-122.1599491,6.791646820282571,5.540235,7.854,322.72165,1678380988944,0.4989739,25.0,1815803822648000,1.1404512,Bike
Fix,GPS,37.4226599607,-122.1599824861,3.647965580157674,5.1504707,7.977492,318.78915,1678380989000,0.4460859,25.0,1815804822739000,8.408313,Bike
Fix,FLP,37.4226592,-122.1599846,-0.0277060949063391,5.183566,7.887,318.5089,1678380989945,0.4460859,25.0,1815804822739000,1.3565784,Bike
Fix,GPS,37.4226951043,-122.1600225636,3.601616303748472,4.8470387,7.9377007,323.2447,1678380990000,0.3905567,25.0,1815805822712000,8.364743,Bike
Fix,FLP,37.4226947,-122.1600228,-0.0277060949063391,4.882483,7.914,322.47263,1678380990945,0.3905567,25.0,1815805822712000,1.1657767,Bike
Fix,GPS,37.4227295669,-122.1600584534,3.007110002837553,5.048301,9.344364,321.53485,1678380991000,0.6614123,25.0,1815806822714000,8.37148,Bike
Fix,FLP,37.4227155,-122.1600429,-0.4361017009050648,4.928586,8.143,322.11102,1678380991945,0.6614123,25.0,1815806822714000,1.1720382,Bike
Fix,GPS,37.4227629802,-122.1601019994,2.8768608196473995,5.658368,8.108323,320.31427,1678380992000,0.47122338,25.0,1815807822929000,8.322059,Bike
Fix,FLP,37.4227546,-122.1600871,-1.1333488848894069,5.53079,8.319,320.33032,1678380992945,0.47122338,25.0,1815807822929000,1.1989774,Bike
Fix,NLP,37.4225331,-122.1600169,-7.599999904632568,,16.987,,1678380987877,,,1815802754000000,1.2564514,Bike
Fix,GPS,37.422798953,-122.1601502468,2.469325138217685,5.533253,8.092826,318.15176,1678380993000,0.47649115,25.0,1815808822720000,8.312725,Bike
Fix,FLP,37.4228192,-122.1601683,12.130890124925113,5.495583,8.367,318.1017,1678380993945,0.47649115,25.0,1815808822720000,0.90315354,Bike
Fix,GPS,37.4228368789,-122.1601945878,2.353015379923893,5.3832603,8.2169075,321.9184,1678380994000,0.6102072,25.0,1815809822734000,8.338388,Bike
Fix,FLP,37.4228446,-122.1602005,19.70184768252521,5.38878,8.348,320.65878,1678380994945,0.6102072,25.0,1815809822734000,0.94562846,Bike
Fix,GPS,37.4228731693,-122.1602388166,1.0336853569750857,5.223765,8.203655,319.3997,1678380995000,0.42509174,25.0,1815810822806000,8.33153,Bike
Fix,FLP,37.4228772,-122.160239,4.133159660519959,5.2361426,8.439,319.13873,1678380995944,0.42509174,25.0,1815810822806000,0.94946545,Bike
Fix,GPS,37.4229114322,-122.160282021,1.304209465699654,5.4938745,8.184901,321.54428,1678380996000,0.4603122,25.0,1815811822739000,8.31555,Bike
Fix,FLP,37.4229122,-122.1602801,-7.599999904632568,5.4693136,8.33,320.81885,1678380996945,0.4603122,25.0,1815811822739000,0.9573413,Bike
Fix,GPS,37.4229512447,-122.1603270819,1.8713870918889888,5.2281823,8.130549,320.52478,1678380997000,0.4640681,25.0,1815812822779000,8.260743,Bike
Fix,FLP,37.4229507,-122.1603235,0.4402115126832786,5.2544594,8.166,320.02393,1678380997945,0.4640681,25.0,1815812822779000,0.9671112,Bike
Fix,GPS,37.4229892871,-122.1603634758,0.7802545492579451,5.364859,8.135174,327.01993,1678380998000,0.48714212,25.0,1815813822951000,8.249052,Bike
Fix,FLP,37.4229884,-122.1603624,-7.599999904632568,5.3730426,8.174,326.21204,1678380998945,0.48714212,25.0,1815813822951000,0.93972987,Bike
Fix,GPS,37.4230281058,-122.160403696,-0.1873429490964146,5.1372495,8.07823,320.9246,1678380999000,0.4295272,25.0,1815814822784000,8.252876,Bike
Fix,FLP,37.4230282,-122.1604006,-8.5,5.1535087,8.146,320.6008,1678380999945,0.4295272,25.0,1815814822784000,0.9486269,Bike
Fix,GPS,37.423065426,-122.1604500621,0.066065706221502,4.998384,8.15963,316.0518,1678381000000,0.4617335,25.0,1815815822819000,8.314895,Bike
Fix,FLP,37.4230646,-122.1604445,-11.39643566557967,5.015102,8.137,316.4211,1678381000945,0.4617335,25.0,1815815822819000,0.9581014,Bike
Fix,GPS,37.4230999132,-122.1604982699,0.0825398961762787,5.054079,8.167263,320.84592,1678381001000,0.4363844,25.0,1815816822807000,8.372603,Bike
Fix,FLP,37.4230988,-122.1604914,-10.715784306832454,5.058153,8.134,319.60562,1678381001945,0.4363844,25.0,1815816822807000,0.97210145,Bike
Fix,GPS,37.4231386144,-122.1605434857,0.6399540446262437,4.987365,7.653023,322.55325,1678381002000,0.037960246,25.0,1815817822981000,7.81067,Bike
Fix,FLP,37.4231364,-122.1605369,-8.5,5.0025525,8.038,321.699,1678381002945,0.037960246,25.0,1815817822981000,0.98306584,Bike
Fix,GPS,37.4231752526,-122.1605913907,0.9174582553864726,4.7264524,7.212148,320.4819,1678381003000,0.0988153,25.0,1815818822832000,7.6521564,Bike
Fix,FLP,37.4231737,-122.1605835,-7.599999904632568,4.753318,7.9,320.0489,1678381003945,0.0988153,25.0,1815818822832000,0.99361527,Bike
Fix,GPS,37.4232048562,-122.1606293839,0.596536753388123,4.109721,7.350399,313.7565,1678381004000,0.39835894,25.0,1815819822799000,7.558419,Bike
Fix,FLP,37.423203,-122.1606223,-7.599999904632568,4.1754956,7.625,313.83044,1678381004945,0.39835894,25.0,1815819822799000,1.0457577,Bike
Fix,GPS,37.4232148319,-122.1606747234,0.512809146108986,3.8407168,6.9859886,292.1225,1678381005000,0.051431626,25.0,1815820822835000,7.3991404,Bike
Fix,FLP,37.4232203,-122.1606653,-7.599999904632568,3.8971958,7.418,294.40863,1678381005945,0.051431626,25.0,1815820822835000,1.0563602,Bike
Fix,GPS,37.4232231693,-122.1607189769,0.5425272361934824,2.7530074,7.140582,278.2289,1678381006000,0.38880712,25.0,1815821822891000,7.313136,Bike
Fix,FLP,37.4232239,-122.1607055,-7.599999904632568,2.8019328,7.208,281.16336,1678381006944,0.38880712,25.0,1815821822891000,1.0711567,Bike
Fix,GPS,37.4232198501,-122.1607544246,0.4758754204663443,3.1991277,7.251164,248.29366,1678381007000,0.43759996,25.0,1815822822860000,7.273433,Bike
Fix,FLP,37.4232234,-122.1607456,0.3772461032460634,3.1384356,7.206,250.5574,1678381007945,0.43759996,25.0,1815822822860000,1.0902007,Bike
Fix,GPS,37.4232017461,-122.1607930071,0.4573656845059418,3.33047,7.4426737,233.69853,1678381008000,0.54021806,25.0,1815823822863000,7.3215456,Bike
Fix,FLP,37.4232106,-122.1607774,12.352032044831937,3.2704868,7.195,236.71298,1678381008945,0.54021806,25.0,1815823822863000,1.1004348,Bike
Fix,GPS,37.4231754403,-122.1608211824,0.733355487813762,3.3601737,7.8244014,211.57207,1678381009000,0.5978933,25.0,1815824822889000,7.4468465,Bike
Fix,FLP,37.4231857,-122.1608132,12.352032044831937,3.3759356,7.254,213.23212,1678381009945,0.5978933,25.0,1815824822889000,1.1108493,Bike
Fix,GPS,37.4231419885,-122.1608407809,0.8822884786363285,3.5947983,8.227058,215.29053,1678381010000,0.5631222,25.0,1815825822976000,7.5820785,Bike
Fix,FLP,37.4231533,-122.1608361,12.855707654995824,3.570178,7.397,214.54567,1678381010945,0.5631222,25.0,1815825822976000,1.5820149,Bike
Fix,GPS,37.4231071981,-122.1608634491,0.945808914568588,3.7091672,8.360465,217.4641,1678381011000,0.5007799,25.0,1815826822934000,7.729917,Bike
Fix,FLP,37.4231183,-122.1608603,13.262023668442875,3.6989179,7.658,216.77621,1678381011944,0.5007799,25.0,1815826822934000,1.0953774,Bike
Fix,GPS,37.4230690016,-122.1608927759,1.0325923402481298,4.0550375,8.464342,216.24954,1678381012000,0.47416297,25.0,1815827822922000,7.9138656,Bike
Fix,FLP,37.4230815,-122.1608876,9.394347025406494,4.0280075,7.879,215.9872,1678381012945,0.47416297,25.0,1815827822922000,1.5914805,Bike
Fix,GPS,37.4230326007,-122.1609149193,1.289798843001407,3.4517546,8.352108,220.88112,1678381013000,0.4460375,25.0,1815828822929000,8.059572,Bike
Fix,FLP,37.4230435,-122.1609137,18.687510991091383,3.4950068,8.154,219.70479,1678381013944,0.4460375,25.0,1815828822929000,1.7750946,Bike
Fix,GPS,37.4229981843,-122.1609369016,1.5576598690913737,4.033147,8.3499975,207.28465,1678381014000,0.45885655,25.0,1815829822957000,8.26308,Bike
Fix,FLP,37.4230094,-122.1609366,11.498259205419943,4.01788,8.298,207.96033,1678381014945,0.45885655,25.0,1815829822957000,1.1312299,Bike
Fix,GPS,37.4229588598,-122.1609532442,2.3951430067969355,3.7561986,8.299061,218.60095,1678381015000,0.43535346,25.0,1815830822990000,8.413997,Bike
Fix,FLP,37.4229756,-122.1609503,18.27853485344076,3.9419906,8.357,212.17493,1678381015945,0.43535346,25.0,1815830822990000,1.1220891,Bike
Fix,GPS,37.422925273,-122.1609773519,3.061075988082543,3.6367805,8.278853,222.6473,1678381016000,0.43027234,25.0,1815831823122000,8.541725,Bike
Fix,FLP,37.4229394,-122.1609729,21.731488272001293,3.6525173,8.356,221.37936,1678381016946,0.43027234,25.0,1815831823122000,1.1633067,Bike
Fix,GPS,37.4228946661,-122.1610036121,3.1315754762690404,3.7293184,8.238408,219.84033,1678381017000,0.4365785,25.0,1815832823009000,8.675754,Bike
Fix,FLP,37.4229103,-122.1609947,28.126740695667287,3.7104828,8.324,219.799,1678381017946,0.4365785,25.0,1815832823009000,1.1709503,Bike
Fix,GPS,37.422863186,-122.1610274121,3.829421373209661,3.6526403,8.216282,218.35757,1678381018000,0.4506849,25.0,1815833823120000,8.785396,Bike
Fix,FLP,37.4228808,-122.1610174,23.11143098516324,3.692695,8.289,218.53308,1678381018946,0.4506849,25.0,1815833823120000,1.1762741,Bike
Fix,GPS,37.422835351,-122.1610496276,4.050569014481628,3.2071457,8.235737,221.98726,1678381019000,0.42792675,25.0,1815834823035000,8.885798,Bike
Fix,FLP,37.4228472,-122.1610443,19.57163676702309,3.2508078,8.27,220.72897,1678381019946,0.42792675,25.0,1815834823035000,1.1538368,Bike
Fix,GPS,37.422812924,-122.1610707364,3.686926108704911,2.8991795,8.429291,230.09099,1678381020000,0.4725865,25.0,1815835823075000,9.027058,Bike
Fix,FLP,37.4228224,-122.1610649,12.820718008978629,2.9558482,8.269,228.22293,1678381020946,0.4725865,25.0,1815835823075000,1.1634854,Bike
Fix,GPS,37.4227923369,-122.1610970153,3.2218348278193534,2.908228,8.589054,230.48582,1678381021000,0.4686555,25.0,1815836823216000,9.141788,Bike
Fix,FLP,37.4227992,-122.1610931,4.243379161359004,2.9113212,8.285,229.91002,1678381021946,0.4686555,25.0,1815836823216000,1.1724722,Bike
Fix,GPS,37.4227729016,-122.1611233256,2.790940185921047,2.5167134,8.692952,246.44243,1678381022000,0.5100497,25.0,1815837823066000,9.17754,Bike
Fix,FLP,37.4227826,-122.161113,-0.1780298126117911,2.6818826,8.356,238.14835,1678381022946,0.5100497,25.0,1815837823066000,1.1822462,Bike
Fix,GPS,37.4227659329,-122.1611476162,3.255686818949967,2.1474345,8.948312,264.9782,1678381023000,0.586132,25.0,1815838823154000,9.18608,Bike
Fix,FLP,37.4227688,-122.1611382,-1.2588291928940738,2.2913053,8.486,254.75705,1678381023946,0.586132,25.0,1815838823154000,1.1970412,Bike
Fix,GPS,37.4227673727,-122.1611708582,2.080627632989149,2.7858815,8.949134,316.0977,1678381024000,0.4759495,25.0,1815839823167000,9.066994,Bike
Fix,FLP,37.4227661,-122.1611639,-1.3087402465167868,2.64889,8.631,312.3603,1678381024946,0.4759495,25.0,1815839823167000,1.207485,Bike
Fix,GPS,37.4227894228,-122.161202821,2.3190137964080138,3.6061773,8.858921,315.9653,1678381025000,0.40235096,25.0,1815840823199000,8.849113,Bike
Fix,FLP,37.4227847,-122.1611923,-17.349504554163595,3.5327926,8.801,315.04135,1678381025946,0.40235096,25.0,1815840823199000,1.259415,Bike
Fix,GPS,37.4228238119,-122.1612486506,2.5460883353397685,4.195943,8.34202,310.5256,1678381026000,0.039050777,25.0,1815841823612000,8.06128,Bike
Fix,FLP,37.4228108,-122.1612292,-15.919386110135296,4.097399,8.782,310.63303,1678381026946,0.039050777,25.0,1815841823612000,1.2703288,Bike
Fix,GPS,37.422848434,-122.1612904511,3.0447894588082014,3.7299025,8.300758,307.616,1678381027000,0.4500613,25.0,1815842823217000,7.9447417,Bike
Fix,FLP,37.422837,-122.1612699,-11.982133176452574,3.9475424,8.719,308.64838,1678381027946,0.4500613,25.0,1815842823217000,1.2805951,Bike
Fix,GPS,37.4228639015,-122.1613306997,3.150518968429644,3.2399862,8.184801,294.67987,1678381028000,0.6416529,25.0,1815843823241000,7.844813,Bike
Fix,FLP,37.4228597,-122.1613143,-11.982133176452574,3.3053706,8.611,296.3041,1678381028946,0.6416529,25.0,1815843823241000,1.2940584,Bike
Fix,GPS,37.4228729598,-122.1613682499,3.5930715293989475,3.1411533,8.332022,285.10406,1678381029000,0.6261789,25.0,1815844823291000,7.7852583,Bike
Fix,FLP,37.4228705,-122.1613518,12.06743732360141,3.1901548,8.44,289.77216,1678381029945,0.6261789,25.0,1815844823291000,1.3137043,Bike
Fix,GPS,37.4228718858,-122.1614205223,3.273345718453446,4.2985625,8.4537735,278.27487,1678381030000,0.4760836,25.0,1815845823254000,7.7709646,Bike
Fix,FLP,37.4228754,-122.1613914,22.223910465609222,3.8706791,8.347,281.26196,1678381030946,0.4760836,25.0,1815845823254000,1.3244923,Bike
Fix,GPS,37.4228823475,-122.1614779792,2.784814736896529,4.791731,8.436855,292.71753,1678381031000,0.50871015,25.0,1815846823288000,7.7717814,Bike
Fix,FLP,37.42288,-122.1614483,22.675830927815745,4.620566,8.32,287.31598,1678381031946,0.50871015,25.0,1815846823288000,1.3334609,Bike
Fix,GPS,37.422900957,-122.1615348097,2.2238935556492176,4.84837,8.443638,296.67514,1678381032000,0.4643472,25.0,1815847823283000,7.810418,Bike
Fix,FLP,37.4228954,-122.1615118,3.0977424242453,4.816647,8.34,294.91074,1678381032946,0.4643472,25.0,1815847823283000,1.809303,Bike
Fix,GPS,37.4229149166,-122.1615976866,0.7555108137179736,5.1386814,8.000165,290.15335,1678381033000,0.08343245,25.0,1815848823304000,7.4571424,Bike
Fix,FLP,37.4229102,-122.1615662,-8.5,5.048782,8.336,292.85962,1678381033946,0.08343245,25.0,1815848823304000,1.3172195,Bike
Fix,GPS,37.422933996,-122.161653553,0.634993254689662,4.897318,7.5487967,293.92206,1678381034000,0.08570061,25.0,1815849823318000,7.2921257,Bike
Fix,FLP,37.4229279,-122.161631,-16.370343172911042,4.918053,8.248,292.55933,1678381034946,0.08570061,25.0,1815849823318000,1.81756,Bike
Fix,GPS,37.4229515295,-122.1617086528,0.7946149478861448,4.870179,7.6356077,296.62366,1678381035000,0.4914713,25.0,1815850823335000,7.204772,Bike
Fix,FLP,37.4229485,-122.1616957,-14.68450219861597,4.8659563,8.173,295.65073,1678381035946,0.4914713,25.0,1815850823335000,2.0103245,Bike
Fix,GPS,37.4229732149,-122.1617619719,0.7522648543137187,5.1103344,7.723027,298.59915,1678381036000,0.46435198,25.0,1815851823413000,7.203371,Bike
Fix,FLP,37.4229651,-122.1617415,-8.5,5.0314574,7.985,297.10794,1678381036946,0.46435198,25.0,1815851823413000,1.3553058,Bike
Fix,GPS,37.4229927716,-122.161819386,0.859777496022185,5.0783005,7.90261,293.19446,1678381037000,0.46200728,25.0,1815852823353000,7.2675123,Bike
Fix,FLP,37.4229854,-122.1617952,6.379144269551179,5.11953,7.846,294.74457,1678381037946,0.46200728,25.0,1815852823353000,1.3457131,Bike
Fix,GPS,37.4230081352,-122.1618784083,1.1367284705279592,5.0319605,8.068586,289.8489,1678381038000,0.5266257,25.0,1815853823608000,7.351102,Bike
Fix,FLP,37.4230062,-122.1618625,26.09301086218724,5.0571337,7.853,289.89005,1678381038946,0.5266257,25.0,1815853823608000,1.3852541,Bike
Fix,GPS,37.4230215996,-122.1619334257,1.1403321224756642,4.792982,8.221892,286.8208,1678381039000,0.615239,25.0,1815854823382000,7.450153,Bike
Fix,FLP,37.4230214,-122.1619249,11.828561262894231,4.814049,7.844,286.64044,1678381039946,0.615239,25.0,1815854823382000,1.3693475,Bike
Fix,GPS,37.4230340648,-122.1619879689,1.541532461443184,4.8166327,8.252107,290.85095,1678381040000,0.48625815,25.0,1815855823406000,7.530529,Bike
Fix,FLP,37.4230317,-122.1619741,15.511706449484276,4.795493,7.968,289.01376,1678381040945,0.48625815,25.0,1815855823406000,1.3999543,Bike
Fix,GPS,37.423047346,-122.162045528,1.801988319743021,4.5841165,8.287034,290.34003,1678381041000,0.45440665,25.0,1815856823434000,7.618399,Bike
Fix,FLP,37.4230438,-122.1620248,12.52687847554432,4.6164713,8.116,290.1481,1678381041945,0.45440665,25.0,1815856823434000,1.3823858,Bike
Fix,GPS,37.4230591163,-122.1621010094,1.917273523532265,3.8838272,8.271249,293.882,1678381042000,0.43933058,25.0,1815857823426000,7.682455,Bike
Fix,FLP,37.4230554,-122.1620757,-5.285398391199786,4.2225327,8.232,291.36664,1678381042946,0.43933058,25.0,1815857823426000,1.3864326,Bike
Fix,GPS,37.4230739395,-122.1621447176,2.228792276396625,3.835555,8.369235,291.72427,1678381043000,0.57800704,25.0,1815858823432000,7.828015,Bike
Fix,FLP,37.4230705,-122.1621298,-5.285398391199786,3.8458169,8.25,291.33325,1678381043946,0.57800704,25.0,1815858823432000,1.3960248,Bike
Fix,GPS,37.42308759,-122.1621858532,2.637649385447121,3.861719,8.439543,291.99582,1678381044000,0.54408664,25.0,1815859823475000,7.9697156,Bike
Fix,FLP,37.4230843,-122.1621758,-5.285398391199786,3.8615258,8.302,291.02228,1678381044946,0.54408664,25.0,1815859823475000,1.4099126,Bike
Fix,GPS,37.4230994852,-122.1622363724,2.7296601007940424,4.355011,8.458571,287.89154,1678381045000,0.4922915,25.0,1815860823480000,8.088865,Bike
Fix,FLP,37.4230956,-122.162216,15.592290521313505,4.1255746,8.353,288.91968,1678381045946,0.4922915,25.0,1815860823480000,1.4207808,Bike
Fix,GPS,37.4231099243,-122.1622899903,2.982181962624535,4.1860995,8.4087105,288.63052,1678381046000,0.4747527,25.0,1815861823503000,8.183275,Bike
Fix,FLP,37.4231061,-122.1622637,15.592290521313505,4.268765,8.383,287.53726,1678381046946,0.4747527,25.0,1815861823503000,1.4311346,Bike
Fix,GPS,37.4231210967,-122.1623444254,3.9807780865544182,4.3444824,8.32881,291.8836,1678381047000,0.43076766,25.0,1815862823777000,8.166478,Bike
Fix,FLP,37.4231165,-122.1623151,15.306555000269654,4.2716427,8.39,289.467,1678381047946,0.43076766,25.0,1815862823777000,1.4833418,Bike
Fix,GPS,37.4231315072,-122.1623985719,3.3653139891957298,4.3073254,8.294624,288.33298,1678381048000,0.49449962,25.0,1815863823524000,8.179257,Bike
Fix,FLP,37.4231289,-122.1623731,15.724518064552829,4.323868,8.398,288.76685,1678381048946,0.49449962,25.0,1815863823524000,1.4941372,Bike
Fix,GPS,37.4231417244,-122.1624478941,2.8236659426495945,4.6330285,8.339188,286.92603,1678381049000,0.5009272,25.0,1815864823570000,8.207735,Bike
Fix,FLP,37.4231402,-122.1624301,14.518656411342905,4.6197696,8.382,286.26904,1678381049946,0.5009272,25.0,1815864823570000,1.5093918,Bike
Fix,GPS,37.4231555873,-122.1624990733,2.648699836893111,4.758421,8.206409,288.27066,1678381050000,0.4183855,25.0,1815865823553000,8.17346,Bike
Fix,FLP,37.4231527,-122.1624873,10.134505322861031,4.744803,8.349,287.5967,1678381050946,0.4183855,25.0,1815865823553000,1.5181587,Bike
Fix,GPS,37.4231659306,-122.1625591733,2.332625861746803,4.631244,8.153125,285.96777,1678381051000,0.42830577,10.0,1815866823763000,8.13252,Bike
Fix,FLP,37.4231631,-122.1625352,14.578627894822931,4.6561546,8.282,285.45068,1678381051946,0.42830577,10.0,1815866823763000,1.5379277,Bike
Fix,GPS,37.4231750283,-122.1626170627,1.937498100580752,4.6628985,8.163034,278.3551,1678381052000,0.5130628,10.0,1815867823593000,8.101969,Bike
Fix,FLP,37.4231719,-122.1625879,14.730149543266268,4.6555076,8.251,280.6797,1678381052945,0.5130628,10.0,1815867823593000,1.5485439,Bike
Fix,GPS,37.4231819028,-122.1626756049,2.664467111784663,4.673393,8.106172,284.31018,1678381053000,0.42109552,10.0,1815868823639000,8.048161,Bike
Fix,FLP,37.4231792,-122.1626473,15.233825153430155,4.6607523,8.211,283.05637,1678381053946,0.42109552,10.0,1815868823639000,2.0242248,Bike
Fix,GPS,37.4231886332,-122.1627314737,2.694910794948489,4.530919,8.048456,285.5223,1678381054000,0.42631805,10.0,1815869823647000,8.007783,Bike
Fix,FLP,37.4231875,-122.1627072,14.740234242821298,4.5363364,8.168,284.92197,1678381054946,0.42631805,10.0,1815869823647000,1.5314689,Bike
Fix,GPS,37.4231970587,-122.1627898173,2.231822063255006,4.8505244,7.995947,286.5874,1678381055000,0.42166322,10.0,1815870823637000,7.9969897,Bike
Fix,FLP,37.4231962,-122.1627676,6.757730872734625,4.8395967,8.122,285.88113,1678381055946,0.42166322,10.0,1815870823637000,2.0413616,Bike
Fix,GPS,37.423209345,-122.1628470005,2.984239342979696,4.681399,7.983658,285.88773,1678381056000,0.41781446,10.0,1815871823703000,7.964918,Bike
Fix,FLP,37.4232074,-122.1628299,7.556001754987074,4.686031,8.093,285.07462,1678381056946,0.41781446,10.0,1815871823703000,2.215165,Bike
Fix,GPS,37.4232156412,-122.1629081435,2.8770649534106565,4.5269737,7.973158,281.88123,1678381057000,0.39876232,10.0,1815872823658000,7.9417124,Bike
Fix,FLP,37.4232166,-122.1628921,4.821214885746745,4.53091,8.04,281.18103,1678381057946,0.39876232,10.0,1815872823658000,1.5692414,Bike
Fix,GPS,37.4232217136,-122.1629631357,2.67032042886356,4.551328,7.957327,284.87122,1678381058000,0.40034842,10.0,1815873823620000,7.919939,Bike
Fix,FLP,37.4232207,-122.1629408,17.268501919438783,4.537725,8.003,282.48257,1678381058946,0.40034842,10.0,1815873823620000,1.5589008,Bike
Fix,GPS,37.4232285294,-122.1630165379,3.07906183926012,4.707495,7.943978,281.82483,1678381059000,0.42319062,10.0,1815874823697000,7.917397,Bike
Fix,FLP,37.4232268,-122.1629908,10.488226271417968,4.6756134,7.98,282.04297,1678381059946,0.42319062,10.0,1815874823697000,1.5944152,Bike
Fix,GPS,37.4232343571,-122.1630678337,2.95263247962387,4.632588,7.870551,286.41812,1678381060000,0.37064886,10.0,1815875823704000,7.9087124,Bike
Fix,FLP,37.4232336,-122.1630475,2.654662085262215,4.627515,7.959,285.48666,1678381060945,0.37064886,10.0,1815875823704000,1.608249,Bike
Fix,GPS,37.4232375084,-122.1631146372,2.6036763606118574,4.487204,7.3364983,281.7722,1678381061000,0.065808386,10.0,1815876823725000,7.289917,Bike
Fix,FLP,37.4232399,-122.1631004,-7.599999904632568,4.4945464,7.889,281.45654,1678381061946,0.065808386,10.0,1815876823725000,1.6140776,Bike
Fix,GPS,37.4232420963,-122.163167904,2.928820176040638,4.0769014,6.9192963,277.2738,1678381062000,0.04946208,10.0,1815877823701000,7.1145983,Bike
Fix,FLP,37.4232425,-122.1631469,-10.170034868344096,4.089165,7.734,278.02826,1678381062946,0.04946208,10.0,1815877823701000,1.6236904,Bike
Fix,GPS,37.4232463243,-122.1632144848,3.193562650641216,3.7641203,7.120286,279.86264,1678381063000,0.4209657,10.0,1815878823738000,7.068176,Bike
Fix,FLP,37.4232458,-122.1631974,-7.599999904632568,3.7738004,7.562,278.88434,1678381063946,0.4209657,10.0,1815878823738000,1.6012598,Bike
Fix,GPS,37.4232508394,-122.1632562492,2.8658320523918035,3.5268373,7.2832546,284.64096,1678381064000,0.39124086,10.0,1815879823732000,7.0197716,Bike
Fix,FLP,37.4232508,-122.1632488,-10.374420576296536,3.52838,7.371,283.8986,1678381064946,0.39124086,10.0,1815879823732000,1.610198,Bike
Fix,GPS,37.4232597394,-122.1632968151,3.018058395769541,3.805965,7.4268017,290.2678,1678381065000,0.41391635,10.0,1815880823757000,6.9916716,Bike
Fix,FLP,37.4232582,-122.1632893,-5.789857272694544,3.798546,7.261,289.80438,1678381065946,0.41391635,10.0,1815880823757000,1.6196662,Bike
Fix,GPS,37.4232748791,-122.1633359603,3.243582849893902,3.8021376,7.5139446,298.35175,1678381066000,0.42387965,10.0,1815881823758000,6.9772024,Bike
Fix,FLP,37.4232683,-122.1633217,-7.299999713897705,3.8052852,7.252,294.01535,1678381066946,0.42387965,10.0,1815881823758000,1.6337136,Bike
Fix,GPS,37.4232860364,-122.1633868399,2.822445338104838,3.9189608,7.4685354,291.12146,1678381067000,0.37373036,10.0,1815882823760000,6.957516,Bike
Fix,FLP,37.4232814,-122.1633624,5.068000034758166,3.8752103,7.318,294.45526,1678381067946,0.37373036,10.0,1815882823760000,1.6446252,Bike
Fix,GPS,37.4232995906,-122.1634283275,2.782605668814036,3.9634495,7.531584,288.4459,1678381068000,0.39685145,10.0,1815883823823000,6.9462137,Bike
Fix,FLP,37.423294,-122.1634065,8.893498920853808,3.939926,7.405,289.56924,1678381068946,0.39685145,10.0,1815883823823000,1.6551025,Bike
Fix,GPS,37.4233133605,-122.1634721052,3.282406088317268,4.163672,7.581977,297.74615,1678381069000,0.41059378,10.0,1815884823847000,6.9576106,Bike
Fix,FLP,37.4233062,-122.1634503,-2.449766842077455,4.0512385,7.475,292.46906,1678381069946,0.41059378,10.0,1815884823847000,1.7074329,Bike
Fix,GPS,37.4233320816,-122.1635079895,2.9119156757777445,3.9526517,7.0419474,310.07928,1678381070000,0.039247144,10.0,1815885823854000,6.625116,Bike
Fix,FLP,37.423323,-122.163493,-10.627929062069231,3.9555287,7.468,308.2746,1678381070946,0.039247144,10.0,1815885823854000,1.718067,Bike
Fix,GPS,37.4233577492,-122.16354251,3.257168920183574,3.9462826,7.0659523,309.8583,1678381071000,0.3647876,10.0,1815886824167000,6.5821843,Bike
Fix,FLP,37.4233477,-122.16353,-7.599999904632568,3.947212,7.399,309.06003,1678381071947,0.3647876,10.0,1815886824167000,1.7330723,Bike
Fix,GPS,37.4233799515,-122.1635792707,3.5160225018290343,3.5725443,7.172015,293.43912,1678381072000,0.42453223,10.0,1815887823893000,6.5739536,Bike
Fix,FLP,37.4233743,-122.1635704,-5.637636945730804,3.5817816,7.344,293.50238,1678381072946,0.42453223,10.0,1815887823893000,1.7518592,Bike
Fix,GPS,37.4233910284,-122.1636189093,4.007766926042791,3.9171948,7.252387,285.19598,1678381073000,0.39621788,10.0,1815888823954000,6.585549,Bike
Fix,FLP,37.4233869,-122.1636037,7.926597153321293,3.762513,7.267,289.04764,1678381073945,0.39621788,10.0,1815888823954000,1.7621313,Bike
Fix,GPS,37.423401184,-122.1636587302,4.112616524187251,3.879135,7.3703427,297.19843,1678381074000,0.42411077,10.0,1815889823928000,6.598248,Bike
Fix,FLP,37.4233969,-122.1636412,8.008160431066438,3.9049537,7.226,291.10214,1678381074946,0.42411077,10.0,1815889823928000,1.7725955,Bike
Fix,GPS,37.4234152957,-122.1636999565,4.013925568783204,3.8671596,7.445642,296.76517,1678381075000,0.3936143,10.0,1815890823922000,6.619283,Bike
Fix,FLP,37.4234089,-122.1636812,8.430272763485181,3.872927,7.216,296.4521,1678381075946,0.3936143,10.0,1815890823922000,2.250427,Bike
Fix,GPS,37.4234289844,-122.1637426549,4.05636133501398,3.3925683,7.5158973,297.15024,1678381076000,0.38075057,10.0,1815891824057000,6.64138,Bike
Fix,FLP,37.423423,-122.1637215,-1.801690342307748,3.4661098,7.288,296.94885,1678381076947,0.38075057,10.0,1815891824057000,1.0994391,Bike
Fix,GPS,37.4234394962,-122.1637843285,4.015345711116455,3.2264757,7.493556,287.80524,1678381077000,0.35554484,10.0,1815892823951000,6.664854,Bike
Fix,FLP,37.4234358,-122.1637628,-7.599999904632568,3.3009436,7.391,292.11478,1678381077946,0.35554484,10.0,1815892823951000,1.3785307,Bike
Fix,GPS,37.4234464366,-122.1638271155,3.919285825685852,3.1070457,7.5199394,289.23996,1678381078000,0.34935537,10.0,1815893823989000,6.7038536,Bike
Fix,FLP,37.4234451,-122.1638074,-7.599999904632568,3.109596,7.433,288.92838,1678381078945,0.34935537,10.0,1815893823989000,1.5383475,Bike
Fix,GPS,37.4234551062,-122.1638665492,3.78455357609033,4.0899925,7.455512,302.92188,1678381079000,0.39797556,10.0,1815894823994000,6.7463403,Bike
Fix,FLP,37.4234527,-122.1638476,-1.304759775928674,3.9919012,7.464,300.7739,1678381079946,0.39797556,10.0,1815894823994000,1.6248916,Bike
Fix,GPS,37.4234741105,-122.1639111434,3.3216265532666007,3.677242,7.4614463,295.03296,1678381080000,0.43812513,10.0,1815895824051000,6.826892,Bike
Fix,FLP,37.423468,-122.1638907,19.05234561502184,3.715336,7.48,295.87167,1678381080947,0.43812513,10.0,1815895824051000,0.8524483,Bike
Fix,GPS,37.4234881121,-122.1639552109,3.3065852103801,3.9040623,7.5128546,291.51978,1678381081000,0.42506102,10.0,1815896824072000,6.9094443,Bike
Fix,FLP,37.4234824,-122.1639341,8.708330590172903,3.8904595,7.493,291.3944,1678381081947,0.42506102,10.0,1815896824072000,0.9265681,Bike
Fix,GPS,37.4235015175,-122.1639982827,3.677609561332841,3.8261561,7.5957456,289.74612,1678381082000,0.43596846,10.0,1815897824226000,6.9692926,Bike
Fix,FLP,37.423496,-122.1639799,-18.8232351618915,3.8321676,7.5,289.19116,1678381082947,0.43596846,10.0,1815897824226000,1.0518736,Bike
Fix,GPS,37.4235122423,-122.164042506,3.701037859173643,3.4912038,7.709517,290.8953,1678381083000,0.42250106,10.0,1815898824063000,7.046783,Bike
Fix,FLP,37.4235075,-122.1640223,-7.599999904632568,3.5215278,7.528,289.94125,1678381083947,0.42250106,10.0,1815898824063000,0.88919467,Bike
Fix,GPS,37.4235215694,-122.1640882455,3.550745624773836,3.5394704,7.7741747,290.3552,1678381084000,0.406998,10.0,1815899823993000,7.1548615,Bike
Fix,FLP,37.4235194,-122.1640714,-7.599999904632568,3.5386302,7.567,289.99655,1678381084946,0.406998,10.0,1815899823993000,0.849328,Bike
Fix,GPS,37.4235318786,-122.1641310992,3.964233466167357,3.6110804,7.866291,279.07684,1678381085000,0.44595957,10.0,1815900824189000,7.2738886,Bike
Fix,FLP,37.4235297,-122.1641162,-2.123572912737492,3.6100783,7.651,279.46243,1678381085947,0.44595957,10.0,1815900824189000,1.412026,Bike
Fix,GPS,37.4235363133,-122.1641844214,4.079980502970216,3.766586,7.906728,280.4692,1678381086000,0.43806013,10.0,1815901824096000,7.3803306,Bike
Fix,FLP,37.4235351,-122.1641638,20.67348522331427,3.7618837,7.731,279.93552,1678381086947,0.43806013,10.0,1815901824096000,0.8420909,Bike
Fix,GPS,37.4235384821,-122.1642335932,4.117498528631787,4.1347365,7.970087,281.8439,1678381087000,0.46319726,10.0,1815902824083000,7.4696913,Bike
Fix,FLP,37.4235394,-122.164215,20.67348522331427,4.123705,7.788,280.91547,1678381087947,0.46319726,10.0,1815902824083000,0.8436965,Bike
Fix,GPS,37.4235405126,-122.1642897449,3.598509786414043,4.35913,7.922883,282.7098,1678381088000,0.4114517,10.0,1815903824079000,7.493079,Bike
Fix,FLP,37.4235428,-122.1642702,13.467098900686144,4.3535395,7.866,281.92047,1678381088947,0.4114517,10.0,1815903824079000,0.8709951,Bike
Fix,GPS,37.4235436443,-122.1643454038,3.273539051293565,4.7502356,7.9292994,272.95612,1678381089000,0.421082,10.0,1815904824097000,7.5544863,Bike
Fix,FLP,37.4235455,-122.1643243,13.467098900686144,4.7368565,7.905,273.06177,1678381089947,0.421082,10.0,1815904824097000,0.85344756,Bike
Fix,GPS,37.42354545,-122.1643995054,3.7389577971796273,4.9087386,7.969298,273.88892,1678381090000,0.43092865,10.0,1815905824129000,7.616982,Bike
Fix,FLP,37.4235459,-122.1643836,14.429359067229392,4.9051733,7.923,272.92575,1678381090947,0.43092865,10.0,1815905824129000,0.9269213,Bike
Fix,GPS,37.4235477789,-122.1644549998,4.178844314488408,5.084567,8.094494,276.89734,1678381091000,0.53833514,10.0,1815906824142000,7.6838264,Bike
Fix,FLP,37.4235477,-122.1644427,9.332809729443683,5.078676,7.955,275.80328,1678381091947,0.53833514,10.0,1815906824142000,0.94773406,Bike
Fix,GPS,37.4235501559,-122.1645176946,4.484262051392026,4.8593884,8.104896,278.80515,1678381092000,0.46441042,10.0,1815907824159000,7.7278695,Bike
Fix,FLP,37.4235504,-122.1644938,20.8591375104624,4.956097,7.993,277.01956,1678381092947,0.46441042,10.0,1815907824159000,0.9196604,Bike
Fix,GPS,37.423557735,-122.1645750591,5.154293193109702,4.4586926,8.106528,281.56522,1678381093000,0.4053201,10.0,1815908824201000,7.789367,Bike
Fix,FLP,37.4235547,-122.1645483,11.431046755865252,4.6360984,8.02,279.54987,1678381093947,0.4053201,10.0,1815908824201000,0.932475,Bike
Fix,GPS,37.4235639049,-122.1646321689,5.050449116502793,4.455701,8.09252,282.4292,1678381094000,0.39505532,10.0,1815909824211000,7.83235,Bike
Fix,FLP,37.4235614,-122.1646041,18.94221186361571,4.4541364,8.06,281.77423,1678381094947,0.39505532,10.0,1815909824211000,0.9040967,Bike
Fix,GPS,37.4235715649,-122.1646872972,5.007445655063336,4.21809,8.0282955,286.43903,1678381095000,0.38830405,10.0,1815910824239000,7.867432,Bike
Fix,FLP,37.4235691,-122.1646619,18.94221186361571,4.2241597,8.08,285.6265,1678381095947,0.38830405,10.0,1815910824239000,0.90517724,Bike
Fix,GPS,37.4235795231,-122.1647438608,4.913332255103371,4.25326,8.01842,289.51443,1678381096000,0.4051319,10.0,1815911824279000,7.878206,Bike
Fix,FLP,37.4235782,-122.1647193,21.698998156365285,4.249128,8.079,288.78705,1678381096947,0.4051319,10.0,1815911824279000,0.902975,Bike
Fix,GPS,37.4235916915,-122.1647957109,5.200037869373614,4.3110275,8.022842,292.0209,1678381097000,0.3979167,10.0,1815912824262000,7.8892207,Bike
Fix,FLP,37.4235892,-122.164775,22.202673766529173,4.306274,8.064,291.81235,1678381097947,0.3979167,10.0,1815912824262000,1.3714738,Bike
Fix,GPS,37.4236030566,-122.164848785,4.834450148869207,4.459753,8.065684,287.81985,1678381098000,0.46179438,10.0,1815913824337000,7.9068103,Bike
Fix,FLP,37.4236021,-122.1648308,14.189547482830177,4.458544,8.054,287.22607,1678381098947,0.46179438,10.0,1815913824337000,1.2280943,Bike
Fix,GPS,37.4236120267,-122.1649025467,4.524681066615827,4.339669,8.045556,283.472,1678381099000,0.42265695,10.0,1815914824226000,7.880041,Bike
Fix,FLP,37.4236122,-122.1648883,14.61236362367931,4.343473,8.04,283.1764,1678381099947,0.42265695,10.0,1815914824226000,2.4041,Bike
Fix,GPS,37.4236199835,-122.1649528518,4.5256570467716974,3.9441335,8.057635,277.91226,1678381100000,0.43984872,10.0,1815915824256000,7.877527,Bike
Fix,FLP,37.4236199,-122.1649434,15.41063450593176,3.9500842,8.039,277.20618,1678381100947,0.43984872,10.0,1815915824256000,1.5640463,Bike
Fix,GPS,37.4236219369,-122.1650020676,4.39340007348463,4.1840444,8.04575,276.39877,1678381101000,0.40505382,10.0,1815916824262000,7.8729725,Bike
Fix,FLP,37.4236222,-122.1649827,12.065339181696018,4.073313,8.046,276.49188,1678381101947,0.40505382,10.0,1815916824262000,0.90382326,Bike
Fix,GPS,37.423625203,-122.1650533083,4.949503445639882,4.586665,8.121495,269.51224,1678381102000,0.5226648,10.0,1815917824336000,7.8974433,Bike
Fix,FLP,37.4236247,-122.1650299,18.845614829716837,4.533166,8.057,270.43024,1678381102947,0.5226648,10.0,1815917824336000,1.1749287,Bike
Fix,GPS,37.423624025,-122.1651057312,4.497447776205511,5.0295725,8.288762,276.17746,1678381103000,0.5954552,10.0,1815918824574000,7.948343,Bike
Fix,FLP,37.4236247,-122.1650849,8.120451098831698,4.9918466,8.086,275.1125,1678381103947,0.5954552,10.0,1815918824574000,1.0756813,Bike
Fix,GPS,37.4236263345,-122.165166098,4.48486382108385,5.054896,8.3845625,277.2939,1678381104000,0.4885921,10.0,1815919824365000,8.048066,Bike
Fix,FLP,37.4236273,-122.1651486,20.014025545361875,5.0539007,8.137,276.92535,1678381104947,0.4885921,10.0,1815919824365000,0.9807717,Bike
Fix,GPS,37.4236319285,-122.1652181266,5.830910837856305,4.9543514,8.438349,282.6283,1678381105000,0.5158775,10.0,1815920824364000,8.147051,Bike
Fix,FLP,37.4236324,-122.1652114,18.788680556028893,4.953814,8.185,281.83823,1678381105947,0.5158775,10.0,1815920824364000,0.94069237,Bike
Fix,GPS,37.4236384127,-122.1652753452,6.297740550896197,4.6973033,8.476162,287.15427,1678381106000,0.47188777,10.0,1815921824602000,8.2151785,Bike
Fix,FLP,37.4236401,-122.1652707,6.406654123869095,4.698505,8.247,286.86368,1678381106947,0.47188777,10.0,1815921824602000,1.6718163,Bike
Fix,GPS,37.4236451656,-122.1653306814,6.557975335015478,4.1791806,8.498274,287.5836,1678381107000,0.43927956,10.0,1815922824403000,8.273231,Bike
Fix,FLP,37.423645,-122.1653078,18.70884366448601,4.419611,8.383,286.97964,1678381107947,0.43927956,10.0,1815922824403000,1.1019211,Bike
Fix,GPS,37.4236497394,-122.1653835119,6.112819546936131,4.5301895,8.549299,287.0379,1678381108000,0.44478709,10.0,1815923824424000,8.305771,Bike
Fix,FLP,37.4236512,-122.1653578,18.314410512821656,4.4803843,8.437,286.85956,1678381108947,0.44478709,10.0,1815923824424000,0.87196517,Bike
Fix,GPS,37.4236576895,-122.1654385622,6.9026814191540415,4.6865554,8.498404,286.904,1678381109000,0.42574385,10.0,1815924824589000,8.344807,Bike
Fix,FLP,37.4236584,-122.1654149,18.70884366448601,4.6810985,8.495,286.05847,1678381109947,0.42574385,10.0,1815924824589000,0.8560223,Bike
Fix,GPS,37.4236666103,-122.1654966294,7.639279049032798,4.4536853,8.472029,286.4904,1678381110000,0.43296728,10.0,1815925824444000,8.359485,Bike
Fix,FLP,37.4236669,-122.1654758,16.944731422962533,4.460129,8.499,286.02676,1678381110947,0.43296728,10.0,1815925824444000,0.8603772,Bike
Fix,GPS,37.423674954,-122.1655568512,7.495717683930094,4.568259,8.505254,285.86362,1678381111000,0.46262476,10.0,1815926824480000,8.34937,Bike
Fix,FLP,37.4236755,-122.1655366,12.064714042925631,4.566302,8.497,285.03546,1678381111947,0.46262476,10.0,1815926824480000,0.8615204,Bike
Fix,GPS,37.4236834692,-122.1656220284,7.059442585165953,4.8257747,8.535578,282.89764,1678381112000,0.52545244,10.0,1815927824467000,8.323922,Bike
Fix,FLP,37.4236821,-122.165592,11.670280891261273,4.68138,8.507,283.5889,1678381112947,0.52545244,10.0,1815927824467000,0.9862746,Bike
Fix,GPS,37.4236908999,-122.1656893917,6.1766513785863095,4.610934,8.548563,281.27893,1678381113000,0.44392076,10.0,1815928824507000,8.284337,Bike
Fix,FLP,37.4236892,-122.1656522,18.442547588942094,4.646187,8.511,281.36768,1678381113947,0.44392076,10.0,1815928824507000,0.9258148,Bike
Fix,GPS,37.4236997296,-122.1657507486,5.772874120711364,4.465607,11.0012865,283.85107,1678381114000,0.7006578,10.0,1815929824495000,8.282329,Bike
Fix,FLP,37.4236965,-122.1657143,19.59637926704038,4.4784794,8.718,282.80194,1678381114947,0.7006578,10.0,1815929824495000,0.90381783,Bike
Fix,GPS,37.4237083294,-122.1658045387,6.065495574705938,4.0646667,8.749662,282.92368,1678381115000,0.46435535,10.0,1815930824515000,8.301527,Bike
Fix,FLP,37.4237062,-122.1657809,18.442547588942094,4.0762606,8.991,282.08862,1678381115947,0.46435535,10.0,1815930824515000,0.904668,Bike
Fix,GPS,37.4237099102,-122.1658603676,5.183511810695702,4.159537,8.814902,280.57642,1678381116000,0.47784495,10.0,1815931824629000,8.367023,Bike
Fix,FLP,37.423712,-122.1658399,9.936851489293998,4.158166,9.045,280.07507,1678381116947,0.47784495,10.0,1815931824629000,0.9196517,Bike
Fix,GPS,37.4237138892,-122.1659138383,5.307525627835927,4.159537,37.4136,280.57642,1678381117000,1.8509578,180.0,1815932824541000,8.517496,Bike
Fix,FLP,37.4237144,-122.1658792,16.64914858054638,4.1593914,96.0,279.99814,1678381117947,1.8509578,180.0,1815932824541000,0.92104596,Bike
Fix,GPS,37.423716992,-122.1659585799,6.395766986767478,4.3141975,9.353474,268.3545,1678381118000,0.68318856,10.0,1815933824561000,8.676544,Bike
