Fix,Provider,LatitudeDegrees,LongitudeDegrees,AltitudeMeters,SpeedMps,AccuracyMeters,BearingDegrees,UnixTimeMillis,SpeedAccuracyMps,BearingAccuracyDegrees,elapsedRealtimeNanos,VerticalAccuracyMeters,TransitType
Fix,FLP,37.4278359,-122.1748372,-1.3627067527773988,0.022780491,9.433,,1675805140845,,,4159651461956658,1.9333028,Bike
Fix,GPS,37.4278545815,-122.1750044746,26.186583815539013,0.0,10.879933,,1675805141580,0.17249563,,4159652766647866,22.474234,Bike
Fix,FLP,37.4278346,-122.1748311,-1.36169882553682,0.03358903,8.82,,1675805141859,,,4159652474776543,1.9700516,Bike
Fix,GPS,37.4278482828,-122.1750019881,24.130569648864288,0.0,8.446234,,1675805142580,0.21514061,,4159653760017048,17.59806,Bike
Fix,FLP,37.427839,-122.174888,-1.3218856034415438,0.1127761,8.357,272.15958,1675805143145,0.21514061,,4159653760017048,1.9798303,Bike
Fix,NLP,37.4279456,-122.1747923,3.1000001430511475,,23.594,,1675805144430,,,4159655045000000,3.1456666,Bike
Fix,FLP,37.4278421,-122.1749287,-1.2619134339171296,0.22246559,8.132,272.24274,1675805144430,0.21514061,,4159655045000000,1.9534969,Bike
Fix,GPS,37.4278518595,-122.1749850713,30.21505970090648,0.0,6.493367,,1675805143999,0.22768109,,4159655166297159,13.487703,Bike
Fix,FLP,37.4278458,-122.1749505,-1.2049646774202785,0.3038284,7.804,273.5111,1675805144551,0.22768109,,4159655166297159,1.955637,Bike
Fix,GPS,37.4278462012,-122.1749755314,31.743311557140583,0.0,6.0453396,,1675805144999,0.21927446,,4159656188871094,12.314914,Bike
Fix,FLP,37.427846,-122.1749637,-1.1757341932290046,0.40842262,7.511,272.81802,1675805145573,0.21927446,,4159656188871094,1.9660469,Bike
Fix,GPS,37.4278409104,-122.1749677641,32.70709412280112,0.0,5.731819,,1675805145999,0.21535796,,4159657114517000,11.422105,Bike
Fix,FLP,37.4278436,-122.1749679,-1.324190646882414,0.40800208,7.113,265.2874,1675805146499,0.21535796,,4159657114517000,2.0044072,Bike
Fix,GPS,37.4278434105,-122.1749663265,33.54146046440208,0.0,5.598642,,1675805146999,20.0,,4159658114505000,10.739207,Bike
Fix,FLP,37.4278434,-122.1749691,-1.3342700328500283,0.33854088,6.793,264.53088,1675805147499,20.0,,4159658114505000,2.014099,Bike
Fix,GPS,37.4278391095,-122.1749650995,33.49213894607966,0.0,5.740396,,1675805147999,0.27740964,,4159659114555000,10.6060505,Bike
Fix,FLP,37.4278417,-122.1749679,-1.3977698880880212,0.23462567,6.236,251.60223,1675805148498,0.27740964,,4159659114555000,2.0246468,Bike
Fix,FLP,37.4278404,-122.1749146,-1.3977698880880212,0.63954735,6.138,90.11573,1675805149342,,,4159659957936701,2.0246468,Bike
Fix,GPS,37.4278406173,-122.1749638804,33.08758577504138,0.0,5.9551644,,1675805148999,0.31736764,,4159660114699000,10.485439,Bike
Fix,GPS,37.427840337,-122.1749637063,33.123889274843776,0.0,6.118718,,1675805149999,0.36334372,,4159661114834000,10.422697,Bike
Fix,FLP,37.4278396,-122.1748597,-11.546574292591202,0.52501327,5.804,90.01068,1675805150428,,,4159661043115900,2.0446167,Bike
Fix,NLP,37.427857,-122.1748862,3.400000095367432,,24.422,,1675805150979,,,4159661595000000,7.731088,Bike
Fix,FLP,37.4278392,-122.1748392,-11.889995930497705,0.32871717,5.846,90.00651,1675805150969,,,4159661585718012,1.9876537,Bike
Fix,GPS,37.4278392204,-122.1749635028,33.14993700480981,0.0,6.167314,,1675805150999,0.357144,,4159662114596000,10.28166,Bike
Fix,FLP,37.427839,-122.1748305,-11.952273143462987,0.26959878,5.932,90.00353,1675805151513,,,4159662128294611,2.0370815,Bike
Fix,GPS,37.4278427108,-122.174960914,32.561053602658184,0.0,6.289706,,1675805151999,0.3455142,,4159663114839000,10.138079,Bike
Fix,FLP,37.4278389,-122.1748268,-9.190518714693567,0.16895653,6.036,90.00016,1675805152598,,,4159663213482415,2.0471013,Bike
Fix,FLP,37.4278384,-122.1748226,-9.190518714693567,0.12052159,6.052,90.00006,1675805153141,,,4159663756074579,2.0471013,Bike
Fix,GPS,37.4278449932,-122.1749612309,32.354318044431466,0.0,6.430631,,1675805152999,0.36337408,,4159664114634000,10.034516,Bike
Fix,FLP,37.427838,-122.1748207,-4.403891770174226,0.086619765,6.165,,1675805153682,,,4159664298662958,2.0498776,Bike
Fix,NLP,37.4278543,-122.1748613,-0.3999999463558197,,28.938,,1675805154499,,,4159665114000000,5.33678,Bike
Fix,FLP,37.4278377,-122.1748196,-0.3999999463558197,0.053533185,6.296,,1675805154226,,,4159664841251642,3.293242,Bike
Fix,GPS,37.427845161,-122.1749598849,31.69910680756538,0.0,6.6116343,,1675805153999,0.39336643,,4159665114632000,10.017002,Bike
Fix,FLP,37.4278374,-122.1748202,-0.3999999463558197,0.018595645,6.433,,1675805154752,,,4159665367795160,2.4116645,Bike
Fix,FLP,37.4278377,-122.1748206,-0.3999999463558197,0.0019182067,6.506,,1675805155311,,,4159665926426141,2.4116645,Bike
Fix,GPS,37.4278445338,-122.1749606886,31.251698215666803,0.0,6.6795487,,1675805154999,0.38555092,,4159666114659000,9.952629,Bike
Fix,GPS,37.4278435828,-122.1749635452,30.882073043300032,0.0,6.7989864,,1675805155999,0.44455385,,4159667114673000,9.9334135,Bike
Fix,FLP,37.4278382,-122.1748221,3.1000001430511475,0.0015626169,6.92,,1675805156396,,,4159667011594294,2.6907487,Bike
Fix,FLP,37.4278385,-122.1748241,3.1000001430511475,0.0025826623,7.043,,1675805157476,,,4159668091000000,2.6907487,Bike
Fix,GPS,37.4278423458,-122.1749666191,30.19986797444924,0.0,6.750736,,1675805156999,0.37043938,,4159668114678000,9.802099,Bike
Fix,GPS,37.4278445521,-122.1749645035,30.183902807592027,0.0,6.8371196,,1675805157999,0.397203,,4159669114740000,9.82173,Bike
Fix,FLP,37.4278393,-122.1748242,-0.3999999463558197,0.0047104047,7.431,,1675805158565,,,4159669181936212,2.7107487,Bike
Fix,NLP,37.427901,-122.1749404,3.1000001430511475,,21.815,,1675805159558,,,4159670173000000,5.8957324,Bike
Fix,FLP,37.4278397,-122.1748243,3.1000001430511475,0.0052325996,7.676,,1675805159108,,,4159669724515009,4.200592,Bike
Fix,GPS,37.4278412422,-122.1749567272,30.662554629130728,0.0,6.8032737,,1675805158999,0.39250684,,4159670114733000,9.621651,Bike
Fix,GPS,37.4278359426,-122.1749556284,31.287837744025243,0.0,6.77594,,1675805159999,0.3996587,,4159671114741000,9.205332,Bike
Fix,FLP,37.4278412,-122.1748245,3.1000001430511475,0.009261476,7.876,,1675805160194,,,4159670809676386,4.096879,Bike
Fix,FLP,37.4278417,-122.1748253,3.1000001430511475,0.008467712,7.838,,1675805160737,,,4159671352258539,4.096879,Bike
Fix,FLP,37.4278428,-122.1748242,3.1000001430511475,0.010749888,7.796,,1675805161278,,,4159671894834039,4.096879,Bike
Fix,GPS,37.4278335074,-122.1749559796,31.293188914836627,0.0,6.741659,,1675805160999,20.0,,4159672114781000,8.952436,Bike
Fix,GPS,37.4278344697,-122.1749494277,31.91400967139493,0.0,6.6522837,,1675805161999,0.3923095,,4159673114784000,8.687602,Bike
Fix,FLP,37.4278442,-122.1748233,3.1000001430511475,0.00926355,7.661,,1675805162364,,,4159672979988825,4.2210927,Bike
Fix,GPS,37.427835426,-122.1749372647,32.93606361336262,0.850917,6.4735565,15.035323,1675805162999,0.3723483,20.167889,4159674114794000,8.388421,Bike
Fix,FLP,37.4278423,-122.1748235,-16.82674619454407,0.004715747,7.633,,1675805163449,,,4159674065141596,3.4088087,Bike
Fix,NLP,37.4279527,-122.1748824,3.1000001430511475,,23.748,,1675805164569,,,4159675184000000,3.6496246,Bike
Fix,GPS,37.4278491957,-122.174924416,34.81934116538209,1.4637473,6.2397738,13.337014,1675805163999,0.39163506,12.076158,4159675115056000,8.157918,Bike
Fix,FLP,37.4278406,-122.1748237,26.721399902924247,0.42055893,7.526,44.344322,1675805164535,,,4159675150293940,4.4180093,Bike
Fix,FLP,37.4278414,-122.1748223,27.4646831753044,0.88392514,7.509,43.358395,1675805165077,,,4159675692865045,3.3539758,Bike
Fix,GPS,37.4278714184,-122.1749118033,36.08116989027454,1.6107938,5.9497356,19.643578,1675805164999,0.4384358,12.895931,4159676114819000,7.944818,Bike
Fix,FLP,37.4278422,-122.1748217,3.1000001430511475,1.0649368,7.546,44.277466,1675805165619,,,4159676235437738,3.385774,Bike
Fix,GPS,37.4278979084,-122.1749008366,36.48531513408058,2.0148716,5.8514385,13.346974,1675805165999,0.41326421,10.0,4159677114845000,7.891219,Bike
Fix,FLP,37.4278463,-122.1748174,-11.975813315950973,1.2666023,7.662,43.308926,1675805166162,,,4159676777998834,3.3744118,Bike
Fix,GPS,37.4279217521,-122.1748863557,37.949621458364255,1.902996,5.7010713,19.84875,1675805166999,0.35950115,10.028766,4159678114855000,7.7232013,Bike
Fix,FLP,37.4278682,-122.1748304,-6.31219949428278,1.5272925,7.901,21.068474,1675805167248,,,4159677863150445,3.3844118,Bike
Fix,GPS,37.4279435783,-122.1748794074,38.98690513593506,1.5330112,5.6650524,9.886753,1675805167999,0.41742802,14.430006,4159679114883000,7.657062,Bike
Fix,FLP,37.4278913,-122.1748349,-5.951549353577818,1.7236272,8.245,16.60458,1675805168333,,,4159678948293756,3.3943884,Bike
Fix,FLP,37.4279074,-122.1748406,-5.951549353577818,1.6993101,8.422,12.84935,1675805168850,,,4159679465000000,3.3943884,Bike
Fix,GPS,37.4279610721,-122.174874794,38.34456777366783,2.1219044,5.64069,4.546691,1675805168999,0.38657302,10.0,4159680115150000,7.634489,Bike
Fix,FLP,37.427924,-122.1748438,-4.845325293624782,1.6701367,8.681,11.812766,1675805169418,,,4159680033428460,3.4043884,Bike
Fix,GPS,37.4279879894,-122.1748657796,36.771103316563966,2.3486753,5.732608,1.3785973,1675805169999,0.43318632,10.0,4159681114904000,7.6342096,Bike
Fix,FLP,37.4279497,-122.1748487,-3.04513490191286,1.8360952,9.414,7.9978466,1675805170503,,,4159681118567133,3.4143984,Bike
Fix,GPS,37.4280257984,-122.1748654655,35.05762076618648,3.0824802,5.792972,4.690267,1675805170999,0.35400885,10.0,4159682114873000,7.6003895,Bike
Fix,FLP,37.4279781,-122.1748483,6.5850611135937385,2.101999,9.596,5.29378,1675805171587,,,4159682203700433,3.4243984,Bike
Fix,GPS,37.4280878107,-122.1748503572,28.74442523810188,3.4446821,5.7279654,7.6903915,1675805171999,0.3152901,10.0,4159683114924000,7.4038005,Bike
Fix,FLP,37.4280166,-122.174849,26.09635026802449,2.585244,9.597,3.4532743,1675805172673,,,4159683288831781,3.4343884,Bike
Fix,GPS,37.4281368431,-122.1748349335,27.13859302705653,3.241208,5.6363134,10.566509,1675805172999,0.32306302,10.0,4159684114944000,7.3029447,Bike
Fix,FLP,37.428059,-122.1748442,26.09635026802449,3.060454,9.54,4.2359304,1675805173215,,,4159683831399347,3.4443884,Bike
Fix,FLP,37.4280847,-122.1748374,26.09635026802449,3.1897388,9.468,6.4582877,1675805173752,,,4159684367795160,3.4443884,Bike
Fix,FLP,37.4281204,-122.1748285,26.09635026802449,3.2646446,9.365,8.566107,1675805174300,,,4159684916512567,3.4443884,Bike
Fix,GPS,37.4281784615,-122.1748276763,25.732818831057784,3.3304224,5.571781,9.084339,1675805173999,0.47017887,10.0,4159685114967000,7.231711,Bike
Fix,GPS,37.4282232462,-122.1748245094,23.949210701107184,4.068645,5.4807944,1.8751298,1675805174999,0.2655793,10.0,4159686114985000,7.0385795,Bike
Fix,FLP,37.428165,-122.1748184,-9.326462848952389,3.3446162,9.284,10.14696,1675805175386,,,4159686001651117,3.6294358,Bike
Fix,NLP,37.4279867,-122.1749375,-0.1000000014901161,,24.328,,1675805169517,,,4159680133000000,4.5045476,Bike
Fix,FLP,37.4282352,-122.1748261,-9.326462848952389,4.068645,9.223,359.51767,1675805175929,,,4159686544213861,3.6127465,Bike
Fix,GPS,37.4282634772,-122.1748268476,21.882736008044816,3.9464893,5.0724964,3.6990323,1675805175999,0.046899583,10.0,4159687114962000,6.579027,Bike
Fix,FLP,37.4282578,-122.1748308,-9.21770771644401,3.5418024,9.062,359.0978,1675805176471,,,4159687086775873,3.6197267,Bike
Fix,FLP,37.428275,-122.1748293,-9.21770771644401,3.6898582,8.816,0.8977054,1675805177014,,,4159687629342218,3.6197267,Bike
Fix,GPS,37.4283062747,-122.1748263311,20.79900637901577,3.950562,5.022818,3.4075706,1675805176999,0.298106,10.0,4159688114942000,6.432521,Bike
Fix,FLP,37.4282798,-122.1748281,-7.682902762552672,3.8178003,8.716,0.398147,1675805177556,,,4159688171887384,3.6297266,Bike
Fix,FLP,37.4283149,-122.1748256,-7.682902762552672,3.9386363,8.631,1.233769,1675805178099,,,4159688714461115,3.6297266,Bike
Fix,GPS,37.4283458912,-122.1748262045,20.23781706694085,4.5912533,4.9463754,355.23962,1675805177999,0.27135748,10.0,4159689115231000,6.283806,Bike
Fix,FLP,37.4283227,-122.1748247,3.1000001430511475,3.9487443,8.497,0.7104408,1675805178642,,,4159689257022150,3.7580552,Bike
Fix,FLP,37.4283573,-122.1748258,3.1000001430511475,4.489752,8.402,354.76135,1675805179183,,,4159689799583917,3.7580552,Bike
Fix,GPS,37.4283940108,-122.1748357603,19.440849082550372,5.143168,4.864631,343.10153,1675805178999,0.30356118,10.0,4159690114998000,6.169235,Bike
Fix,FLP,37.4283935,-122.1748354,29.48320155080569,4.9375744,8.307,345.56613,1675805179726,,,4159690342142267,3.7680151,Bike
Fix,GPS,37.4284416875,-122.1748616041,18.16263869404111,5.774241,4.7734733,321.64804,1675805179999,0.288313,10.0,4159691115065000,6.067364,Bike
Fix,FLP,37.42843,-122.1748567,17.383860772137595,5.7348123,7.986,321.77347,1675805180500,0.288313,10.0,4159691115065000,3.7780151,Bike
Fix,GPS,37.4284841665,-122.1749123909,17.90002644307559,5.8043804,4.6986237,303.23776,1675805180999,0.3354212,10.0,4159692115053000,6.0075803,Bike
Fix,FLP,37.4284797,-122.1749076,14.712785226214294,5.811052,7.573,303.50983,1675805181500,0.3354212,10.0,4159692115053000,3.7880151,Bike
Fix,NLP,37.4285527,-122.1751543,-1.100000023841858,,33.035,,1675805181742,,,4159692357000000,1.0749035,Bike
Fix,FLP,37.4284857,-122.1749175,20.848577230241943,5.807915,7.444,303.50882,1675805181742,0.3354212,10.0,4159692357000000,3.6468563,Bike
Fix,GPS,37.4285108714,-122.1749778776,17.457224747727334,5.7796254,4.7479277,288.12833,1675805181999,0.30067253,10.0,4159693115075000,5.950015,Bike
Fix,FLP,37.4285089,-122.1749719,20.848577230241943,5.795643,6.872,288.5996,1675805182500,0.30067253,10.0,4159693115075000,3.6550865,Bike
Fix,GPS,37.4285271529,-122.1750456218,16.83038042232645,6.1913214,4.5976787,288.68018,1675805182999,0.30649853,10.0,4159694115108000,5.7817965,Bike
Fix,FLP,37.4285267,-122.1750419,16.747453084249997,6.1870174,6.448,287.98575,1675805183500,0.30649853,10.0,4159694115108000,3.6623547,Bike
Fix,GPS,37.428545235,-122.1751189141,16.127468229639955,6.029673,4.4980392,288.27573,1675805183999,0.29901144,10.0,4159695115118000,5.597633,Bike
Fix,FLP,37.4285448,-122.1751156,3.1000001430511475,6.03168,5.416,288.0166,1675805184499,0.29901144,10.0,4159695115118000,3.6699252,Bike
Fix,GPS,37.4285587574,-122.1751860894,15.97910818841728,5.8668,4.3446236,283.82706,1675805184999,0.037781123,10.0,4159696115126000,5.251668,Bike
Fix,FLP,37.4285596,-122.1751843,-8.46242514209716,5.872194,4.839,283.2236,1675805185500,0.037781123,10.0,4159696115126000,3.6524198,Bike
Fix,GPS,37.4285703803,-122.1752530423,15.270597589433285,5.771256,4.3893285,283.07785,1675805185999,0.024714543,10.0,4159697115140000,5.057101,Bike
Fix,FLP,37.4285708,-122.1752518,-8.348623384367414,5.771876,4.788,283.01636,1675805186499,0.024714543,10.0,4159697115140000,3.6624198,Bike
Fix,GPS,37.4285832335,-122.1753191574,15.206400943273035,5.5912294,4.3442936,284.17157,1675805186999,0.02739077,10.0,4159698115167000,4.8319016,Bike
Fix,FLP,37.428583,-122.175318,-5.328792315220156,5.5912657,4.434,283.9787,1675805187500,0.02739077,10.0,4159698115167000,3.6724098,Bike
Fix,GPS,37.428593486,-122.1753776523,14.389572573883193,5.4204636,4.4979243,284.16202,1675805187999,0.02250991,10.0,4159699115169000,4.650458,Bike
Fix,FLP,37.428594,-122.1753783,-1.100000023841858,5.4211864,4.414,284.0123,1675805188500,0.02250991,10.0,4159699115169000,3.6824198,Bike
Fix,GPS,37.428605946,-122.1754372596,14.177857011804504,5.2373557,4.388733,285.74225,1675805188999,0.029502003,10.0,4159700115193000,4.496073,Bike
Fix,FLP,37.4286059,-122.1754375,-0.1000000014901161,5.237498,4.393,284.98273,1675805189500,0.029502003,10.0,4159700115193000,3.6924298,Bike
Fix,GPS,37.4286181034,-122.1754922935,13.798098523509788,5.092501,4.497867,286.6151,1675805189999,0.029301113,10.0,4159701115184000,4.348241,Bike
Fix,FLP,37.4286181,-122.1754931,-1.100000023841858,5.0925117,4.423,285.98096,1675805190499,0.029301113,10.0,4159701115184000,3.7024398,Bike
Fix,GPS,37.4286327212,-122.1755452709,13.57899402032171,4.935992,4.424054,288.48618,1675805190999,0.030165024,10.0,4159702115262000,4.2188764,Bike
Fix,FLP,37.4286321,-122.1755464,-1.100000023841858,4.9355354,4.43,287.95782,1675805191499,0.030165024,10.0,4159702115262000,3.7124197,Bike
Fix,GPS,37.4286476001,-122.1755967495,13.596173633681252,4.7364206,4.2612896,288.399,1675805191999,0.053152014,10.0,4159703115300000,4.116482,Bike
Fix,FLP,37.428647,-122.1755976,-1.100000023841858,4.7375426,4.414,288.01767,1675805192500,0.053152014,10.0,4159703115300000,3.7224097,Bike
Fix,GPS,37.4286604001,-122.1756472749,13.322731372711068,4.5667014,4.6158013,287.72626,1675805192999,0.04097191,10.0,4159704115234000,4.01523,Bike
Fix,FLP,37.4286593,-122.1756433,3.1000001430511475,4.568866,4.408,287.06323,1675805193499,0.04097191,10.0,4159704115234000,3.908152,Bike
Fix,GPS,37.4286752979,-122.175694698,13.055766916164432,4.414949,4.402277,292.599,1675805193999,0.04288957,10.0,4159705115256000,3.932286,Bike
Fix,FLP,37.4286719,-122.1756872,3.1000001430511475,4.41134,4.439,291.7914,1675805194499,0.04288957,10.0,4159705115256000,3.918162,Bike
Fix,GPS,37.4286908421,-122.1757424634,13.050789734436014,4.24579,5.1192245,287.56955,1675805194999,0.3432716,10.0,4159706115253000,4.0604453,Bike
Fix,FLP,37.4286894,-122.1757394,-1.100000023841858,4.248836,4.528,287.1211,1675805195500,0.3432716,10.0,4159706115253000,3.928152,Bike
Fix,GPS,37.4286984658,-122.1757874687,13.197544032205167,4.134953,5.1193304,283.71616,1675805195999,0.07086649,10.0,4159707115583000,4.0028176,Bike
Fix,FLP,37.4286958,-122.1757682,-1.100000023841858,4.177944,4.736,285.06973,1675805196500,0.07086649,10.0,4159707115583000,3.938142,Bike
Fix,GPS,37.4287011281,-122.1758329682,13.15065159789394,4.026677,4.342648,280.84076,1675805196999,0.05035467,10.0,4159708115264000,3.9298816,Bike
Fix,FLP,37.4287027,-122.1758262,-1.100000023841858,4.028225,4.697,280.11935,1675805197500,0.05035467,10.0,4159708115264000,3.948142,Bike
Fix,GPS,37.4287105007,-122.1758756332,13.15636419949003,3.8941438,4.6817627,287.57614,1675805197999,0.03635379,10.0,4159709115320000,3.8716033,Bike
Fix,FLP,37.4287054,-122.1758539,-1.100000023841858,3.629221,5.126,349.77536,1675805198516,,,4159709132729120,3.958132,Bike
Fix,NLP,37.4287575,-122.1759851,-1.0000001192092896,,37.112,,1675805198493,,,4159709108000000,1.7136041,Bike
Fix,FLP,37.4287179,-122.1758604,-1.0000001192092896,3.7106051,5.648,357.5744,1675805199059,,,4159709675279474,2.580356,Bike
Fix,FLP,37.4287248,-122.175874,-1.0000001192092896,3.3122752,6.007,349.3598,1675805199602,,,4159710217820917,2.580356,Bike
Fix,GPS,37.4287172906,-122.1759142131,13.015944491773777,3.7647572,4.342319,284.2986,1675805198999,0.03093036,10.0,4159710115289000,3.813187,Bike
Fix,GPS,37.4287264191,-122.175954264,12.991069806618569,3.5726476,4.342155,288.05328,1675805199999,0.029267253,10.0,4159711115331000,3.7594092,Bike
Fix,FLP,37.4287301,-122.1759327,-1.0000001192092896,3.7704685,6.433,287.58038,1675805200687,,,4159711302938959,2.4748685,Bike
Fix,GPS,37.4287406787,-122.1759841212,12.82552007853052,3.0869548,4.3419905,307.7771,1675805200999,0.029726524,10.0,4159712115354000,3.7187886,Bike
Fix,FLP,37.4287361,-122.1759762,-1.0000001192092896,3.5811348,6.657,291.27716,1675805201230,,,4159711845492487,2.0335734,Bike
Fix,FLP,37.4287536,-122.176007,-1.0000001192092896,3.1382675,7.041,318.0959,1675805202315,,,4159712930599481,2.0335734,Bike
Fix,GPS,37.4287538662,-122.17600234,12.573160266941295,2.2528908,4.341826,321.84473,1675805201999,0.056740776,10.0,4159713115329000,3.6935968,Bike
Fix,NLP,37.4288378,-122.1763375,-0.8999999761581421,,37.276,,1675805203501,,,4159714117000000,2.0270338,Bike
Fix,FLP,37.428773,-122.1760236,3.204436913656295,2.337911,7.357,322.77206,1675805203399,,,4159714015706049,2.19093,Bike
Fix,GPS,37.4287679473,-122.1760180076,12.531278432223074,1.1221251,4.341662,306.21802,1675805202999,0.27700225,13.889699,4159714115350000,3.8438637,Bike
Fix,FLP,37.4287749,-122.1760297,4.7833471000484025,1.2189887,7.383,305.881,1675805203911,,,4159714526312372,2.1956463,Bike
Fix,GPS,37.4287680689,-122.1760205078,12.686101854943534,0.0,4.4679885,306.21802,1675805203999,0.039411332,180.0,4159715115667000,3.8163764,Bike
Fix,FLP,37.4287754,-122.1760372,15.653099340987763,1.1317772,7.41,298.2946,1675805204485,,,4159715100812616,2.2075264,Bike
Fix,FLP,37.4287765,-122.1760345,15.653099340987763,0.07016507,7.425,,1675805205027,,,4159715643368463,2.2075264,Bike
Fix,GPS,37.4287677779,-122.1760224453,12.92156211569913,0.5031432,4.682351,306.21802,1675805204999,0.2659817,50.15197,4159716115387000,3.8137197,Bike
Fix,FLP,37.428777,-122.176033,22.557466843723997,0.020741934,7.429,,1675805205570,,,4159716185919062,2.218483,Bike
Fix,GPS,37.4287681063,-122.1760233752,13.429837998930578,0.0,4.3411694,306.21802,1675805205999,0.03158595,180.0,4159717115350000,3.7405748,Bike
Fix,FLP,37.4287777,-122.1760386,18.26379857231913,0.4708606,7.429,210.49211,1675805206656,,,4159717271021722,2.4447982,Bike
Fix,GPS,37.4287681063,-122.1760233752,13.78413237077594,0.0,4.341005,306.21802,1675805206999,0.026138155,180.0,4159718115399000,3.687178,Bike
Fix,FLP,37.4287783,-122.1760402,16.974736044151726,0.0340054,7.49,,1675805207198,,,4159717813576960,2.4538832,Bike
Fix,GPS,37.4287681063,-122.1760233752,13.996919870451237,0.0,4.340841,306.21802,1675805207999,0.023255842,180.0,4159719115379000,3.6340444,Bike
Fix,FLP,37.4287811,-122.1760379,13.314203549807004,1.973735e-05,7.46,,1675805208283,,,4159718898675470,2.463483,Bike
Fix,NLP,37.4288278,-122.1761669,-1.0000001192092896,,43.632,,1675805209612,,,4159720227000000,1.3957968,Bike
Fix,FLP,37.428784,-122.1760366,4.482230448680284,0.0006628964,7.312,,1675805209368,,,4159719983790888,2.3728824,Bike
Fix,GPS,37.4287681063,-122.1760233752,14.222387598745271,0.0,4.29103,306.21802,1675805208999,0.15719183,180.0,4159720115413000,3.6147542,Bike
Fix,GPS,37.4287681063,-122.1760233752,14.477857990657222,0.0,4.2907925,306.21802,1675805209999,0.023479005,180.0,4159721115406000,3.5709922,Bike
Fix,FLP,37.4287857,-122.1760357,2.051689222790216,0.000244182,7.021,,1675805210452,,,4159721068905451,2.3643587,Bike
Fix,GPS,37.4287681063,-122.1760233752,14.464922879672567,0.0,4.290555,306.21802,1675805210999,0.018668842,180.0,4159722115434000,3.5229647,Bike
Fix,FLP,37.4287861,-122.1760348,-1.0000001192092896,0.00049811375,6.95,,1675805211539,,,4159722154021722,2.2975256,Bike
Fix,GPS,37.4287681063,-122.1760233752,14.426592762388982,0.0,4.2903175,306.21802,1675805211999,0.018109921,180.0,4159723115445000,3.4623504,Bike
Fix,FLP,37.4287867,-122.1760334,-1.0000001192092896,0.000691056,6.928,,1675805212624,,,4159723239153986,2.2192526,Bike
Fix,FLP,37.4287869,-122.1760318,-1.0000001192092896,0.00055606867,6.899,,1675805213166,,,4159723781720880,2.2192526,Bike
Fix,GPS,37.4287681063,-122.1760233752,14.650607375660243,0.0,4.2900796,306.21802,1675805212999,0.018082159,33.68906,4159724115488000,3.40382,Bike
Fix,GPS,37.4287681063,-122.1760233752,14.813733591165668,0.0,4.289841,306.21802,1675805213999,0.27216378,180.0,4159725115483000,3.406337,Bike
Fix,FLP,37.4287869,-122.1760307,-1.0000001192092896,0.00026442914,6.831,,1675805214251,,,4159724866857172,2.2776587,Bike
Fix,FLP,37.4287868,-122.1760304,-1.0000001192092896,0.00023053901,6.772,,1675805214797,,,4159725412000000,2.2776587,Bike
Fix,NLP,37.4288421,-122.176309,-1.0000001192092896,,28.083,,1675805214779,,,4159725395000000,2.291798,Bike
Fix,GPS,37.4287681063,-122.1760233752,14.926981932083708,0.0,4.518626,306.21802,1675805214999,0.3433116,57.50208,4159726115597000,3.4268546,Bike
Fix,FLP,37.4287864,-122.1760356,-1.0000001192092896,0.017743874,6.707,,1675805215336,,,4159725951997370,2.1632016,Bike
Fix,GPS,37.4287681063,-122.1760233752,14.937618149864704,0.0,4.498958,306.21802,1675805215999,0.4463414,180.0,4159727115493000,3.4582074,Bike
Fix,FLP,37.4287865,-122.1760398,-6.18426112158501,0.001066287,6.668,,1675805216421,,,4159727037129633,2.1709204,Bike
Fix,GPS,37.4287681063,-122.1760233752,14.896610357726118,0.0,4.6038375,306.21802,1675805216999,0.09876835,180.0,4159728115555000,3.4581606,Bike
Fix,FLP,37.4287866,-122.1760398,-6.483452553079175,7.094203e-05,6.655,,1675805217507,,,4159728122289057,2.17643,Bike
Fix,GPS,37.4287681063,-122.1760233752,14.935795256080832,0.0,4.700472,306.21802,1675805217999,0.044634964,12.325141,4159729115726000,3.451233,Bike
Fix,FLP,37.4287868,-122.1760394,-4.982351793695045,7.606769e-05,6.668,,1675805218592,,,4159729207436090,2.1830947,Bike
Fix,FLP,37.4287864,-122.176039,-4.982351793695045,0.00013876171,6.675,,1675805219135,,,4159729750009211,2.1830947,Bike
Fix,GPS,37.4287681063,-122.1760233752,14.952518905310628,0.0,4.700441,306.21802,1675805218999,0.36753315,65.78383,4159730115608000,3.4804485,Bike
Fix,NLP,37.4287972,-122.1762748,-0.8999999761581421,,28.48,,1675805219885,,,4159730500000000,1.5765158,Bike
Fix,FLP,37.4287859,-122.1760386,-5.265465688328405,0.00014176212,6.754,,1675805219677,,,4159730292581537,2.1244051,Bike
Fix,GPS,37.4287581627,-122.176046935,15.072264607067888,1.0848477,4.4970207,258.96945,1675805219999,0.08619985,10.0,4159731115750000,3.4669607,Bike
Fix,FLP,37.4287852,-122.1760424,-5.856850956079356,0.010382168,6.757,,1675805220220,,,4159730835152826,2.132385,Bike
Fix,GPS,37.4287564596,-122.1760588059,15.125070468430527,1.1799148,4.496993,270.7265,1675805220999,0.3321401,17.050995,4159732115570000,3.674682,Bike
Fix,FLP,37.4287836,-122.1760479,-4.960185892804574,1.0180241,6.778,276.3308,1675805221305,,,4159731920301203,2.1295242,Bike
Fix,GPS,37.428761782,-122.1760750977,14.79177083309148,1.2589563,4.4195676,300.37576,1675805221999,0.06610951,10.0,4159733115751000,3.6507142,Bike
Fix,FLP,37.4287819,-122.1760549,17.300013844334217,1.1619415,6.797,269.31076,1675805222390,,,4159733005443292,2.091,Bike
Fix,FLP,37.4287793,-122.176058,17.300013844334217,1.2424352,6.819,266.1305,1675805222911,,,4159733526312372,2.091,Bike
Fix,GPS,37.4287669361,-122.1760877359,14.77340650988364,1.2149224,4.5559683,334.83752,1675805222999,0.31542882,12.7051,4159734115813000,3.8404067,Bike
Fix,FLP,37.4287782,-122.1760603,17.300013844334217,1.2517375,6.886,277.37857,1675805223475,,,4159734090590021,2.0927324,Bike
Fix,GPS,37.4287771267,-122.1760944582,14.686292054893537,1.4970224,5.039642,4.825334,1675805223999,0.31417564,10.149421,4159735115667000,4.011614,Bike
Fix,FLP,37.4287761,-122.1760659,11.66296330252463,1.2186445,7.078,284.63107,1675805224559,,,4159735175731928,2.1027622,Bike
Fix,NLP,37.4288578,-122.1763557,-1.0000001192092896,,24.451,,1675805224906,,,4159735521000000,1.6618998,Bike
Fix,GPS,37.4287906654,-122.1760926937,14.667631736496768,2.324507,5.6166883,26.24875,1675805224999,0.3519363,10.0,4159736115696000,4.16041,Bike
Fix,FLP,37.4287768,-122.1760767,6.244053275903781,1.2206904,7.359,285.02158,1675805225645,,,4159736260871759,2.0524464,Bike
Fix,GPS,37.428814844,-122.1760803249,14.554241500940066,3.2720995,6.0320272,25.186537,1675805225999,0.34571424,10.0,4159737116017000,4.370132,Bike
Fix,FLP,37.4287818,-122.1760857,6.244053275903781,2.209793,7.694,333.22348,1675805226188,,,4159736803444025,2.0631535,Bike
Fix,FLP,37.4288007,-122.1760863,6.244053275903781,2.849184,7.954,14.209879,1675805226730,,,4159737346010004,2.0631535,Bike
Fix,GPS,37.4288490917,-122.1760622578,14.295862179328005,3.6899538,6.3037424,19.382063,1675805226999,0.32868642,10.0,4159738115850000,4.5915484,Bike
Fix,FLP,37.4288168,-122.1760764,30.90621537039313,3.177943,8.226,20.142464,1675805227273,,,4159737888578363,2.0731635,Bike
Fix,FLP,37.4288383,-122.1760642,30.90621537039313,3.617328,8.389,17.372719,1675805227816,,,4159738431142877,2.0731635,Bike
Fix,GPS,37.428890809,-122.1760433014,13.814456948819783,3.7731147,6.4726343,16.624586,1675805227999,0.339204,10.0,4159739115860000,4.7980456,Bike
Fix,FLP,37.4288542,-122.1760567,22.271148927123228,3.6924784,8.809,13.330641,1675805228357,,,4159738973716059,2.0829308,Bike
Fix,FLP,37.4288779,-122.1760463,22.271148927123228,3.7600305,9.053,15.7703905,1675805228901,,,4159739516279718,2.0829308,Bike
Fix,GPS,37.4289315325,-122.1760300482,13.277217424747942,4.2148857,6.5260315,11.768987,1675805228999,0.32074243,10.0,4159740115725000,4.99029,Bike
Fix,FLP,37.4288944,-122.1760388,23.73187127258716,3.765633,9.273,17.536251,1675805229443,,,4159740058845880,2.0929308,Bike
Fix,FLP,37.4289205,-122.1760292,23.73187127258716,4.161806,9.416,13.858713,1675805229966,,,4159740581000000,2.0929308,Bike
Fix,NLP,37.4287635,-122.1761521,-1.0000001192092896,,26.9,,1675805229860,,,4159740475000000,1.7877529,Bike
Fix,FLP,37.4289446,-122.1760241,6.894805006620956,4.1317134,9.49,12.486848,1675805230528,,,4159741143977839,2.0391614,Bike
Fix,GPS,37.4289724858,-122.1760194665,13.002382441179874,4.680736,6.506743,9.7315445,1675805229999,0.33860278,10.0,4159741115775000,5.1602077,Bike
Fix,GPS,37.4290258028,-122.1760075279,13.790961751655775,5.057732,6.0258694,13.21957,1675805230999,0.06810887,10.0,4159742115771000,4.8745027,Bike
Fix,FLP,37.4289798,-122.176014,-7.799970504865968,4.6500745,9.483,11.655817,1675805231614,,,4159742229105890,2.0499263,Bike
Fix,GPS,37.4290755425,-122.1759957278,13.712345407921084,5.2153955,6.1514497,14.949525,1675805231999,0.37662593,10.0,4159743116204000,4.967054,Bike
Fix,FLP,37.4290592,-122.1759973,-7.7737831640447155,5.2128434,9.172,13.945223,1675805232501,0.37662593,10.0,4159743116204000,2.0541055,Bike
Fix,GPS,37.4291246588,-122.1759826438,13.538240661461996,5.4404464,6.428145,16.689646,1675805232999,0.40985754,10.0,4159744115808000,5.0709586,Bike
Fix,FLP,37.4291168,-122.1759828,-7.799970504865968,5.4362893,8.829,15.912098,1675805233499,0.40985754,10.0,4159744115808000,2.0644183,Bike
Fix,GPS,37.4291707413,-122.1759686388,14.357682311871306,4.8526487,5.8648796,17.03254,1675805233999,0.067480974,10.0,4159745115759000,5.1189814,Bike
Fix,FLP,37.4291682,-122.1759676,-4.420125984659961,4.854984,8.101,17.015966,1675805234500,0.067480974,10.0,4159745115759000,2.0734084,Bike
Fix,GPS,37.4292147568,-122.175959825,14.02113984333439,4.7977443,5.3913727,6.5521784,1675805234999,0.048069138,10.0,4159746116032000,4.976265,Bike
Fix,FLP,37.4292091,-122.1759548,-4.420125984659961,5.070916,7.56,10.3526535,1675805235500,,,4159746116032000,2.0844183,Bike
Fix,GPS,37.4292551058,-122.1759535022,14.13770952143645,4.716544,5.0948744,3.0254147,1675805235999,0.0367361,10.0,4159747115779000,4.887882,Bike
Fix,FLP,37.429233,-122.17596,-3.694618069967945,4.8418293,7.19,302.84482,1675805236595,,,4159747211634638,2.0944183,Bike
Fix,FLP,37.4292798,-122.1759709,-3.694618069967945,4.7081017,7.609,347.1101,1675805237647,,,4159748263000000,2.0944183,Bike
Fix,GPS,37.4292989158,-122.1759370949,13.848471416086332,4.658408,4.748665,8.649955,1675805236999,0.05913935,10.0,4159748115976000,4.733957,Bike
Fix,GPS,37.4293409374,-122.1759169599,13.373305397918148,4.5679493,4.6432543,19.726273,1675805237999,0.040845554,10.0,4159749115839000,4.6015296,Bike
Fix,FLP,37.4293208,-122.1759434,-3.5031542081988647,4.591432,7.823,8.468496,1675805238224,,,4159748839313593,2.1134384,Bike
Fix,FLP,37.4293571,-122.1759159,-3.5031542081988647,4.5490794,7.803,19.948954,1675805239285,,,4159749900000000,2.1134384,Bike
Fix,GPS,37.4293828868,-122.1758915658,12.836891392768988,4.3277464,4.924288,23.33172,1675805238999,0.3637344,10.0,4159750115848000,4.6750774,Bike
Fix,FLP,37.429388,-122.1758898,-1.0000001192092896,4.380415,8.163,22.985188,1675805239851,,,4159750466992365,2.1244183,Bike
Fix,GPS,37.4294207908,-122.1758659647,12.568809005006525,4.7677307,5.296133,27.869682,1675805239999,0.3281862,10.0,4159751115857000,4.785121,Bike
Fix,FLP,37.4294029,-122.1758793,-1.0000001192092896,4.3610654,8.263,22.567978,1675805240394,,,4159751009536737,2.1344383,Bike
Fix,FLP,37.429423,-122.1758621,-1.0000001192092896,4.6492634,8.33,25.323004,1675805240937,,,4159751552114190,2.1344383,Bike
Fix,GPS,37.4294598293,-122.1758413727,12.562377044364668,5.1726484,5.5511866,23.2344,1675805240999,0.36762032,10.0,4159752115875000,4.8711176,Bike
Fix,FLP,37.4294455,-122.175845,6.695034030226836,4.753303,8.262,25.777191,1675805241479,,,4159752094673517,2.1444283,Bike
Fix,FLP,37.4294877,-122.1758171,6.695034030226836,5.1216693,8.386,23.129156,1675805242553,,,4159753168000000,2.1444283,Bike
Fix,GPS,37.4295023765,-122.1758179517,12.60386675960408,5.42534,5.8570223,21.903145,1675805241999,0.42849898,10.0,4159753116137000,5.02369,Bike
Fix,GPS,37.429544169,-122.1757977462,12.637089696316362,4.8569856,6.07839,21.903086,1675805242999,0.3946186,10.0,4159754115893000,5.1853294,Bike
Fix,FLP,37.4295427,-122.1757969,20.18260284582746,4.8642235,8.047,21.042873,1675805243500,0.3946186,10.0,4159754115893000,2.1644182,Bike
Fix,GPS,37.4295823967,-122.1757768861,13.22121775837712,4.9933558,6.246253,18.1715,1675805243999,0.41267586,10.0,4159755116285000,5.3477483,Bike
Fix,FLP,37.4295828,-122.1757773,-1.0000001192092896,5.1447225,8.416,18.408522,1675805244501,,,4159755116285000,2.1744282,Bike
Fix,FLP,37.4296021,-122.1757708,-1.0000001192092896,4.845158,8.376,310.2599,1675805245086,,,4159755702700617,2.1744282,Bike
Fix,GPS,37.4296321375,-122.1757628991,12.326898634612252,5.653713,5.9070816,13.6073065,1675805244999,0.09723662,10.0,4159756116098000,5.1445312,Bike
Fix,FLP,37.4296197,-122.1757681,-7.586440590523665,5.511098,8.061,4.62323,1675805245501,0.09723662,10.0,4159756116098000,2.1844182,Bike
Fix,GPS,37.4296773289,-122.1757431851,12.8444009591988,5.2617345,5.521784,19.101187,1675805245999,0.06577211,10.0,4159757115996000,5.050822,Bike
Fix,FLP,37.4296743,-122.1757501,-5.459912087782911,5.2505107,7.625,18.561867,1675805246500,0.06577211,10.0,4159757115996000,2.1944182,Bike
Fix,GPS,37.4297246769,-122.1757261598,13.098118622837385,5.3113413,5.2595744,15.341043,1675805246999,0.049910743,10.0,4159758116026000,5.000056,Bike
Fix,FLP,37.4297228,-122.1757279,-4.760690169236696,5.3137755,7.225,15.115555,1675805247500,0.049910743,10.0,4159758116026000,2.2044482,Bike
Fix,GPS,37.4297712124,-122.1757122307,13.219941324335132,5.1160507,4.9757643,15.116964,1675805247999,0.04591439,10.0,4159759116028000,4.9024405,Bike
Fix,FLP,37.4297705,-122.1757122,-1.0000001192092896,5.1170645,7.027,15.020733,1675805248500,0.04591439,10.0,4159759116028000,2.1234908,Bike
Fix,GPS,37.4298181015,-122.1756995821,13.328255401931123,5.0539794,5.1109815,16.366274,1675805248999,0.038282335,10.0,4159760116611000,4.8216586,Bike
Fix,FLP,37.4298171,-122.1756988,-1.0000001192092896,5.0535793,6.237,15.974099,1675805249501,0.038282335,10.0,4159760116611000,2.133481,Bike
Fix,GPS,37.4298631911,-122.1756839658,13.274057626719587,4.983198,5.111311,16.215107,1675805249999,0.029848322,10.0,4159761116048000,4.754903,Bike
Fix,FLP,37.4298624,-122.1756837,-1.0000001192092896,4.9835176,5.314,16.004812,1675805250501,0.029848322,10.0,4159761116048000,2.143491,Bike
Fix,GPS,37.4299063639,-122.1756711688,13.139535055322218,5.0042286,4.833269,15.04914,1675805250999,0.027870853,10.0,4159762116156000,4.691172,Bike
Fix,FLP,37.429907,-122.1756687,-1.0000001192092896,4.995186,5.639,15.639418,1675805251501,,,4159762116156000,2.153481,Bike
Fix,GPS,37.4299521568,-122.1756551389,12.963418954778788,4.9138155,5.0433693,18.159523,1675805251999,0.027469058,10.0,4159763116269000,4.6126714,Bike
Fix,FLP,37.4299317,-122.175661,-1.0000001192092896,4.099112,7.344,178.2252,1675805252602,,,4159763217122980,2.163481,Bike
Fix,GPS,37.4299935603,-122.1756351418,12.966873721437512,4.8616643,5.0163546,19.771965,1675805252999,0.025190378,10.0,4159764116092000,4.5321474,Bike
Fix,FLP,37.4299542,-122.1756413,-1.0000001192092896,3.6500592,8.139,21.516808,1675805253687,,,4159764302234491,2.173491,Bike
Fix,GPS,37.4300354259,-122.1756225136,13.07913287587299,4.77875,4.5566053,13.421893,1675805253999,0.020756513,10.0,4159765116115000,4.458509,Bike
Fix,FLP,37.4300013,-122.1756237,-3.175773301603513,4.699537,8.24,19.891668,1675805254229,,,4159764844785516,2.183491,Bike
Fix,NLP,37.4302626,-122.1756927,-2.6999998092651367,,61.574,,1675805254955,,,4159765570000000,1.7613055,Bike
Fix,FLP,37.4300307,-122.1756175,-2.6999998092651367,4.8096166,8.63,14.477378,1675805254772,,,4159765387338800,1.8542267,Bike
Fix,GPS,37.4300728809,-122.17560733,13.28144051741,4.4289627,4.6459007,15.026171,1675805254999,0.023159599,10.0,4159766116117000,4.376269,Bike
Fix,FLP,37.4300587,-122.1756125,-2.6999998092651367,4.8081875,9.039,9.911059,1675805255314,,,4159765929880243,1.8612167,Bike
Fix,GPS,37.4301065855,-122.1755928215,12.987639342698786,3.6006398,4.646055,17.911745,1675805255999,0.030909928,10.0,4159767116153000,4.292616,Bike
Fix,FLP,37.430104,-122.1755973,-2.6999998092651367,4.4464164,8.856,18.231058,1675805256399,,,4159767014997613,1.75755,Bike
Fix,GPS,37.4301283623,-122.1755829733,12.851140111332962,2.440773,4.27942,22.582542,1675805256999,0.023119077,10.0,4159768116511000,4.2434344,Bike
Fix,FLP,37.4301403,-122.1755805,-2.6999998092651367,3.6973069,8.19,22.423891,1675805257485,,,4159768100098444,1.8576441,Bike
Fix,GPS,37.4301459643,-122.1755754078,13.050037786799235,1.1265678,4.8353715,27.717813,1675805257999,0.2635703,10.803272,4159769116149000,4.287691,Bike
Fix,FLP,37.4301614,-122.1755652,5.444045394732683,2.5575268,7.897,28.003847,1675805258569,,,4159769185204157,1.9228956,Bike
Fix,FLP,37.4301683,-122.1755594,5.444045394732683,1.228637,7.974,27.238958,1675805259112,,,4159769727754938,1.9228956,Bike
Fix,GPS,37.4301469683,-122.1755749667,12.29763083381804,0.0,4.64652,27.717813,1675805258999,0.024575183,18.402029,4159770116339000,4.2081165,Bike
Fix,FLP,37.4301696,-122.1755584,12.75198760835454,1.1526366,7.954,22.041527,1675805259655,,,4159770270306146,1.9328556,Bike
Fix,FLP,37.4301679,-122.1755623,12.75198760835454,0.0782067,8.009,,1675805260197,,,4159770812859980,1.9328556,Bike
Fix,GPS,37.430145767,-122.1755779852,12.667977732482134,0.29723728,4.646675,27.717813,1675805259999,0.23313232,25.817734,4159771116228000,4.1004133,Bike
Fix,GPS,37.4301376313,-122.1755795981,11.66137626503275,0.0,4.64683,27.717813,1675805260999,0.028594583,33.49381,4159772116129000,3.9132764,Bike
Fix,FLP,37.430168,-122.1755692,19.193238667022783,0.2829312,7.525,327.19644,1675805261281,,,4159771897957636,1.9519556,Bike
Fix,GPS,37.4301376313,-122.1755795981,11.700768340065135,0.0,4.6469855,27.717813,1675805261999,0.017483406,180.0,4159773116146000,3.7902539,Bike
Fix,FLP,37.4301657,-122.1755771,16.189404101942074,0.012976687,6.981,,1675805262368,,,4159772983060846,1.9623556,Bike
Fix,NLP,37.4309129,-122.175102,-1.8000000715255735,,29.301,,1675805262868,,,4159773483000000,1.8023111,Bike
Fix,FLP,37.4301628,-122.1755783,15.11110564446922,0.0022417658,6.272,,1675805262878,,,4159773493716425,1.8889142,Bike
Fix,GPS,37.4301376313,-122.1755795981,9.757202175994,0.0,4.6471405,27.717813,1675805262999,0.1823442,180.0,4159774116178000,3.3869736,Bike
Fix,FLP,37.4301616,-122.1755797,10.349754723906528,0.00943378,5.778,,1675805263453,,,4159774068161676,1.8967199,Bike
Fix,GPS,37.4301376313,-122.1755795981,7.845062226319267,0.0,4.647295,27.717813,1675805263999,0.014694436,180.0,4159775116206000,3.074001,Bike
Fix,FLP,37.4301617,-122.175581,3.2742705503814733,0.0032961662,5.161,,1675805264537,,,4159775153266962,1.905407,Bike
Fix,GPS,37.4301376313,-122.1755795981,6.485996999481482,0.0,4.647449,27.717813,1675805264999,0.015031282,180.0,4159776116219000,3.0,Bike
Fix,FLP,37.4301451,-122.17558,1.4259147801341785,2.1158587e-07,4.666,,1675805265501,0.015031282,,4159776116219000,1.9133267,Bike
Fix,GPS,37.4301376313,-122.1755795981,5.566202126431735,0.0,4.6476026,27.717813,1675805265999,0.013622099,180.0,4159777116219000,3.0,Bike
Fix,FLP,37.43014,-122.1755797,-1.8000000715255735,3.3524e-11,3.739,,1675805266501,0.013622099,,4159777116219000,1.9202485,Bike
Fix,GPS,37.4301376313,-122.1755795981,4.879385753424383,0.0,4.6477566,27.717813,1675805266999,0.0136016775,180.0,4159778116269000,3.0,Bike
Fix,FLP,37.4301384,-122.1755796,-1.8000000715255735,8.4112e-12,3.947,,1675805267500,0.0136016775,,4159778116269000,1.9306185,Bike
Fix,NLP,37.4309871,-122.1750358,-1.6999999284744265,,32.927,,1675805267958,,,4159778573000000,1.984931,Bike
Fix,FLP,37.4301381,-122.1755796,-1.6999999284744265,1.5220938e-07,4.679,,1675805267958,0.0136016775,,4159778573000000,1.8452185,Bike
Fix,GPS,37.4301376313,-122.1755795981,4.063992120443569,0.0,4.6479106,27.717813,1675805267999,0.013041008,180.0,4159779116238000,3.0,Bike
Fix,FLP,37.4301378,-122.1755796,-1.6999999284744265,6.058862e-08,4.911,,1675805268501,0.013041008,,4159779116238000,1.8491871,Bike
Fix,GPS,37.4301376313,-122.1755795981,3.727100184655692,0.0,4.6480637,27.717813,1675805268999,0.013304628,180.0,4159780116309000,3.0,Bike
Fix,FLP,37.4301377,-122.1755796,-1.6999999284744265,1.0109e-12,5.104,,1675805269500,0.013304628,,4159780116309000,1.8556767,Bike
Fix,GPS,37.4301376313,-122.1755795981,3.543182596324215,0.0,4.6482167,27.717813,1675805269999,0.013668049,180.0,4159781116508000,3.0,Bike
Fix,FLP,37.4301376,-122.1755796,-1.6999999284744265,1.93e-13,5.104,,1675805270501,0.013668049,,4159781116508000,1.8716385,Bike
Fix,GPS,37.4301376313,-122.1755795981,3.198737611630216,0.0,4.648369,27.717813,1675805270999,0.013616379,180.0,4159782116285000,3.0,Bike
Fix,FLP,37.4301376,-122.1755796,-1.6999999284744265,6.5e-14,5.104,,1675805271500,0.013616379,,4159782116285000,1.8793525,Bike
Fix,GPS,37.4301376313,-122.1755795981,2.9899937878139307,0.0,4.9381437,27.717813,1675805271999,0.013796066,180.0,4159783116290000,3.0,Bike
Fix,FLP,37.4301376,-122.1755796,-1.6999999284744265,2.13e-14,5.153,,1675805272500,0.013796066,,4159783116290000,1.8889624,Bike
Fix,NLP,37.4308897,-122.1751291,-1.6999999284744265,,38.058,,1675805273007,,,4159783622000000,1.9808867,Bike
Fix,FLP,37.4301376,-122.1755796,-1.6999999284744265,3.810342e-10,5.25,,1675805273007,0.013796066,,4159783622000000,1.8091627,Bike
Fix,GPS,37.4301376313,-122.1755795981,2.9165660182484743,0.0,4.648673,27.717813,1675805272999,0.016144875,180.0,4159784116328000,3.0,Bike
Fix,FLP,37.4301376,-122.1755796,-1.6999999284744265,2.396994e-10,5.25,,1675805273501,0.016144875,,4159784116328000,1.814495,Bike
Fix,GPS,37.4301376313,-122.1755795981,2.878738412562461,0.0,5.023732,27.717813,1675805273999,0.016371584,180.0,4159785116390000,3.0,Bike
Fix,FLP,37.4301376,-122.1755796,-1.6999999284744265,5.9e-15,5.313,,1675805274501,0.016371584,,4159785116390000,1.8244034,Bike
Fix,GPS,37.4301376313,-122.1755795981,2.684498312988917,0.0,5.0240765,27.717813,1675805274999,0.018520422,180.0,4159786116349000,3.0,Bike
Fix,FLP,37.4301376,-122.1755796,-1.6999999284744265,1.3e-15,5.271,,1675805275500,0.018520422,,4159786116349000,1.8401504,Bike
Fix,GPS,37.4301376313,-122.1755795981,2.7177808896270275,0.0,4.6491265,27.717813,1675805275999,0.017299006,180.0,4159787116361000,3.0,Bike
Fix,FLP,37.4301376,-122.1755796,-1.6999999284744265,4e-16,5.376,,1675805276501,0.017299006,,4159787116361000,1.8426696,Bike
Fix,GPS,37.4301376313,-122.1755795981,2.573343258620565,0.0,4.6492777,27.717813,1675805276999,0.21370901,75.92342,4159788116372000,3.0,Bike
Fix,FLP,37.4301376,-122.1755796,-1.6999999284744265,2.1e-14,5.327,,1675805277501,0.21370901,,4159788116372000,1.8529596,Bike
Fix,NLP,37.430992,-122.1750904,-3.5,,26.133,,1675805278000,,,4159788615000000,1.1710576,Bike
Fix,FLP,37.4301376,-122.1755796,-1.6999999284744265,2.445697e-10,5.658,,1675805278000,0.21370901,,4159788615000000,1.7744437,Bike
Fix,GPS,37.4301376313,-122.1755795981,2.6160067880007016,0.0,4.0080943,27.717813,1675805277999,0.29795688,54.78858,4159789116466000,3.0,Bike
Fix,FLP,37.4301376,-122.1755796,-1.6999999284744265,2.578381e-10,5.519,,1675805278501,0.29795688,,4159789116466000,1.7476063,Bike
Fix,GPS,37.4301376313,-122.1755795981,2.6292780030495027,0.0,4.6495786,27.717813,1675805278999,0.3546438,32.0537,4159790116436000,3.0,Bike
Fix,FLP,37.4301376,-122.1755796,-9.086954331847693,6.25e-13,5.283,,1675805279500,0.3546438,,4159790116436000,1.5845879,Bike
Fix,GPS,37.4301376313,-122.1755795981,2.0505965284330627,0.0,4.6497293,27.717813,1675805279999,0.029509285,180.0,4159791116441000,3.0,Bike
Fix,FLP,37.4301376,-122.1755796,-11.488323962898493,1.9e-15,5.236,,1675805280501,0.029509285,,4159791116441000,1.7465788,Bike
Fix,GPS,37.4301244239,-122.1755985172,1.719369547493029,0.82418644,4.649879,27.717813,1675805280999,0.03858083,20.536333,4159792116449000,3.0,Bike
Fix,FLP,37.4301322,-122.1755874,-11.590002129811154,0.025654946,5.171,,1675805281501,0.03858083,,4159792116449000,1.806106,Bike
Fix,GPS,37.4301307576,-122.1755916399,1.828636947287115,0.9732803,4.6500287,27.717813,1675805281999,0.30887076,20.968393,4159793116543000,3.0,Bike
Fix,FLP,37.4301314,-122.1755901,-12.35405932719634,0.96847266,5.171,26.976448,1675805282501,0.30887076,20.968393,4159793116543000,1.8161359,Bike
Fix,NLP,37.4310247,-122.1749822,-1.8000000715255735,,43.813,,1675805283056,,,4159793671000000,2.3781788,Bike
Fix,FLP,37.4301339,-122.1755889,-11.488323962898493,0.9675952,5.209,26.965109,1675805283056,0.30887076,20.968393,4159793671000000,1.76194,Bike
Fix,GPS,37.4301423276,-122.1755812789,2.9176917211291307,1.7721621,4.650178,43.340992,1675805282999,0.31232736,10.0,4159794116491000,3.0,Bike
Fix,FLP,37.4301408,-122.1755825,-10.216740238610384,1.7687143,4.985,42.9578,1675805283501,0.31232736,10.0,4159794116491000,1.7683381,Bike
Fix,GPS,37.4301583426,-122.1755623424,1.6963580466552426,2.3247497,4.8799405,56.133965,1675805283999,0.33642748,10.0,4159795116613000,3.0,Bike
Fix,FLP,37.4301564,-122.1755644,-16.151174150949444,2.3210654,5.158,55.939373,1675805284501,0.33642748,10.0,4159795116613000,1.7783281,Bike
Fix,GPS,37.4301770324,-122.1755278341,1.9786778400743803,2.9099927,4.650474,55.436394,1675805284999,0.0439532,10.0,4159796116572000,3.0,Bike
Fix,FLP,37.4301729,-122.175535,9.906876307680292,2.9050453,5.123,55.04198,1675805285500,0.0439532,10.0,4159796116572000,1.7894541,Bike
Fix,FLP,37.430174,-122.1755293,9.906876307680292,2.4067369,5.443,68.19389,1675805285697,,,4159796313334711,1.7894541,Bike
Fix,GPS,37.4301941592,-122.175492827,2.14244781667559,3.0860422,4.8312287,49.925186,1675805285999,0.28695193,10.0,4159797116667000,3.0,Bike
Fix,FLP,37.4301778,-122.1755201,3.610356594458068,2.7366602,5.802,55.260883,1675805286240,,,4159796855899103,1.798774,Bike
Fix,FLP,37.4301867,-122.1755067,3.610356594458068,2.982394,6.262,49.941544,1675805286783,,,4159797398465631,1.798774,Bike
Fix,FLP,37.4301997,-122.175488,3.610356594458068,3.0715344,6.526,46.433064,1675805287326,,,4159797941026605,1.798774,Bike
Fix,GPS,37.4302220078,-122.1754625429,1.0777813262800466,3.3695364,4.650769,35.41568,1675805286999,0.027607523,10.0,4159798116674000,3.0,Bike
Fix,NLP,37.4309607,-122.1751497,-3.0999999046325684,,47.457,,1675805288104,,,4159798719000000,1.5111636,Bike
Fix,FLP,37.4302211,-122.1754631,-8.017445665877332,3.3316722,6.919,35.70534,1675805287867,,,4159798483589349,1.7516791,Bike
Fix,GPS,37.4302494157,-122.1754339188,0.6235759601207732,3.5123825,4.9137487,26.345886,1675805287999,0.2880486,10.0,4159799116564000,3.0,Bike
Fix,FLP,37.4302351,-122.1754517,-7.744340598297995,3.3864796,7.229,29.640524,1675805288410,,,4159799026140131,1.7545754,Bike
Fix,GPS,37.4302779116,-122.1754241961,0.0281863975938865,3.5559483,4.844592,19.091175,1675805288999,0.027129658,10.0,4159800116610000,3.0,Bike
Fix,FLP,37.430266,-122.1754266,-6.646257649111206,3.5262241,7.344,20.787676,1675805289496,,,4159800111273736,1.7572385,Bike
Fix,GPS,37.4303067363,-122.175413442,-0.2687509412360605,3.521197,4.6512084,16.84037,1675805289999,0.039532404,10.0,4159801116572000,3.0,Bike
Fix,FLP,37.4303015,-122.1754148,-5.945151290355668,3.5655591,7.924,16.022259,1675805290581,,,4159801196395685,1.7672286,Bike
Fix,GPS,37.4303420706,-122.1753986388,-0.2965907272163209,3.4016159,4.271049,16.963121,1675805290999,0.03141187,10.0,4159802116608000,3.0,Bike
Fix,FLP,37.4303329,-122.1754028,-3.0999999046325684,3.5263338,8.328,16.531086,1675805291666,,,4159802281503778,1.7770559,Bike
Fix,GPS,37.4303687651,-122.1753846069,-0.6240416599136779,3.1275067,4.270799,23.265684,1675805291999,0.02205517,10.0,4159803116640000,3.0,Bike
Fix,FLP,37.4303621,-122.1753919,-3.5,3.4158628,8.079,15.629558,1675805292209,,,4159802824061029,1.7870358,Bike
Fix,GPS,37.4303938673,-122.1753681495,-1.1757261929561245,3.006441,4.2705503,26.219473,1675805292999,0.031137645,10.0,4159804116652000,3.0,Bike
Fix,FLP,37.4303885,-122.1753749,-3.5,3.1408627,7.891,28.645708,1675805293294,,,4159803909188165,1.7970358,Bike
Fix,FLP,37.430415,-122.1753546,-3.5,3.0252907,7.622,24.23681,1675805294379,,,4159804994301141,1.7970358,Bike
Fix,GPS,37.4304155051,-122.1753480084,-0.8920298717924319,2.9302647,4.270301,37.887196,1675805293999,0.03792519,10.0,4159805116671000,3.0,Bike
Fix,FLP,37.4304286,-122.1753423,-3.0999999046325684,2.921243,7.478,35.204254,1675805294921,,,4159805536857050,1.8072959,Bike
Fix,GPS,37.4304368197,-122.1753249157,-1.461081599887154,3.1376982,4.3487816,56.677322,1675805294999,0.37265033,10.0,4159806116670000,3.0,Bike
Fix,FLP,37.4304333,-122.1753343,-3.0999999046325684,2.9323778,7.342,46.95921,1675805295464,,,4159806079412286,1.8171159,Bike
Fix,FLP,37.4304432,-122.1753144,-3.0999999046325684,3.122364,7.408,66.14126,1675805296006,,,4159806621967157,1.8171159,Bike
Fix,GPS,37.4304494934,-122.1752898899,-1.948208012963935,3.1794016,4.852918,88.73977,1675805295999,0.38377848,10.0,4159807116728000,3.0,Bike
Fix,FLP,37.4304451,-122.1752988,4.548673304406293,3.127689,7.361,80.2979,1675805296549,,,4159807164521295,1.8270359,Bike
Fix,FLP,37.4304471,-122.1752731,4.548673304406293,3.1494973,7.497,93.38795,1675805297092,,,4159807707075556,1.8270359,Bike
Fix,GPS,37.4304468769,-122.1752466727,-2.3974254701389697,3.3792722,5.3455133,105.95407,1675805296999,0.41448286,10.0,4159808116702000,3.0,Bike
Fix,FLP,37.4304451,-122.1752592,29.464724605795965,3.152079,7.676,100.26394,1675805297633,,,4159808249631769,1.8370459,Bike
Fix,GPS,37.4304332303,-122.1751979775,-2.610964109621738,4.4640007,5.7322516,116.53135,1675805297999,0.34611812,10.0,4159809116914000,3.0247543,Bike
Fix,FLP,37.4304397,-122.1752281,21.93312507571629,3.32539,7.958,105.09008,1675805298177,,,4159808792182001,1.8470359,Bike
Fix,FLP,37.4304324,-122.1752025,21.93312507571629,4.135158,8.161,111.70125,1675805298719,,,4159809334723016,1.8470359,Bike
Fix,GPS,37.4304101108,-122.1751444507,-2.8998063535195238,4.6424537,5.9170995,120.21566,1675805298999,0.36525738,10.0,4159810116994000,3.1820433,Bike
Fix,FLP,37.4304245,-122.1751794,20.463685945220647,4.3775625,8.445,112.69142,1675805299262,,,4159809877287225,1.8570359,Bike
Fix,FLP,37.4304148,-122.1751558,20.463685945220647,4.533835,8.725,117.78564,1675805299803,,,4159810419839227,1.8570359,Bike
Fix,GPS,37.4303840722,-122.175085788,-3.5967621361965527,4.5065355,6.0053635,125.77174,1675805299999,0.30758756,10.0,4159811116963000,3.3266876,Bike
Fix,FLP,37.4303966,-122.1751161,13.819533021667908,4.595419,9.195,122.930664,1675805300347,,,4159810962390924,1.8670459,Bike
Fix,FLP,37.4303697,-122.1750652,13.819533021667908,4.5373006,9.651,123.99288,1675805301432,,,4159812047493036,1.8670459,Bike
Fix,GPS,37.4303593122,-122.1750360562,-3.832965575091429,4.421687,6.0030203,124.13931,1675805300999,0.34290487,10.0,4159812116740000,3.4573364,Bike
Fix,FLP,37.4303532,-122.1750296,21.93312507571629,4.4583626,9.848,122.24762,1675805301974,,,4159812590043268,1.8770359,Bike
Fix,GPS,37.4303376195,-122.1749899208,-5.540835583377348,4.633774,6.1241302,115.79353,1675805301999,0.3802457,10.0,4159813116783000,3.575037,Bike
Fix,FLP,37.4303466,-122.1750133,-3.0999999046325684,4.4618993,10.001,119.75287,1675805302516,,,4159813132593866,1.8870459,Bike
Fix,FLP,37.4303302,-122.174973,-3.0999999046325684,4.613509,10.23,114.856224,1675805303060,,,4159813675143610,1.8870459,Bike
Fix,GPS,37.4303238552,-122.1749128554,-5.7082710056025405,5.718253,5.552357,102.165375,1675805302999,0.10490987,10.0,4159814116787000,3.2295942,Bike
Fix,FLP,37.4303266,-122.174937,-3.5,5.720449,9.87,102.84724,1675805303501,0.10490987,10.0,4159814116787000,1.8970358,Bike
Fix,GPS,37.4303079182,-122.1748332351,-5.863746311258207,5.926338,5.0629983,100.7485,1675805303999,0.07089777,10.0,4159815116825000,3.072548,Bike
Fix,FLP,37.4303102,-122.1748464,-10.108628518126636,5.9280033,9.521,100.11568,1675805304501,0.07089777,10.0,4159815116825000,1.9070458,Bike
Fix,GPS,37.4302968138,-122.174761821,-5.896501829068746,5.7062664,5.406287,96.73676,1675805304999,0.32441422,10.0,4159816117120000,3.1797693,Bike
Fix,FLP,37.4302983,-122.1747683,-9.549790281762228,5.7092485,8.884,96.19595,1675805305501,0.32441422,10.0,4159816117120000,1.9170358,Bike
Fix,GPS,37.4302901031,-122.174695114,-5.89213739716579,6.0376124,5.6932673,91.33129,1675805305999,0.3614239,10.0,4159817116847000,3.284889,Bike
Fix,FLP,37.4302911,-122.1746984,-3.0999999046325684,6.035874,8.235,91.23954,1675805306501,0.3614239,10.0,4159817116847000,1.9294825,Bike
Fix,GPS,37.4302856918,-122.174624428,-5.742603903049094,5.9972024,5.911976,89.03602,1675805306999,0.37587565,10.0,4159818116944000,3.3946123,Bike
Fix,FLP,37.4302873,-122.1746266,-6.160727539897636,5.997275,7.022,89.11304,1675805307500,0.37587565,10.0,4159818116944000,1.9395025,Bike
Fix,GPS,37.4302860793,-122.1745527319,-4.632011464000351,5.877204,6.097436,84.79003,1675805307999,0.38000455,10.0,4159819116976000,3.4964042,Bike
Fix,FLP,37.430287,-122.174555,-3.0999999046325684,5.8758554,5.634,84.23431,1675805308500,0.38000455,10.0,4159819116976000,1.9494824,Bike
Fix,GPS,37.4302957721,-122.1744828646,-3.484082334296799,5.7746263,6.0120544,80.00487,1675805308999,0.37972462,10.0,4159820116862000,3.5618372,Bike
Fix,FLP,37.4302946,-122.1744851,2.0436080465677264,5.772889,5.824,80.17363,1675805309501,0.37972462,10.0,4159820116862000,1.9570259,Bike
Fix,GPS,37.4303081498,-122.1744174845,-5.553574164385154,5.509094,5.7864256,70.72636,1675805309999,0.3418184,10.0,4159821116851000,3.6427877,Bike
Fix,FLP,37.4303066,-122.1744187,-3.0999999046325684,5.50283,5.817,70.337654,1675805310501,0.3418184,10.0,4159821116851000,1.9670359,Bike
Fix,GPS,37.4303320729,-122.1743637687,-6.105954996874729,5.3851695,5.2183704,61.364494,1675805310999,0.066873945,10.0,4159822117082000,3.342766,Bike
Fix,FLP,37.4303294,-122.1743626,-7.328168825283569,5.3784227,5.805,61.233265,1675805311502,0.066873945,10.0,4159822117082000,1.9770359,Bike
Fix,GPS,37.430359267,-122.1743140929,-5.8351297611681225,5.108705,4.8693075,58.476112,1675805311999,0.065136045,10.0,4159823116893000,3.1823652,Bike
Fix,FLP,37.4303573,-122.1743126,-7.891182532243548,5.11069,5.649,58.050056,1675805312501,0.065136045,10.0,4159823116893000,1.9870559,Bike
Fix,GPS,37.4303857063,-122.1742624031,-5.665360067024131,4.7572613,6.0942607,59.3499,1675805312999,0.35003957,10.0,4159824117105000,3.2578433,Bike
Fix,FLP,37.4303826,-122.1742639,-6.096256714383813,4.750596,6.437,58.61652,1675805313502,,,4159824117105000,1.9970459,Bike
Fix,FLP,37.4303958,-122.1742406,-6.096256714383813,3.4781222,7.094,11.404721,1675805314091,,,4159824706935358,1.9970459,Bike
Fix,GPS,37.4304129936,-122.174217469,-5.477023042619303,4.953229,6.0852365,53.875374,1675805313999,0.069886446,10.0,4159825116999000,3.111879,Bike
Fix,FLP,37.4303945,-122.1742445,-3.5,3.6590095,7.971,353.67157,1675805314634,,,4159825249480463,2.007036,Bike
Fix,FLP,37.4304219,-122.1742265,-3.5,4.3327003,8.312,42.391834,1675805315176,,,4159825792025934,2.007036,Bike
Fix,GPS,37.4304378019,-122.1741741832,-5.215541950296176,4.8599863,5.1717978,49.463566,1675805314999,0.3712356,10.0,4159826116931000,3.2118728,Bike
Fix,FLP,37.4304359,-122.1741861,-3.0999999046325684,4.8155794,8.898,48.338085,1675805315719,,,4159826334571100,2.017036,Bike
Fix,GPS,37.4304690496,-122.174130779,-5.243009780013593,4.829806,5.335767,48.445686,1675805315999,0.3692288,10.0,4159827116971000,3.294646,Bike
Fix,FLP,37.4304543,-122.1741536,-3.0999999046325684,4.8698425,8.893,43.221733,1675805316262,,,4159826877116022,2.027036,Bike
Fix,FLP,37.4304746,-122.1741252,-3.0999999046325684,4.8569565,9.272,45.30628,1675805316804,,,4159827419664118,2.027036,Bike
Fix,FLP,37.4304878,-122.1741073,-3.0999999046325684,4.86063,9.674,46.26377,1675805317347,,,4159827962205866,2.027036,Bike
Fix,GPS,37.4304974004,-122.1740909094,-3.940371343302392,4.7601986,5.6971545,50.68492,1675805316999,0.4143252,10.0,4159828116967000,3.3863256,Bike
Fix,FLP,37.4305101,-122.1740745,-3.0999999046325684,4.7717605,9.636,48.656715,1675805317889,,,4159828504750299,2.0446112,Bike
Fix,GPS,37.4305281157,-122.174046059,-3.2044379771678893,5.026675,5.898815,52.523125,1675805317999,0.4375666,10.0,4159829116989000,3.445596,Bike
Fix,FLP,37.4305149,-122.1740651,1.9663632552985744,4.782058,9.637,50.327374,1675805318431,,,4159829047294672,2.0546012,Bike
Fix,FLP,37.4305347,-122.174033,1.9663632552985744,4.9660673,9.894,51.344852,1675805318974,,,4159829589842035,2.0546012,Bike
Fix,GPS,37.4305606974,-122.1740031198,-2.693714191989161,5.510289,6.0006237,49.598034,1675805318999,0.40588564,10.0,4159830116998000,3.5163133,Bike
Fix,FLP,37.4305542,-122.1740093,12.38380363225231,5.4940534,9.616,49.069523,1675805319501,0.40588564,10.0,4159830116998000,2.0646014,Bike
Fix,GPS,37.4305988421,-122.1739588092,-4.036381331676048,5.6479554,6.016453,44.491497,1675805319999,0.36576805,10.0,4159831117189000,3.5916977,Bike
Fix,FLP,37.4305942,-122.1739601,12.38380363225231,5.644312,8.701,44.120605,1675805320502,0.36576805,10.0,4159831117189000,2.0746014,Bike
Fix,GPS,37.4306405412,-122.1739155013,-4.613235767259521,6.047176,6.1109676,41.876137,1675805320999,0.4378373,10.0,4159832117194000,3.7083719,Bike
Fix,FLP,37.4306367,-122.1739155,2.287018794129452,6.0362697,8.43,41.074593,1675805321502,0.4378373,10.0,4159832117194000,2.0846214,Bike
Fix,GPS,37.4307014909,-122.1738747606,-4.233148858019492,6.391832,5.671575,31.571402,1675805321999,0.066857725,10.0,4159833117541000,3.4152021,Bike
Fix,FLP,37.4306933,-122.1738734,-3.0999999046325684,6.394231,7.8,31.272762,1675805322502,0.066857725,10.0,4159833117541000,2.0946114,Bike
Fix,NLP,37.4306768,-122.1741421,-1.899999976158142,,30.133,,1675805322891,,,4159833507000000,5.234442,Bike
Fix,FLP,37.4307086,-122.1738644,-7.773345556887691,6.3851824,7.639,31.202147,1675805322892,0.066857725,10.0,4159833507000000,1.753607,Bike
Fix,GPS,37.4307507545,-122.1738428414,-4.678103678318789,6.3525696,5.361493,26.891819,1675805322999,0.07755793,10.0,4159834117088000,3.2782686,Bike
Fix,FLP,37.4307465,-122.1738429,-6.401481432413817,6.3622518,6.753,26.189407,1675805323502,0.07755793,10.0,4159834117088000,1.7748239,Bike
Fix,GPS,37.4308050053,-122.1738159434,-4.593635125218095,6.2349615,5.1437807,21.470694,1675805323999,0.08634348,10.0,4159835117090000,3.1810558,Bike
Fix,FLP,37.4308027,-122.1738145,-5.937092258537206,6.243405,6.052,21.221039,1675805324502,0.08634348,10.0,4159835117090000,1.7998285,Bike
Fix,GPS,37.4308622367,-122.1737933782,-4.816836813442723,6.179919,4.9377937,18.633305,1675805324999,0.08633524,10.0,4159836117401000,3.0922153,Bike
Fix,FLP,37.4308599,-122.173792,-5.089843677692201,6.184485,5.872,18.13869,1675805325502,0.08633524,10.0,4159836117401000,1.8211687,Bike
Fix,GPS,37.4309164318,-122.1737717124,-4.446058943397381,6.0183973,5.38049,18.402948,1675805325999,0.37304622,10.0,4159837117494000,3.2337887,Bike
Fix,FLP,37.4309151,-122.1737712,-1.899999976158142,6.020856,5.75,18.019924,1675805326502,0.37304622,10.0,4159837117494000,1.8325586,Bike
Fix,GPS,37.4309703905,-122.1737521397,-3.602617671864187,5.812243,5.0648074,15.881829,1675805326999,0.041710533,10.0,4159838117705000,3.123793,Bike
Fix,FLP,37.4309692,-122.1737515,-1.899999976158142,5.8164988,5.649,15.141293,1675805327502,0.041710533,10.0,4159838117705000,1.8425786,Bike
Fix,GPS,37.4310233258,-122.1737410335,-4.286169363030697,5.6230297,4.8432283,15.592635,1675805327999,0.039294787,10.0,4159839117475000,3.0416489,Bike
Fix,FLP,37.4310222,-122.1737389,-3.0999999046325684,5.6240883,5.074,15.017416,1675805328501,0.039294787,10.0,4159839117475000,1.8525686,Bike
Fix,GPS,37.4310730096,-122.1737255381,-4.51885695583344,5.589617,5.5088243,17.910797,1675805328999,0.45151705,10.0,4159840117498000,3.1887915,Bike
Fix,FLP,37.4310723,-122.1737244,-1.899999976158142,5.588564,5.147,16.92585,1675805329501,0.45151705,10.0,4159840117498000,1.8625586,Bike
Fix,GPS,37.4311205142,-122.1737063006,-3.473133235810611,5.3672037,5.8826275,15.335595,1675805329999,0.42443967,10.0,4159841117186000,3.3258076,Bike
Fix,FLP,37.4311204,-122.1737062,-7.906289717982503,5.3711524,5.269,15.085666,1675805330501,0.42443967,10.0,4159841117186000,1.8725586,Bike
