Fix,Provider,LatitudeDegrees,LongitudeDegrees,AltitudeMeters,SpeedMps,AccuracyMeters,BearingDegrees,UnixTimeMillis,SpeedAccuracyMps,BearingAccuracyDegrees,elapsedRealtimeNanos,VerticalAccuracyMeters,TransitType
Fix,GPS,37.4214687818,-122.1586772193,18.01547339537119,0.0,82.135704,,1677698636211,1.4599473,,1133441729079187,113.32942,Bike
Fix,FLP,37.4215508,-122.1586571,-17.071384094331634,0.0052169953,13.749,,1677698638506,,,1133441729079187,1.3695072,Bike
Fix,NLP,37.4215071,-122.1586429,-7.700000286102295,,14.353,,1677698638606,,,1133441830000000,2.7540307,Bike
Fix,FLP,37.4215497,-122.1586573,-17.005765871050187,0.016684193,18.866,,1677698638606,,,1133441830000000,1.2839248,Bike
Fix,GPS,37.4214696722,-122.1586527687,12.498085138151882,0.0,90.31928,,1677698637267,1.1489811,,1133442764517379,139.08241,Bike
Fix,FLP,37.4215481,-122.1586576,-14.88583232933803,0.036583632,22.701,,1677698639174,,,1133442397065584,1.2988122,Bike
Fix,GPS,37.4214904669,-122.1586132979,7.888932537665487,0.0,61.642796,,1677698638310,1.1568838,,1133443764550868,94.925514,Bike
Fix,FLP,37.4215476,-122.1586574,-13.96074279861448,0.0005511621,31.084,,1677698640258,,,1133443482117892,1.3092679,Bike
Fix,GPS,37.4214931955,-122.1585992745,7.88834141424707,,76.75298,,1677698639310,,,1133444763735113,52.24302,Bike
Fix,FLP,37.4215464,-122.1586567,-11.660577345570646,0.00082763936,43.09,,1677698641344,,,1133444567203341,1.3217155,Bike
Fix,GPS,37.4214829882,-122.1585285925,-23.2123767003595,0.0,10.070307,,1677698640263,1.1365453,,1133445782439581,10.8323965,Bike
Fix,FLP,37.421545,-122.1586557,-7.700000286102295,0.002598278,51.491,,1677698642428,,,1133445652274081,1.3376706,Bike
Fix,GPS,37.4214631132,-122.1586335379,-13.514099423767377,0.0,9.858457,,1677698641127,0.9210944,,1133446770706875,15.364354,Bike
Fix,FLP,37.4215412,-122.1586505,-7.700000286102295,0.0016688152,55.25,,1677698643513,,,1133446737344638,1.3476605,Bike
Fix,NLP,37.421518,-122.1586746,-7.700000286102295,,16.449,,1677698643718,,,1133446941000000,2.42641,Bike
Fix,GPS,37.4214596035,-122.1586622382,-3.5157076838967383,0.0,12.664818,,1677698642127,0.515598,,1133447775066006,14.395252,Bike
Fix,FLP,37.4215271,-122.1586454,-7.700000286102295,0.0031578953,47.206,,1677698644599,,,1133447822403232,1.7501676,Bike
Fix,GPS,37.4214559917,-122.1586726842,-4.719305710194515,0.0,10.892033,,1677698643127,0.4943705,,1133448756520108,12.664725,Bike
Fix,FLP,37.4215206,-122.1586451,-7.700000286102295,0.0014759717,42.362,,1677698645140,,,1133448364949618,1.7363964,Bike
Fix,FLP,37.4215158,-122.1586452,-7.700000286102295,0.0014487123,35.225,,1677698646226,,,1133449450018649,1.8881547,Bike
Fix,GPS,37.4214601422,-122.1586948073,-6.887305936139541,0.0,9.02582,,1677698645000,0.5640285,,1133450619595101,10.757785,Bike
Fix,FLP,37.4215116,-122.1586456,-7.700000286102295,0.001310768,27.323,,1677698647312,,,1133450535076388,1.8981547,Bike
Fix,GPS,37.4214571232,-122.1587059415,-8.192029633131051,0.0,8.651044,,1677698646000,0.5364468,,1133451632063119,10.1852865,Bike
Fix,FLP,37.421508,-122.1586463,-9.971082810470662,0.000960175,20.009,,1677698648397,,,1133451620154941,1.9081547,Bike
Fix,NLP,37.421505,-122.1586563,-7.700000286102295,,15.363,,1677698648796,,,1133452020000000,1.3094875,Bike
Fix,GPS,37.4214542411,-122.1587149752,-8.878188599857314,0.0,8.4193,,1677698647000,0.56414825,,1133452613642000,9.850923,Bike
Fix,FLP,37.4215025,-122.1586462,-11.19761378017414,0.0010116384,12.601,,1677698649481,,,1133452705222262,1.7541572,Bike
Fix,GPS,37.4214514281,-122.1587228065,-9.141310816689613,0.0,8.307356,,1677698648000,20.0,,1133453613419000,9.639079,Bike
Fix,FLP,37.4214997,-122.1586463,-10.931449238653874,0.00088507973,12.086,,1677698650023,,,1133453247756015,1.747494,Bike
Fix,GPS,37.4214484655,-122.1587284956,-9.512529636622071,0.0,8.358173,,1677698649000,20.0,,1133454613726000,9.59286,Bike
Fix,FLP,37.4214971,-122.1586473,-11.380150900836997,0.00021959821,11.584,,1677698651108,,,1133454332817050,1.757484,Bike
Fix,FLP,37.4214954,-122.1586485,-11.380150900836997,0.0009581025,11.136,,1677698651652,,,1133454875354892,1.757484,Bike
Fix,GPS,37.4214452338,-122.1587326588,-10.3523574662619,0.0,11.566634,,1677698650000,20.0,,1133455613427000,9.554294,Bike
Fix,FLP,37.4214931,-122.1586501,-7.700000286102295,0.002264579,10.872,,1677698652193,,,1133455417884799,1.7685139,Bike
Fix,FLP,37.4214916,-122.1586513,-7.700000286102295,0.003206216,10.493,,1677698652716,,,1133455940964998,1.7685139,Bike
Fix,GPS,37.4214450337,-122.1587341759,-10.226384095709388,0.0,8.500892,,1677698651000,0.502058,,1133456613398000,9.532757,Bike
Fix,FLP,37.4214911,-122.1586518,-7.700000286102295,0.0035764666,10.451,,1677698653278,,,1133456502952304,1.7774639,Bike
Fix,NLP,37.421551,-122.1586446,-8.100000381469727,,12.489,,1677698653838,,,1133457062000000,1.5440434,Bike
Fix,FLP,37.4214905,-122.1586529,-8.100000381469727,0.0044133756,9.945,,1677698653822,,,1133457045484042,1.6762961,Bike
Fix,GPS,37.4214446131,-122.1587352573,-10.263547908533932,0.0,8.604831,,1677698652000,0.518112,,1133457613441000,9.497779,Bike
Fix,FLP,37.4214929,-122.1586527,-8.100000381469727,0.0038951705,9.836,,1677698654365,,,1133457588005343,1.5852634,Bike
Fix,GPS,37.4214437345,-122.1587362194,-9.860814026232235,0.0,11.401796,,1677698653000,20.0,,1133458613472000,9.477639,Bike
Fix,FLP,37.4214968,-122.1586519,-8.100000381469727,0.0027765816,9.624,,1677698655450,,,1133458673078708,1.5952834,Bike
Fix,FLP,37.4214995,-122.158652,-8.100000381469727,0.0033501908,9.534,,1677698655991,,,1133459215611606,1.5952834,Bike
Fix,GPS,37.4214430823,-122.1587369627,-9.415514937261571,0.0,8.881218,,1677698654000,20.0,,1133459613662000,9.552353,Bike
Fix,FLP,37.4215004,-122.1586519,-8.100000381469727,0.0038979657,9.528,,1677698656534,,,1133459758141086,1.6053234,Bike
Fix,FLP,37.4215015,-122.1586521,-8.100000381469727,0.0046242634,9.459,,1677698657077,,,1133460300671420,1.6053234,Bike
Fix,GPS,37.4214398912,-122.1587366999,-9.233980318859915,0.0,9.322352,,1677698655000,20.0,,1133460613492000,9.604201,Bike
Fix,GPS,37.4214412175,-122.158730066,-8.913841717525397,0.0,8.917532,,1677698656000,20.0,,1133461613764000,9.70494,Bike
Fix,FLP,37.4215033,-122.1586527,-3.5651620630858467,0.005371788,9.397,,1677698658162,,,1133461385732944,1.67106,Bike
Fix,NLP,37.4215434,-122.1586627,-8.100000381469727,,16.436,,1677698658858,,,1133462081000000,1.6417851,Bike
Fix,FLP,37.4215037,-122.1586539,-3.5651620630858467,0.0047425046,9.451,,1677698658705,,,1133461928263339,1.6173242,Bike
Fix,GPS,37.4214429343,-122.1587273614,-9.374626313826145,0.0,8.878959,,1677698657000,20.0,,1133462613538000,9.689495,Bike
Fix,FLP,37.421506,-122.1586554,-3.5651620630858467,0.005653075,9.607,,1677698659246,,,1133462470793063,1.6228555,Bike
Fix,GPS,37.4214584771,-122.158734715,-10.227132301909236,1.3504621,8.530355,317.78665,1677698658000,0.38887393,15.064878,1133463613551000,9.47392,Bike
Fix,FLP,37.4215076,-122.1586569,-2.0650891251261463,0.006729502,9.888,,1677698660332,,,1133463555855013,1.633527,Bike
Fix,FLP,37.4215086,-122.1586592,-2.0650891251261463,0.041486118,9.95,,1677698660870,,,1133464093000000,1.633527,Bike
Fix,FLP,37.4215096,-122.1586614,-2.0650891251261463,0.07788883,10.348,,1677698661415,,,1133464638000000,1.633527,Bike
Fix,GPS,37.4214750545,-122.1587451891,-10.14631394085082,1.8288001,8.21427,311.1996,1677698659000,0.38510644,11.752278,1133464613752000,9.2476635,Bike
Fix,FLP,37.4215107,-122.158666,-5.4134738075936575,0.15368047,10.503,304.42136,1677698661959,,,1133465183440524,1.6433142,Bike
Fix,GPS,37.4214897672,-122.1587629769,-11.538892348260797,2.2578754,7.891876,309.40875,1677698660000,0.38303846,10.0,1133465613600000,8.943264,Bike
Fix,FLP,37.421511,-122.158668,1.7988626771901508,0.19627984,10.783,302.40305,1677698662501,,,1133465725969577,1.6621971,Bike
Fix,FLP,37.4215098,-122.158685,1.7988626771901508,0.25223207,11.113,303.91064,1677698663044,,,1133466268498446,1.6621971,Bike
Fix,GPS,37.4215017711,-122.1587957467,-11.557489968313895,1.9826163,7.4657974,327.86832,1677698661000,0.43347558,10.496355,1133466613571000,8.416441,Bike
Fix,FLP,37.4215088,-122.1586963,3.8025023105280553,0.30269033,11.361,307.8216,1677698663587,,,1133466811029391,1.6633667,Bike
Fix,NLP,37.4216669,-122.1588182,-8.700000762939453,,22.594,,1677698663819,,,1133467042000000,1.0,Bike
Fix,FLP,37.4215129,-122.1587307,-2.558677723487751,0.41437468,11.904,312.22067,1677698664129,,,1133467353558993,1.606265,Bike
Fix,GPS,37.4215215508,-122.1588013387,-12.99383009189598,1.9874761,6.9020824,346.2519,1677698662000,0.35171205,10.0,1133467613952000,7.6502748,Bike
Fix,FLP,37.4215188,-122.1587545,-15.324285663297726,0.47132117,11.992,315.91367,1677698664673,,,1133467896084018,1.6013643,Bike
Fix,FLP,37.4215216,-122.1587648,-15.324285663297726,0.519036,12.059,319.63428,1677698665215,,,1133468438612155,1.6013643,Bike
Fix,GPS,37.4215460888,-122.1588038338,-13.17313276272598,2.3033533,6.6831856,337.54556,1677698663000,0.35554805,10.0,1133468613642000,7.2173166,Bike
Fix,GPS,37.4215795437,-122.1588130383,-13.052019815813502,3.816323,6.424988,334.12314,1677698664000,0.4006461,10.0,1133469613882000,6.7737293,Bike
Fix,FLP,37.4215329,-122.1587831,-2.558677723487751,0.62559235,12.194,322.1121,1677698666299,,,1133469523668612,1.6376662,Bike
Fix,FLP,37.421551,-122.1587983,-2.558677723487751,0.7481209,12.062,322.92136,1677698667384,,,1133470608723727,1.632255,Bike
Fix,GPS,37.4216258437,-122.1588333097,-12.631996227463189,4.637054,6.1880236,319.60376,1677698665000,0.39102465,10.0,1133470613658000,6.4939075,Bike
Fix,FLP,37.4215789,-122.1588139,2.6313139574532336,0.8791053,11.823,323.53595,1677698667927,,,1133471151251315,1.6537459,Bike
Fix,GPS,37.4216685085,-122.1588719053,-12.71799476986463,4.8553042,5.964254,319.05478,1677698666000,0.40592688,10.0,1133471613688000,6.2676406,Bike
Fix,FLP,37.4215892,-122.1588192,5.239000199588045,0.9402809,11.566,322.2966,1677698668469,,,1133471693777804,1.6608198,Bike
Fix,FLP,37.4216124,-122.1588395,5.239000199588045,1.0218078,10.884,322.232,1677698669013,,,1133472236305942,1.6608198,Bike
Fix,GPS,37.4217149691,-122.1589145691,-11.613997169453157,4.6807246,5.708044,312.15704,1677698667000,0.38431326,10.0,1133472614017000,6.130582,Bike
Fix,FLP,37.4216276,-122.1588533,15.49518606221756,1.095189,10.736,322.05032,1677698669554,,,1133472778819186,1.6651301,Bike
Fix,GPS,37.4217566608,-122.1589622792,-10.58095702918647,4.9330025,5.3842545,311.61026,1677698668000,0.3427353,10.0,1133473613755000,5.8760667,Bike
Fix,FLP,37.4216637,-122.1588852,-0.3528738586512929,1.248724,10.488,321.2125,1677698670098,,,1133473321348971,1.6837459,Bike
Fix,FLP,37.4216889,-122.1589066,-0.3528738586512929,1.3426976,10.273,320.77988,1677698670640,,,1133473863888339,1.6837459,Bike
Fix,FLP,37.4217153,-122.1589314,-0.3528738586512929,1.4359591,10.129,320.36792,1677698671183,,,1133474406415134,1.6837459,Bike
Fix,GPS,37.4217971595,-122.1590107036,-10.048021505274365,4.9216423,5.3264074,308.35068,1677698669000,0.32780948,10.0,1133474614058000,5.6588664,Bike
Fix,FLP,37.4217763,-122.1589906,6.442229492204735,4.8572693,9.597,307.94278,1677698671391,0.32780948,10.0,1133474614058000,1.6851602,Bike
Fix,GPS,37.4218322027,-122.159057743,-10.248853315401018,5.067952,4.9600577,307.81024,1677698670000,0.30321,10.0,1133475614093000,5.5035386,Bike
Fix,FLP,37.4218009,-122.1590202,11.369847686215495,5.000223,9.122,307.26303,1677698672390,0.30321,10.0,1133475614093000,1.7008197,Bike
Fix,GPS,37.4218632672,-122.1591076171,-9.73002001434976,5.0922422,5.488657,306.02017,1677698671000,0.35885963,10.0,1133476613853000,5.429471,Bike
Fix,FLP,37.4218476,-122.1590857,11.5191368342327,5.093164,8.08,306.08258,1677698673390,0.35885963,10.0,1133476613853000,1.7051201,Bike
Fix,GPS,37.4218942255,-122.1591585365,-9.696372932154263,5.17997,6.444522,311.84406,1677698672000,0.38751954,10.0,1133477613787000,5.371924,Bike
Fix,FLP,37.4218854,-122.1591466,4.6663129971650825,5.1775365,7.751,310.89148,1677698674389,0.38751954,10.0,1133477613787000,1.7237558,Bike
Fix,GPS,37.4219279023,-122.1592091728,-9.738524291893055,5.26127,4.9260483,316.2067,1677698673000,0.3372313,10.0,1133478614106000,5.291777,Bike
Fix,FLP,37.4219244,-122.1592038,10.326942252120151,5.2598553,6.642,315.8898,1677698675390,0.3372313,10.0,1133478614106000,1.7251401,Bike
Fix,GPS,37.4219661724,-122.1592517004,-10.015928325955642,5.14136,5.3952036,326.59488,1677698674000,0.37482482,10.0,1133479613778000,5.27939,Bike
Fix,FLP,37.4219635,-122.1592494,10.326942252120151,5.147182,6.225,325.75217,1677698676390,0.37482482,10.0,1133479613778000,1.7408297,Bike
Fix,GPS,37.4220072065,-122.1592898962,-9.630796913280042,5.5337286,4.9146376,324.28857,1677698675000,0.31662863,10.0,1133480613885000,5.227936,Bike
Fix,FLP,37.4220055,-122.1592876,5.002461888445701,5.5246387,5.298,324.06104,1677698677390,0.31662863,10.0,1133480613885000,1.7508197,Bike
Fix,GPS,37.4220489062,-122.1593339714,-9.46468445987472,5.3089585,5.2285647,316.45938,1677698676000,0.31193087,10.0,1133481614027000,5.2819805,Bike
Fix,FLP,37.4220478,-122.1593308,5.002461888445701,5.3124413,5.382,316.1807,1677698678390,0.31193087,10.0,1133481614027000,1.7693663,Bike
Fix,GPS,37.4220829528,-122.1593888103,-9.010683836578565,5.535052,5.3644376,308.50357,1677698677000,0.35619658,10.0,1133482614152000,5.2745295,Bike
Fix,FLP,37.4220827,-122.1593833,6.946052794950113,5.5321765,5.165,308.18427,1677698679391,0.35619658,10.0,1133482614152000,1.7793761,Bike
Fix,GPS,37.4221162506,-122.159443828,-9.16527621140956,5.5340123,5.5597367,315.64938,1677698678000,0.3161789,10.0,1133483613830000,5.2991614,Bike
Fix,FLP,37.4221153,-122.1594397,6.946052794950113,5.5334015,5.231,314.838,1677698680389,0.3161789,10.0,1133483613830000,1.7814236,Bike
Fix,GPS,37.4221521792,-122.1594965316,-8.590725020807131,5.7588344,5.6726985,319.85303,1677698679000,0.32233232,10.0,1133484616759000,5.319822,Bike
Fix,FLP,37.4221516,-122.1594921,8.671338539249238,5.7542515,5.348,318.90082,1677698681393,0.32233232,10.0,1133484616759000,1.7978034,Bike
Fix,GPS,37.4221912477,-122.1595457927,-7.919166525702607,5.6670904,5.619611,320.1706,1677698680000,0.30988508,10.0,1133485614120000,5.3117976,Bike
Fix,FLP,37.422191,-122.1595419,7.862822526709639,5.6698093,5.489,319.96588,1677698682390,0.30988508,10.0,1133485614120000,1.8078134,Bike
Fix,GPS,37.4222346503,-122.159591087,-7.536420175358529,5.7232714,5.501624,318.86133,1677698681000,0.34998286,10.0,1133486614199000,5.3103867,Bike
Fix,FLP,37.4222331,-122.1595884,3.268220073490589,5.721761,5.543,318.0501,1677698683391,0.34998286,10.0,1133486614199000,1.8193762,Bike
Fix,GPS,37.4222750271,-122.1596392642,-7.061730137805238,5.698941,5.5018663,318.6285,1677698682000,0.3682911,10.0,1133487614151000,5.2910066,Bike
Fix,FLP,37.4222737,-122.1596367,3.656414138047257,5.699799,5.536,317.99957,1677698684390,0.3682911,10.0,1133487614151000,1.8293762,Bike
Fix,GPS,37.4223130009,-122.1596889576,-6.603513472682644,5.6460605,5.534713,315.66486,1677698683000,0.370888,10.0,1133488613892000,5.3033767,Bike
Fix,FLP,37.4223126,-122.1596858,3.656414138047257,5.647497,5.566,315.0747,1677698685390,0.370888,10.0,1133488613892000,1.8314235,Bike
Fix,GPS,37.4223503823,-122.1597371742,-5.681966729326605,5.574759,5.602044,317.87097,1677698684000,0.349153,10.0,1133489613924000,5.305307,Bike
Fix,FLP,37.4223498,-122.159735,8.967268598439908,5.576881,5.572,316.95026,1677698686390,0.349153,10.0,1133489613924000,1.8414235,Bike
Fix,GPS,37.4223877063,-122.1597824343,-5.197754295963518,5.7510433,5.731868,317.04556,1677698685000,0.37303045,10.0,1133490614281000,5.3418303,Bike
Fix,FLP,37.4223872,-122.1597809,3.656414138047257,5.7466354,5.574,317.00024,1677698687390,0.37303045,10.0,1133490614281000,1.8578234,Bike
Fix,GPS,37.4224267565,-122.1598329857,-4.958682003183794,5.8841357,5.7258244,317.486,1677698686000,0.36738342,10.0,1133491613927000,5.3508463,Bike
Fix,FLP,37.4224262,-122.1598302,5.118942130277166,5.880667,5.599,317.00024,1677698688389,0.36738342,10.0,1133491613927000,1.8737303,Bike
Fix,NLP,37.422423,-122.1598717,-7.700000286102295,,22.422,,1677698689392,,,1133492616000000,1.0,Bike
Fix,FLP,37.4224596,-122.1598697,3.1778142782569354,5.8622837,8.269,317.0055,1677698689392,0.36738342,10.0,1133492616000000,1.6181332,Bike
Fix,GPS,37.4224661666,-122.1598833939,-4.730601375947594,5.834975,5.7482743,317.41,1677698687000,0.3625026,10.0,1133492613959000,5.3517036,Bike
Fix,GPS,37.4225085007,-122.1599324589,-4.385277557118788,6.0741806,5.7728972,318.73294,1677698688000,0.36806726,10.0,1133493614256000,5.3386297,Bike
Fix,FLP,37.4225069,-122.1599299,3.1778142782569354,6.077609,7.893,317.97128,1677698690390,0.36806726,10.0,1133493614256000,1.6165812,Bike
Fix,GPS,37.422548525,-122.159977555,-4.45979368733536,5.8377748,5.793302,321.80902,1677698689000,0.29987004,10.0,1133494614327000,5.304694,Bike
Fix,FLP,37.4225482,-122.159977,-8.700000762939453,5.8449397,7.925,320.9065,1677698691390,0.29987004,10.0,1133494614327000,1.6219137,Bike
Fix,GPS,37.4225932985,-122.1600144557,-5.0608399569311056,5.768075,5.2809834,325.1547,1677698690000,0.03373023,10.0,1133495614357000,4.90389,Bike
Fix,FLP,37.4225919,-122.1600158,-14.395146726149294,5.772315,7.849,324.89105,1677698692391,0.03373023,10.0,1133495614357000,1.3179588,Bike
Fix,GPS,37.4226377674,-122.16005184,-4.736023102399086,5.845562,5.281189,323.61014,1677698691000,0.3382012,10.0,1133496614341000,4.817829,Bike
Fix,FLP,37.4226367,-122.1600524,-16.5927037835158,5.842668,7.775,323.0571,1677698693391,0.3382012,10.0,1133496614341000,1.5971776,Bike
Fix,GPS,37.4226816819,-122.1600919023,-4.477231199471383,5.8399477,5.3474526,321.5305,1677698692000,0.32671693,10.0,1133497614290000,4.7775307,Bike
Fix,FLP,37.4226807,-122.160092,-8.700000762939453,5.8391304,7.704,321.05615,1677698694391,0.32671693,10.0,1133497614290000,1.6071876,Bike
Fix,GPS,37.4227215302,-122.1601333278,-4.18248225806382,5.761945,5.5481853,320.209,1677698693000,0.34545147,10.0,1133498614319000,4.7966614,Bike
Fix,FLP,37.4227215,-122.1601334,1.077811630172885,5.763502,5.45,320.02582,1677698695390,0.34545147,10.0,1133498614319000,1.6171776,Bike
Fix,GPS,37.4227552248,-122.1601693057,-4.1429234574779645,5.699696,5.568831,317.61053,1677698694000,0.34630778,10.0,1133499614052000,4.7885113,Bike
Fix,FLP,37.4227573,-122.1601715,1.312197539447876,5.700419,5.469,317.0774,1677698696390,0.34630778,10.0,1133499614052000,1.6315037,Bike
Fix,GPS,37.4227918072,-122.1602199389,-3.992858385028426,5.531911,5.6271276,317.29398,1677698695000,0.42079595,10.0,1133500614102000,4.796184,Bike
Fix,FLP,37.4227929,-122.1602183,1.312197539447876,5.5361834,5.442,316.9981,1677698697391,0.42079595,10.0,1133500614102000,1.6406168,Bike
Fix,GPS,37.4228301834,-122.1602667458,-4.204948412763829,5.525532,5.628712,316.07254,1677698696000,0.36746967,3.6554472,1133501614429000,4.8338423,Bike
Fix,FLP,37.4228299,-122.1602647,6.796333403859457,5.5256286,5.544,316.00577,1677698698391,0.36746967,3.6554472,1133501614429000,1.6506168,Bike
Fix,GPS,37.4228671689,-122.1603179529,-3.9094471065397016,5.6259885,5.69076,318.34467,1677698697000,0.4351369,4.206935,1133502614382000,4.840748,Bike
Fix,FLP,37.4228666,-122.1603144,3.021011039209601,5.625115,5.612,317.9831,1677698699391,0.4351369,4.206935,1133502614382000,1.6606268,Bike
Fix,GPS,37.4229045944,-122.1603626899,-3.792838946345795,5.7160373,6.1194973,319.844,1677698698000,0.54718876,4.7772484,1133503614136000,4.92793,Bike
Fix,FLP,37.4229045,-122.1603605,2.7226779767218687,5.7148914,5.697,318.9872,1677698700391,0.54718876,4.7772484,1133503614136000,1.7878103,Bike
Fix,GPS,37.4229456776,-122.1604047233,-3.382878413318848,5.576066,5.8386717,323.09924,1677698699000,0.45403874,4.385398,1133504614141000,5.0523996,Bike
Fix,FLP,37.4229448,-122.160404,6.653770304986303,5.5771728,5.781,322.96286,1677698701390,0.45403874,4.385398,1133504614141000,1.6561939,Bike
Fix,GPS,37.4229896182,-122.160447176,-3.1488689485017534,5.564243,5.7770286,324.24777,1677698700000,0.45899567,4.3846984,1133505614496000,5.1414747,Bike
Fix,FLP,37.4229879,-122.1604453,3.711069207694514,5.564366,5.811,323.99048,1677698702391,0.45899567,4.3846984,1133505614496000,1.6661938,Bike
Fix,GPS,37.4230326164,-122.1604866297,-2.855550592545955,5.6520476,5.6893835,322.5134,1677698701000,0.40790862,3.981017,1133506614441000,5.198014,Bike
Fix,FLP,37.4230311,-122.1604851,-11.264986021208305,5.6513915,5.823,322.01477,1677698703391,0.40790862,3.981017,1133506614441000,1.6761838,Bike
Fix,GPS,37.4230717316,-122.1605284205,-2.563113602449388,5.299416,5.489128,326.30692,1677698702000,0.3784684,3.7214563,1133507614192000,5.1901655,Bike
Fix,FLP,37.4230715,-122.160527,-11.264986021208305,5.301471,5.767,325.97467,1677698704390,0.3784684,3.7214563,1133507614192000,1.6851939,Bike
Fix,GPS,37.4231105667,-122.1605639893,-3.282253760304094,4.8746862,5.4443493,331.0707,1677698703000,0.3897349,4.0961523,1133508614255000,5.2007318,Bike
Fix,FLP,37.4231108,-122.1605628,-8.700000762939453,4.8772583,5.647,330.96716,1677698705390,0.3897349,4.0961523,1133508614255000,1.8818731,Bike
Fix,GPS,37.4231482176,-122.1605932358,-3.6016562496998974,4.484931,5.420576,332.22916,1677698704000,0.37486905,4.2843485,1133509614201000,5.1713386,Bike
Fix,FLP,37.4231485,-122.160592,-7.700000286102295,4.4873376,5.564,331.99493,1677698706391,0.37486905,4.2843485,1133509614201000,1.8918831,Bike
Fix,GPS,37.4231831468,-122.1606235304,-3.4317649810129587,4.380474,5.4270234,327.61206,1677698705000,0.3920971,4.685477,1133510614256000,5.2025013,Bike
Fix,FLP,37.4231792,-122.1606174,-7.700000286102295,4.3818035,5.524,327.0642,1677698707390,0.3920971,4.685477,1133510614256000,1.9029131,Bike
Fix,GPS,37.4232178424,-122.1606541943,-3.089538440084511,4.0102086,5.4656177,314.64667,1677698706000,0.3680045,5.039552,1133511614524000,5.2109613,Bike
Fix,FLP,37.4232096,-122.1606457,-10.735415309741285,4.014978,5.442,314.2558,1677698708390,0.3680045,5.039552,1133511614524000,1.1969379,Bike
Fix,GPS,37.4232383,-122.1607005873,-2.7647795650483364,3.627315,5.446384,293.08185,1677698707000,0.407954,7.018283,1133512614270000,5.230357,Bike
Fix,FLP,37.4232321,-122.1606813,-7.700000286102295,3.6390436,5.442,294.45026,1677698709391,0.407954,7.018283,1133512614270000,1.7468774,Bike
Fix,GPS,37.4232428549,-122.1607420153,-3.2099343141377665,2.705022,5.507336,281.53696,1677698708000,0.37403047,8.797412,1133513614279000,5.276621,Bike
Fix,FLP,37.4232438,-122.1607306,-7.700000286102295,2.717501,5.449,281.27835,1677698710391,0.37403047,8.797412,1133513614279000,1.7451938,Bike
Fix,GPS,37.4232339051,-122.1607710253,-3.607854071758834,2.0072024,5.6682453,261.2665,1677698709000,0.43195018,14.176431,1133514614279000,5.366,Bike
Fix,FLP,37.4232406,-122.1607625,-5.261419240570103,2.0248563,5.479,262.12802,1677698711391,0.43195018,14.176431,1133514614279000,1.7551938,Bike
Fix,GPS,37.4232071968,-122.1608008747,-4.038173263559833,2.3938348,5.770516,230.3238,1677698710000,0.4612146,11.027065,1133515614275000,5.439172,Bike
Fix,FLP,37.4232245,-122.1607865,-0.224213980329285,2.2934859,5.539,234.13522,1677698712391,0.4612146,11.027065,1133515614275000,1.7651838,Bike
Fix,FLP,37.4232056,-122.1608083,10.51097503838216,1.9125943,5.91,334.63144,1677698713428,,,1133516651068332,1.7752138,Bike
Fix,GPS,37.423167953,-122.1608247291,-4.639405679754346,3.390645,5.9231067,198.89552,1677698711000,0.3877523,6.1268716,1133516614310000,5.5324774,Bike
Fix,FLP,37.4232015,-122.1608197,10.51097503838216,2.8507543,6.718,200.46237,1677698713970,,,1133517193591403,1.7752138,Bike
Fix,GPS,37.4231032075,-122.1608537681,-4.69032579050044,3.9993384,5.7453737,201.15031,1677698712000,0.37494484,5.1609387,1133517614337000,5.564781,Bike
Fix,FLP,37.4231898,-122.1608227,3.8867850969338953,3.10299,6.999,200.33775,1677698714513,,,1133517736113559,1.7852038,Bike
Fix,FLP,37.4231307,-122.1608474,3.8867850969338953,3.8857315,7.668,201.49426,1677698715055,,,1133518278636508,1.7852038,Bike
Fix,GPS,37.423049021,-122.1608691512,-4.309254978948856,4.1344895,5.519001,206.77943,1677698713000,0.35922316,4.727002,1133518614392000,5.474735,Bike
Fix,FLP,37.4230667,-122.1608727,2.658893500958253,4.088006,8.275,209.74165,1677698716140,,,1133519363682712,1.8054172,Bike
Fix,GPS,37.4230073716,-122.1608874722,-3.319239264380452,4.281965,5.5523396,216.231,1677698714000,0.39276248,5.0371847,1133519614350000,5.4702783,Bike
Fix,FLP,37.4230064,-122.1609019,2.3605604384705217,4.267909,8.823,215.39575,1677698717224,,,1133520448728366,1.9919231,Bike
Fix,GPS,37.4229702686,-122.1609109869,-2.962116935497173,4.3694015,5.638356,219.72704,1677698715000,0.38590777,4.806807,1133520614358000,5.489753,Bike
Fix,FLP,37.422967,-122.160925,6.053456683149317,4.3490205,9.677,217.95624,1677698717768,,,1133520991247164,2.001883,Bike
Fix,GPS,37.4229318957,-122.1609396938,-1.9107357955195656,4.3785086,5.653274,221.47137,1677698716000,0.38195223,4.765581,1133521614344000,5.5323443,Bike
Fix,FLP,37.4229534,-122.1609348,4.069345231229509,4.378035,9.68,219.32115,1677698718309,,,1133521533774325,1.2970979,Bike
Fix,FLP,37.4229271,-122.160956,4.069345231229509,4.3845673,9.667,221.39856,1677698718853,,,1133522076296786,1.2970979,Bike
Fix,GPS,37.4228988457,-122.1609708511,-0.6708534441444175,4.2297683,5.7132215,221.72653,1677698717000,0.38836405,5.0183535,1133522614364000,5.620925,Bike
Fix,FLP,37.4229133,-122.1609682,-4.398534311400006,4.3999033,9.646,222.32295,1677698719394,,,1133522618820773,1.8474375,Bike
Fix,FLP,37.4228867,-122.1609927,-4.398534311400006,4.269386,9.574,222.19879,1677698719937,,,1133523161332370,1.8474375,Bike
Fix,GPS,37.4228673322,-122.160999359,-0.2232816836900923,4.059828,5.7413826,221.57298,1677698718000,0.3499746,4.7397003,1133523614399000,5.640863,Bike
Fix,FLP,37.422881,-122.1609978,-16.474991993999776,4.265578,9.618,222.81589,1677698720480,,,1133523703851718,1.8570575,Bike
Fix,FLP,37.4228512,-122.1610252,-16.474991993999776,4.0872016,9.606,221.87222,1677698721023,,,1133524246393344,1.8570575,Bike
Fix,GPS,37.4228328654,-122.1610265282,-0.0926716393833547,3.9332523,5.708842,219.8357,1677698719000,0.347647,4.868359,1133524614390000,5.65454,Bike
Fix,GPS,37.4227983938,-122.1610582945,-0.6529785390187964,3.6111314,5.584343,219.43843,1677698720000,0.3351243,5.1191893,1133525614846000,5.673429,Bike
Fix,FLP,37.4228194,-122.1610512,-8.700000762939453,3.9678721,9.788,219.86432,1677698722108,,,1133525331445834,1.8653538,Bike
Fix,FLP,37.4227831,-122.1610826,-8.700000762939453,3.6782508,9.815,218.51305,1677698723193,,,1133526416498324,1.8653538,Bike
Fix,GPS,37.4227696759,-122.1610844745,-1.2389004624629991,3.2475133,5.530769,221.17093,1677698721000,0.3457879,5.812963,1133526614813000,5.6382446,Bike
Fix,FLP,37.4227682,-122.1610932,-7.700000286102295,3.3615677,9.858,219.98895,1677698723806,,,1133527030000000,1.8757439,Bike
Fix,GPS,37.4227445682,-122.1611083027,-1.8750830455378331,2.979421,5.6859016,222.60991,1677698722000,0.36795884,6.7604938,1133527614618000,5.683955,Bike
Fix,FLP,37.4227527,-122.1611077,-2.0017933627074456,3.2764516,9.866,219.28224,1677698724387,,,1133527610063998,1.8861839,Bike
Fix,FLP,37.4227378,-122.1611233,-2.0017933627074456,3.0360281,9.848,223.8389,1677698724928,,,1133528152592380,1.8861839,Bike
Fix,FLP,37.4227278,-122.1611368,-2.0017933627074456,3.0010858,9.907,231.51604,1677698725466,,,1133528689000000,1.8861839,Bike
Fix,GPS,37.4227228196,-122.161130595,-2.0622211818017337,2.329452,5.8127084,234.32538,1677698723000,0.34208393,8.040651,1133528614648000,5.7460117,Bike
Fix,GPS,37.4227226049,-122.1611586957,-2.5328740916833272,1.8929658,5.8754272,263.62686,1677698724000,0.37494045,12.036211,1133529614523000,5.7266645,Bike
Fix,FLP,37.4227109,-122.1611583,-2.0017933627074456,2.3970675,10.053,240.64395,1677698726014,,,1133529237647250,1.9053539,Bike
Fix,FLP,37.4227143,-122.1611634,-2.0017933627074456,1.964012,10.195,259.65997,1677698726556,,,1133529780179416,1.9053539,Bike
Fix,FLP,37.4227176,-122.1611769,-2.0017933627074456,1.8839912,10.222,280.28455,1677698727099,,,1133530322695285,1.9053539,Bike
Fix,GPS,37.4227312726,-122.1611905572,-3.1874516238150967,2.1944442,5.838636,294.23596,1677698725000,0.3487811,9.614067,1133530614594000,5.6198606,Bike
Fix,FLP,37.4227314,-122.1612025,-2.9986465740226897,2.1380405,10.271,309.39557,1677698728183,,,1133531407763155,1.9251871,Bike
Fix,GPS,37.4227533602,-122.1612234773,-3.12196672325486,2.7148921,5.7598143,317.78473,1677698726000,0.37399992,7.4000225,1133531614501000,5.519579,Bike
Fix,FLP,37.4227555,-122.1612308,-7.700000286102295,2.645593,10.333,317.32147,1677698729268,,,1133532492811312,1.9363972,Bike
Fix,GPS,37.4227820955,-122.1612491856,-3.1494662390246355,3.1959531,5.8612533,318.4045,1677698727000,0.38819912,6.5153956,1133532614528000,5.4776764,Bike
Fix,FLP,37.4227861,-122.1612618,-5.674558856599994,3.1256437,10.391,310.72232,1677698730322,,,1133533545000000,2.0773904,Bike
Fix,GPS,37.4228206469,-122.1612864353,-3.1441839789496373,3.9928458,5.734805,315.73636,1677698728000,0.36080506,4.9406257,1133533614617000,5.4185066,Bike
Fix,FLP,37.4228168,-122.1612964,5.618706671346132,3.8312309,10.404,308.17654,1677698730897,,,1133534120414523,1.4178979,Bike
Fix,GPS,37.4228551098,-122.1613339672,-2.9678835298031485,4.166837,5.7358093,301.63287,1677698729000,0.4121815,5.8164406,1133534614542000,5.3706455,Bike
Fix,FLP,37.4228257,-122.1613085,3.2487892611635445,3.9926276,10.363,300.73,1677698731438,,,1133534662926486,1.427498,Bike
Fix,FLP,37.4228486,-122.1613447,3.2487892611635445,4.191948,10.295,293.8902,1677698731981,,,1133535205471591,1.427498,Bike
Fix,GPS,37.4228719748,-122.161388949,-3.1105585383305443,3.9805572,5.607361,288.6058,1677698730000,0.47103474,7.5480394,1133535614630000,5.352505,Bike
Fix,FLP,37.4228571,-122.1613615,11.510445270458565,4.2184315,10.231,289.59366,1677698732525,,,1133535748001071,1.9778575,Bike
Fix,FLP,37.4228697,-122.1614022,11.510445270458565,4.039963,10.09,288.3688,1677698733067,,,1133536290530490,1.9778575,Bike
Fix,GPS,37.42287512,-122.1614444648,-4.055096536025224,3.485471,5.447015,276.46655,1677698731000,0.35575125,6.262659,1133536614724000,5.276211,Bike
Fix,FLP,37.4228781,-122.1614438,6.790712590992001,3.565883,9.771,279.7369,1677698733609,,,1133536833057223,1.9874475,Bike
Fix,GPS,37.4228722592,-122.1614910442,-4.275378914648966,3.385003,5.3760033,279.92087,1677698732000,0.31992802,5.5229125,1133537614671000,5.207643,Bike
Fix,FLP,37.4228794,-122.1614638,12.731441894993406,3.508075,9.636,277.78702,1677698734152,,,1133537375592379,1.9978474,Bike
Fix,FLP,37.4228797,-122.1614916,12.731441894993406,3.3967004,9.643,280.65952,1677698734695,,,1133537918118442,1.9978474,Bike
Fix,GPS,37.4228743632,-122.1615391743,-4.202865528613537,3.8197675,5.1728625,292.13483,1677698733000,0.31991073,4.8133183,1133538614635000,5.1173444,Bike
Fix,FLP,37.4228816,-122.1615126,12.542758785280691,3.3758562,9.475,284.6938,1677698735236,,,1133538460648410,2.0074475,Bike
Fix,FLP,37.4228822,-122.1615379,12.542758785280691,3.6899412,9.427,289.20773,1677698735780,,,1133539003179903,2.0074475,Bike
Fix,GPS,37.4228878865,-122.1615882692,-4.265162507773771,4.23362,5.021827,299.54904,1677698734000,0.29526785,3.9232051,1133539614611000,5.0430055,Bike
Fix,FLP,37.4228872,-122.1615654,10.08208261771355,3.7721584,9.301,293.52814,1677698736321,,,1133539545706027,2.0061738,Bike
Fix,GPS,37.422908044,-122.1616386172,-4.502386132584627,4.228219,5.0028615,302.04398,1677698735000,0.286312,3.772121,1133540614654000,4.982764,Bike
Fix,FLP,37.4229003,-122.1616142,8.024315119941257,4.135944,9.068,296.29065,1677698737407,,,1133540630762607,2.0157537,Bike
Fix,FLP,37.422917,-122.16166,8.024315119941257,4.1937413,9.051,302.08527,1677698737949,,,1133541173290317,2.0157537,Bike
Fix,GPS,37.4229299461,-122.1616861178,-4.646361704628244,4.422514,4.9627404,304.92834,1677698736000,0.3155281,4.019059,1133541614921000,4.919878,Bike
Fix,FLP,37.4229205,-122.1616663,10.08208261771355,4.217109,9.044,304.5572,1677698738491,,,1133541715821627,2.025364,Bike
Fix,FLP,37.4229395,-122.1617043,10.08208261771355,4.3747954,8.973,306.29187,1677698739035,,,1133542258343539,2.025364,Bike
Fix,GPS,37.4229549502,-122.1617338847,-4.808812799160345,4.941037,5.1051154,305.11743,1677698737000,0.35749736,4.106306,1133542614687000,4.9083085,Bike
Fix,FLP,37.4229563,-122.1617381,12.152111207378509,4.771975,8.814,305.07654,1677698739576,,,1133542800877718,2.035754,Bike
Fix,GPS,37.4229823421,-122.1617898314,-4.823438711347414,5.198068,5.146169,303.7197,1677698738000,0.36106944,3.964015,1133543614724000,4.9079366,Bike
Fix,FLP,37.4229764,-122.1617774,10.96340600304752,5.1964226,8.395,303.02313,1677698740391,0.36106944,3.964015,1133543614724000,2.045394,Bike
Fix,GPS,37.423007724,-122.1618469011,-4.640017350285657,5.232662,5.2688932,300.4376,1677698739000,0.3775377,4.1896253,1133544614687000,4.928234,Bike
Fix,FLP,37.4230057,-122.16184,-2.103372622378213,5.232425,7.955,300.02054,1677698741390,0.3775377,4.1896253,1133544614687000,2.0557938,Bike
Fix,GPS,37.4230296113,-122.1619063151,-4.353859080026832,5.2362347,5.254675,298.25693,1677698740000,0.37956074,4.244074,1133545614711000,4.945163,Bike
Fix,FLP,37.4230295,-122.1619012,11.853778144890777,5.2362313,7.469,298.014,1677698742391,0.37956074,4.244074,1133545614711000,2.2078004,Bike
Fix,GPS,37.4230478092,-122.1619676299,-4.509454319884921,5.116055,5.076495,293.269,1677698741000,0.33766532,3.8169,1133546615016000,4.944547,Bike
Fix,FLP,37.423049,-122.1619631,13.118334947514,5.1166334,6.859,293.02792,1677698743391,0.33766532,3.8169,1133546615016000,2.2173903,Bike
Fix,GPS,37.4230608627,-122.1620307805,-4.834049963842214,4.959539,4.972492,289.85638,1677698742000,0.34106207,4.043266,1133547614952000,4.9162703,Bike
Fix,FLP,37.4230628,-122.1620262,3.597646571074275,4.9603896,5.766,289.02383,1677698744391,0.34106207,4.043266,1133547614952000,2.2270005,Bike
Fix,GPS,37.4230724088,-122.1620963852,-4.519620698245559,4.8826575,5.102339,288.0375,1677698743000,0.3798104,4.6794357,1133548615608000,4.8988986,Bike
Fix,FLP,37.4230758,-122.1620864,4.387903280505544,4.9467564,5.837,288.83606,1677698745392,,,1133548615608000,2.2373903,Bike
Fix,GPS,37.4230792083,-122.1621607958,-4.144827814471312,4.824273,5.2535176,286.22986,1677698744000,0.3659565,4.4680104,1133549614767000,4.912073,Bike
Fix,FLP,37.4230814,-122.1621263,13.3116401201261,4.2272406,6.975,240.07121,1677698746453,,,1133549677416049,2.2470105,Bike
Fix,FLP,37.4230784,-122.1621676,13.3116401201261,4.522985,7.335,267.55823,1677698746966,,,1133550190000000,2.2470105,Bike
Fix,GPS,37.4230858945,-122.1622257086,-3.7575255142388473,4.920625,5.357433,283.95453,1677698745000,0.37489817,4.5382485,1133550614814000,4.9585547,Bike
Fix,FLP,37.4230848,-122.1622017,8.711715259976636,4.6621056,7.979,279.19833,1677698747539,,,1133550762461764,2.1159654,Bike
Fix,GPS,37.4230919751,-122.1622879707,-3.9339989324321296,4.692226,5.4269423,287.19052,1677698746000,0.37998196,4.869323,1133551614846000,4.9946294,Bike
Fix,FLP,37.4230917,-122.1622552,2.715074330877652,4.882787,8.275,282.88525,1677698748081,,,1133551304999057,2.1255753,Bike
Fix,FLP,37.4230937,-122.162274,2.715074330877652,4.7479315,8.791,284.96234,1677698748585,,,1133551809000000,2.1255753,Bike
Fix,FLP,37.4231019,-122.1623177,2.715074330877652,4.6959424,8.906,286.30194,1677698749167,,,1133552390058505,2.1255753,Bike
Fix,GPS,37.4231003664,-122.1623458049,-4.3725098719713165,4.8095145,5.474989,290.81616,1677698747000,0.37373272,4.634041,1133552614811000,5.008796,Bike
Fix,FLP,37.4231122,-122.1623738,6.1571176419193705,4.7683706,9.448,289.3307,1677698750232,,,1133553455000000,2.1359653,Bike
Fix,GPS,37.4231090303,-122.1623965358,-4.179199568112188,5.0824013,5.504987,290.0207,1677698748000,0.38087824,4.3990893,1133553614832000,5.0429974,Bike
Fix,FLP,37.4231198,-122.1624124,14.65174938104764,5.0022354,9.958,289.83722,1677698750793,,,1133554017641146,2.1455753,Bike
Fix,GPS,37.4231158567,-122.1624521179,-3.613969094821697,5.0041394,5.3303947,289.6448,1677698749000,0.33140382,3.802026,1133554615501000,5.033742,Bike
Fix,FLP,37.4231197,-122.1624471,6.1571176419193705,5.0042048,9.276,288.9926,1677698751392,0.33140382,3.802026,1133554615501000,2.1559854,Bike
Fix,GPS,37.4231251194,-122.1625099889,-3.374924455100653,4.8948493,5.3101006,290.35004,1677698750000,0.35927296,4.3328342,1133555614863000,5.058108,Bike
Fix,FLP,37.4231304,-122.1625034,-0.5070589110967205,5.061687,9.166,289.4619,1677698752390,,,1133555614863000,2.1655653,Bike
Fix,GPS,37.4231362675,-122.1625614519,-2.557899708926042,5.0413094,5.2295,289.38293,1677698751000,0.35631916,4.1202097,1133556614887000,5.050853,Bike
Fix,FLP,37.4231375,-122.1625473,6.046754346004228,4.2190223,9.197,243.46568,1677698753452,,,1133556676015108,2.1759553,Bike
Fix,FLP,37.4231327,-122.1625794,6.046754346004228,4.676224,9.51,264.94928,1677698753995,,,1133557218555087,2.1759553,Bike
Fix,GPS,37.4231496159,-122.162618527,-2.031840367889368,5.293859,5.213459,289.60663,1677698752000,0.36196366,3.9134243,1133557614936000,5.043261,Bike
Fix,FLP,37.4231445,-122.1626111,12.270223950640844,5.284945,8.993,288.83923,1677698754391,0.36196366,3.9134243,1133557614936000,2.1635118,Bike
Fix,GPS,37.4231646935,-122.1626833971,-1.9876247529360305,5.180325,5.167197,288.66898,1677698753000,0.33556187,3.7649574,1133558614972000,5.012777,Bike
Fix,FLP,37.4231631,-122.1626782,-0.3283673661331932,5.1809187,8.369,288.00476,1677698755390,0.33556187,3.7649574,1133558614972000,2.1739118,Bike
Fix,GPS,37.4231784116,-122.1627479844,-2.1684460324811687,5.0113473,5.1890855,288.77676,1677698754000,0.3461731,4.0717816,1133559614913000,4.9753504,Bike
Fix,FLP,37.4231781,-122.1627433,-0.2824175011733132,5.012346,7.897,288.00012,1677698756390,0.3461731,4.0717816,1133559614913000,2.1835117,Bike
Fix,GPS,37.4231924856,-122.16280783,-2.3872538677135613,5.2157736,5.2094374,291.17514,1677698755000,0.34340703,3.8494012,1133560614989000,4.943566,Bike
Fix,FLP,37.4231923,-122.1628043,15.29109633356597,5.214586,7.758,290.98315,1677698757391,0.34340703,3.8494012,1133560614989000,2.1939118,Bike
Fix,GPS,37.4232057175,-122.1628720331,-2.0095170743782296,5.2654166,5.158723,290.30566,1677698756000,0.32688367,3.6463645,1133561614940000,4.9098716,Bike
Fix,FLP,37.4232068,-122.1628679,9.499355437163285,5.2651725,6.899,290.00497,1677698758390,0.32688367,3.6463645,1133561614940000,2.2035117,Bike
Fix,GPS,37.4232200919,-122.162932977,-1.820722160856411,5.1496663,5.1256123,289.39865,1677698757000,0.33286104,3.8030746,1133562614956000,4.8715243,Bike
Fix,FLP,37.4232211,-122.16293,-0.8962679388975445,5.1502943,5.17,289.00565,1677698759390,0.33286104,3.8030746,1133562614956000,2.2078526,Bike
Fix,GPS,37.4232377538,-122.1629971051,-2.281564668611536,5.24064,4.9854226,287.97006,1677698758000,0.33967447,3.7956905,1133563614991000,4.8469367,Bike
Fix,FLP,37.4232373,-122.1629933,9.201022374675553,5.2401524,5.133,287.01114,1677698760390,0.33967447,3.7956905,1133563614991000,2.2174425,Bike
Fix,GPS,37.4232509234,-122.1630647583,-2.2723445821313084,5.5367255,4.886328,284.1226,1677698759000,0.337764,3.5364392,1133564615011000,4.823017,Bike
Fix,FLP,37.423251,-122.1630601,9.716273825296142,5.535103,5.073,284.01562,1677698761392,0.337764,3.5364392,1133564615011000,2.3298945,Bike
Fix,GPS,37.4232623452,-122.1631310298,-2.321447727365332,5.1516366,4.8309045,284.51657,1677698760000,0.3572437,4.1404357,1133565615023000,4.8000984,Bike
Fix,FLP,37.4232625,-122.1631278,-0.8962679388975445,5.154002,4.997,284.0005,1677698762392,0.3572437,4.1404357,1133565615023000,2.3395047,Bike
Fix,GPS,37.4232711324,-122.163190638,-2.5984218318898527,5.0708203,4.8567333,285.82947,1677698761000,0.35321,4.107848,1133566615015000,4.7697964,Bike
Fix,FLP,37.4232719,-122.1631886,5.043356455704462,5.0713153,4.937,284.99362,1677698763392,0.35321,4.107848,1133566615015000,2.3499048,Bike
Fix,GPS,37.4232817303,-122.1632479739,-2.500357905941359,5.250677,4.9422836,285.97348,1677698762000,0.36863512,4.2002473,1133567616116000,4.7741394,Bike
Fix,FLP,37.4232824,-122.1632468,13.283002037846472,5.2495136,4.9,284.99963,1677698764393,0.36863512,4.2002473,1133567616116000,2.3603046,Bike
Fix,GPS,37.4232925165,-122.1633094624,-2.5808501221038536,5.2618155,4.8835382,286.6101,1677698763000,0.34753847,3.9012547,1133568615051000,4.7693133,Bike
Fix,FLP,37.4232932,-122.1633078,4.407826673288593,5.261741,4.88,285.99387,1677698765392,0.34753847,3.9012547,1133568615051000,2.3699048,Bike
Fix,GPS,37.4233049202,-122.1633698533,-2.850379034038378,5.3227687,4.909666,285.6505,1677698764000,0.36707264,4.1912484,1133569615086000,4.761969,Bike
Fix,FLP,37.4233053,-122.1633684,4.54575914195599,5.322391,4.884,285.00677,1677698766392,0.36707264,4.1912484,1133569615086000,2.3803046,Bike
Fix,GPS,37.4233154565,-122.1634307639,-3.043643150920066,5.3353615,4.9450293,286.30487,1677698765000,0.36365667,4.146953,1133570615624000,4.7237506,Bike
Fix,FLP,37.4233162,-122.1634295,10.362427173275584,5.3352637,4.907,285.99298,1677698767391,0.36365667,4.146953,1133570615624000,2.3899047,Bike
Fix,GPS,37.4233226111,-122.1634895689,-2.9465084395332246,5.2830057,4.962624,283.0346,1677698766000,0.3690858,4.2909493,1133571615173000,4.730471,Bike
Fix,FLP,37.4233248,-122.1634889,10.660760235763316,5.2833524,4.928,283.02197,1677698768392,0.3690858,4.2909493,1133571615173000,2.3035219,Bike
Fix,GPS,37.4233294051,-122.1635480239,-2.9848325518195047,5.2288437,4.9949107,281.19235,1677698767000,0.3649946,4.330233,1133572615174000,4.738523,Bike
Fix,FLP,37.4233313,-122.1635478,2.434173914988648,5.2292037,4.939,281.01483,1677698769391,0.3649946,4.330233,1133572615174000,2.3139017,Bike
Fix,GPS,37.4233373201,-122.1636066427,-2.7277130941289163,5.3092,5.0622034,280.7742,1677698768000,0.35613766,4.072686,1133573615152000,4.728126,Bike
Fix,FLP,37.4233383,-122.1636064,5.886321383683175,5.30872,4.975,280.0065,1677698770391,0.35613766,4.072686,1133573615152000,2.3235018,Bike
Fix,GPS,37.4233408794,-122.1636699121,-2.5934688892540816,5.3371983,5.0568643,282.2703,1677698769000,0.3300024,3.6517751,1133574615431000,4.6982803,Bike
Fix,FLP,37.4233427,-122.1636685,17.640728131522973,5.3370266,5.004,281.98898,1677698771392,0.3300024,3.6517751,1133574615431000,2.3559654,Bike
Fix,GPS,37.4233487122,-122.163735158,-2.710854409978376,5.3154516,4.8392763,284.12933,1677698770000,0.31006,3.4054239,1133575615653000,4.6639767,Bike
Fix,FLP,37.42335,-122.1637328,8.505744891910457,5.3155365,4.983,283.99036,1677698772391,0.31006,3.4054239,1133575615653000,2.3655753,Bike
Fix,GPS,37.4233584477,-122.1637967527,-2.645339988706544,5.1817846,4.80777,287.7826,1677698771000,0.31589165,3.4883697,1133576615559000,4.638576,Bike
Fix,FLP,37.4233594,-122.163795,1.6058274021900658,5.182391,4.952,286.9853,1677698773391,0.31589165,3.4883697,1133576615559000,2.3759754,Bike
Fix,GPS,37.4233708528,-122.1638571616,-2.590396461021282,5.1732078,4.816455,287.3007,1677698772000,0.3336182,3.7617059,1133577615530000,4.634375,Bike
Fix,FLP,37.4233716,-122.1638553,7.787187816031025,5.1732635,4.916,286.99985,1677698774392,0.3336182,3.7617059,1133577615530000,2.3855653,Bike
Fix,GPS,37.4233841166,-122.1639163755,-2.3228838241208023,5.3375564,4.837776,288.5434,1677698773000,0.3283429,3.561733,1133578615484000,4.6471972,Bike
Fix,FLP,37.4233845,-122.1639148,7.417200740334941,5.3367105,4.871,287.99484,1677698775392,0.3283429,3.561733,1133578615484000,2.3959653,Bike
Fix,GPS,37.4233963378,-122.1639744322,-2.6265133640447638,5.2420926,4.802836,287.48056,1677698774000,0.32308662,3.567639,1133579615208000,4.6592155,Bike
Fix,FLP,37.4233973,-122.1639737,0.779604529868184,5.2425637,4.86,287.00507,1677698776392,0.32308662,3.567639,1133579615208000,2.4055653,Bike
Fix,GPS,37.42340632,-122.1640318147,-2.7073371138989315,5.294978,4.8433247,284.40912,1677698775000,0.34678888,3.7535684,1133580615244000,4.6775365,Bike
Fix,FLP,37.4234078,-122.1640314,10.388797269389212,5.294637,4.824,284.0169,1677698777391,0.34678888,3.7535684,1133580615244000,2.4159653,Bike
Fix,GPS,37.4234135794,-122.1640898728,-2.6192138380415786,5.3617187,4.8758354,282.30267,1677698776000,0.34863037,3.837754,1133581615270000,4.6977377,Bike
Fix,FLP,37.4234154,-122.1640898,11.319233128334428,5.36132,4.83,282.01196,1677698778392,0.34863037,3.837754,1133581615270000,2.4255853,Bike
Fix,GPS,37.4234219966,-122.164150741,-2.5566509483689424,5.29324,4.8973117,284.72543,1677698777000,0.35669947,3.973926,1133582615268000,4.724294,Bike
Fix,FLP,37.4234231,-122.1641502,10.46445526125611,5.2936215,4.845,283.98715,1677698779391,0.35669947,3.973926,1133582615268000,1.5186253,Bike
Fix,GPS,37.4234330274,-122.164211403,-2.572926950453545,5.3424845,4.956651,287.66425,1677698778000,0.3666128,4.058131,1133583615447000,4.7531233,Bike
Fix,FLP,37.4234335,-122.1642105,4.334264146271067,5.3421006,4.869,286.9798,1677698780392,0.3666128,4.058131,1133583615447000,1.5200983,Bike
Fix,GPS,37.4234477658,-122.164277685,-3.04291014915624,5.5434456,5.007474,286.1101,1677698779000,0.37226966,3.9577804,1133584615365000,4.7977853,Bike
Fix,FLP,37.4234477,-122.1642747,14.186171134975176,5.542134,4.916,286.0063,1677698781392,0.37226966,3.9577804,1133584615365000,1.5159162,Bike
Fix,GPS,37.4234658026,-122.1643479872,-3.67987559026269,5.4725313,4.828849,283.19455,1677698780000,0.31756836,3.3203766,1133585615497000,4.8038197,Bike
Fix,FLP,37.4234644,-122.1643439,14.186171134975176,5.4728513,4.913,283.0146,1677698782391,0.31756836,3.3203766,1133585615497000,1.511906,Bike
Fix,GPS,37.4234762648,-122.1644033517,-4.20622304916299,5.2464957,4.845522,282.5254,1677698781000,0.31756777,3.483969,1133586615371000,4.773702,Bike
Fix,FLP,37.423476,-122.1644037,-0.6900087223267342,5.24758,4.907,282.00516,1677698783392,0.31756777,3.483969,1133586615371000,1.9710996,Bike
Fix,GPS,37.4234831739,-122.1644563384,-4.1136226564492455,5.236776,4.981736,285.50143,1677698782000,0.34151706,3.8579981,1133587615342000,4.760257,Bike
Fix,FLP,37.4234841,-122.1644581,5.613023837747239,5.236766,4.924,284.98236,1677698784391,0.34151706,3.8579981,1133587615342000,1.5752058,Bike
Fix,GPS,37.423494613,-122.1645078064,-3.564577482697733,5.0474577,5.0686326,287.9691,1677698783000,0.36770773,4.3100533,1133588615473000,4.7547355,Bike
Fix,FLP,37.4234951,-122.1645103,13.271751389211468,5.048632,4.946,286.98602,1677698785392,0.36770773,4.3100533,1133588615473000,1.5316107,Bike
Fix,GPS,37.4235082466,-122.1645595047,-3.0639014286037205,4.854489,5.0600615,287.84766,1677698784000,0.33867466,4.098125,1133589615720000,4.7477317,Bike
Fix,FLP,37.4235083,-122.1645613,15.791247649856317,4.855545,4.957,287.0001,1677698786391,0.33867466,4.098125,1133589615720000,1.5193335,Bike
Fix,GPS,37.4235199328,-122.1646109189,-2.877836492642452,4.6257544,5.0374756,287.9562,1677698785000,0.33649966,4.322579,1133590615394000,4.740868,Bike
Fix,FLP,37.4235191,-122.1646064,7.338609430232857,4.627952,4.983,287.00046,1677698787392,0.33649966,4.322579,1133590615394000,1.662535,Bike
Fix,GPS,37.4235315082,-122.1646596888,-2.746420190238247,4.430138,4.9719105,290.2763,1677698786000,0.3274326,4.2532744,1133591615436000,4.75554,Bike
Fix,FLP,37.4235309,-122.1646564,13.271751389211468,4.4315085,5.031,289.97745,1677698788392,0.3274326,4.2532744,1133591615436000,1.6387638,Bike
Fix,GPS,37.4235445107,-122.1647014549,-2.254271434864089,4.5209904,5.043565,290.73218,1677698787000,0.33158505,4.1452756,1133592615444000,4.816549,Bike
Fix,FLP,37.4235393,-122.1646853,14.724231661290515,4.4749937,5.024,290.0026,1677698789391,0.33158505,4.1452756,1133592615444000,1.702109,Bike
Fix,GPS,37.4235587785,-122.1647464826,-2.028299921888707,4.475068,5.159348,287.43478,1677698788000,0.3355182,4.228354,1133593615730000,4.8727865,Bike
Fix,FLP,37.4235523,-122.1647271,8.908651589667784,4.4792013,5.035,287.3117,1677698790392,0.3355182,4.228354,1133593615730000,1.6270074,Bike
Fix,GPS,37.4235732665,-122.1647971975,-1.8280471485709635,4.4817133,5.120843,285.93143,1677698789000,0.36210984,4.551642,1133594615717000,4.8842087,Bike
Fix,FLP,37.4235667,-122.1647765,11.99796794997377,4.4812527,5.053,285.1084,1677698791391,0.36210984,4.551642,1133594615717000,1.6420453,Bike
Fix,GPS,37.4235859193,-122.1648464188,-1.850198588945096,4.5939655,5.1591105,286.35907,1677698790000,0.38888547,4.689687,1133595615492000,4.9117756,Bike
Fix,FLP,37.4235808,-122.1648299,9.864005480741652,4.590682,5.069,285.97238,1677698792392,0.38888547,4.689687,1133595615492000,1.6609224,Bike
Fix,GPS,37.4235987685,-122.1648938169,-2.091524505401472,4.529111,5.1757083,288.70444,1677698791000,0.38123724,4.7660875,1133596615476000,4.929973,Bike
Fix,FLP,37.4235893,-122.1648634,11.947347844628773,4.2986803,5.438,227.23834,1677698793400,,,1133596623836947,1.6912799,Bike
Fix,FLP,37.4235844,-122.1648914,11.947347844628773,4.2775035,5.73,260.24002,1677698793943,,,1133597166358493,1.6912799,Bike
Fix,GPS,37.4236143609,-122.1649417701,-2.4257115670032428,4.1075716,5.101428,291.64334,1677698792000,0.36577305,5.1758966,1133597615510000,4.9304504,Bike
Fix,FLP,37.4235907,-122.1649163,11.947347844628773,4.4005146,6.028,273.41525,1677698794485,,,1133597708884005,1.6543607,Bike
Fix,GPS,37.4236279088,-122.1649892822,-2.38862388334215,3.89296,5.082958,285.09415,1677698793000,0.33032873,4.793643,1133598615580000,4.9281163,Bike
Fix,FLP,37.4236084,-122.1649596,12.435891358280376,4.171185,6.641,284.67563,1677698795028,,,1133598251401645,1.5433787,Bike
Fix,FLP,37.4236185,-122.1649846,12.435891358280376,3.9593318,6.96,285.6629,1677698795569,,,1133598793923556,1.5433787,Bike
Fix,GPS,37.4236335334,-122.165037348,-2.515464270647689,3.781924,4.9906387,279.07394,1677698794000,0.3153347,4.8253365,1133599615531000,4.911612,Bike
Fix,FLP,37.4236254,-122.1650104,16.013872358503935,3.921539,7.239,282.62296,1677698796112,,,1133599336444613,1.5478925,Bike
Fix,FLP,37.423631,-122.1650354,16.013872358503935,3.8229275,7.492,279.16898,1677698796654,,,1133599878966647,1.5478925,Bike
Fix,GPS,37.4236331745,-122.1650872886,-2.28266866018747,3.8930209,4.89262,274.66443,1677698795000,0.32005486,4.899401,1133600615554000,4.9194922,Bike
Fix,FLP,37.4236349,-122.1650641,17.51026116856743,3.7946467,8.017,274.8456,1677698797198,,,1133600421487887,1.5480627,Bike
Fix,FLP,37.4236338,-122.1650841,17.51026116856743,3.8776839,8.054,273.45364,1677698797709,,,1133600932732211,1.5480627,Bike
Fix,GPS,37.4236290638,-122.165139217,-2.1230869216430697,4.019198,4.9324493,276.38275,1677698796000,0.33676976,5.12561,1133601615828000,4.94988,Bike
Fix,FLP,37.4236334,-122.1651133,15.19340098930051,3.8925877,8.308,272.96436,1677698798282,,,1133601506530612,1.5717009,Bike
Fix,FLP,37.4236307,-122.1651665,15.19340098930051,3.9980836,8.318,275.85312,1677698799367,,,1133602591572543,1.5866866,Bike
Fix,GPS,37.4236285124,-122.165187913,-1.765893836190347,4.2697983,4.931218,276.03012,1677698797000,0.3443318,5.0438375,1133602615616000,4.9811816,Bike
Fix,FLP,37.423632,-122.1652225,15.19340098930051,4.2230887,8.285,280.64905,1677698800451,,,1133603675000000,1.5589479,Bike
Fix,GPS,37.4236299562,-122.1652387285,-1.3494502194569926,4.4226193,5.0410566,282.09933,1677698798000,0.41378328,5.9130664,1133603615844000,5.05774,Bike
Fix,FLP,37.4236367,-122.1652665,9.47993188961372,4.3749366,8.253,284.41168,1677698800996,,,1133604219134921,1.5814896,Bike
Fix,GPS,37.423637272,-122.1652891301,-1.2172533551243303,4.468419,5.2336082,286.67398,1677698799000,0.41337353,5.7011847,1133604615586000,5.1242824,Bike
Fix,FLP,37.4236462,-122.1653149,13.493375882811858,4.447136,8.243,287.56625,1677698802080,,,1133605304173129,1.5747815,Bike
Fix,GPS,37.4236457348,-122.1653444969,-1.1951298452754628,4.4276247,5.4173646,288.60666,1677698800000,0.4067696,5.5238323,1133605615805000,5.205393,Bike
Fix,FLP,37.4236546,-122.1653566,13.302118882455606,4.433989,8.164,286.66754,1677698802623,,,1133605846696383,1.6113442,Bike
Fix,GPS,37.4236589602,-122.1654006628,-0.5511528710492305,4.457398,5.318101,290.29678,1677698801000,0.40462115,5.533795,1133606615673000,5.223536,Bike
Fix,FLP,37.423658,-122.1653751,13.302118882455606,4.4447513,8.141,285.38547,1677698803166,,,1133606389204867,1.5834343,Bike
Fix,FLP,37.4236641,-122.1654056,13.302118882455606,4.4485445,8.062,286.69662,1677698803707,,,1133606931736850,1.5834343,Bike
Fix,GPS,37.4236712838,-122.1654586385,-0.2516088234245915,4.517098,5.286831,290.39328,1677698802000,0.38473892,5.0829425,1133607615652000,5.218108,Bike
Fix,FLP,37.4236697,-122.1654317,13.302118882455606,4.4653797,8.085,286.30432,1677698804250,,,1133607474256869,1.5775447,Bike
Fix,FLP,37.4236762,-122.1654617,13.302118882455606,4.5106845,8.074,287.39005,1677698804792,,,1133608016773105,1.5775447,Bike
Fix,GPS,37.4236796017,-122.1655136488,0.1378237254604102,4.3315725,5.3072567,286.84818,1677698803000,0.40001017,5.782283,1133608615654000,5.2116385,Bike
Fix,FLP,37.4236842,-122.165495,12.125523284942291,4.5261602,8.077,287.36328,1677698805336,,,1133608559296725,1.663122,Bike
Fix,GPS,37.4236873176,-122.1655654066,0.1843552344665754,4.4110384,5.3842125,286.17557,1677698804000,0.38852057,5.4287853,1133609615654000,5.2206206,Bike
Fix,FLP,37.4236949,-122.1655501,10.7215952546857,4.3780174,8.044,285.92297,1677698806421,,,1133609644336215,1.6363996,Bike
Fix,FLP,37.4237013,-122.1655971,10.7215952546857,4.3930244,8.175,285.05817,1677698806962,,,1133610186856966,1.6363996,Bike
Fix,GPS,37.4236927543,-122.1656247092,0.7398316675547362,4.8752937,5.4403567,283.35825,1677698805000,0.40764105,5.1321645,1133610615878000,5.235892,Bike
Fix,FLP,37.423702,-122.1656043,10.7215952546857,4.405059,8.207,285.07864,1677698807505,,,1133610729375766,1.7040482,Bike
Fix,FLP,37.4237079,-122.1656505,10.7215952546857,4.8089037,8.255,283.71497,1677698808047,,,1133611271895541,1.7040482,Bike
Fix,GPS,37.4236994924,-122.1656871266,1.3555596641122682,5.03084,5.5658407,283.46536,1677698806000,0.42158026,5.1085997,1133611615875000,5.298335,Bike
Fix,FLP,37.4237096,-122.1656936,10.7215952546857,4.9946594,8.384,282.37906,1677698808591,,,1133611814415072,1.6118604,Bike
Fix,GPS,37.4237075522,-122.1657514563,2.09261525713434,5.1155434,5.5147514,283.49176,1677698807000,0.42071673,5.0223618,1133612615715000,5.313587,Bike
Fix,FLP,37.4237096,-122.1657346,9.189606287523905,5.114987,8.131,282.97934,1677698809391,0.42071673,5.0223618,1133612615715000,1.6173719,Bike
Fix,GPS,37.4237173327,-122.1658151053,2.427874035388739,4.9252543,5.3857775,284.93567,1677698808000,0.39069718,4.8428993,1133613615999000,5.292115,Bike
Fix,FLP,37.4237182,-122.1658067,5.979368346226192,4.926693,7.877,283.9915,1677698810391,0.39069718,4.8428993,1133613615999000,2.4195335,Bike
Fix,GPS,37.423727553,-122.1658731158,2.227335116888058,4.489245,5.407421,285.2744,1677698809000,0.37597266,5.06388,1133614616102000,5.2870793,Bike
Fix,FLP,37.4237284,-122.1658656,5.979368346226192,5.0133,7.895,284.18054,1677698811392,,,1133614616102000,4.40174,Bike
Fix,FLP,37.4237359,-122.1658874,5.979368346226192,4.7980914,7.832,321.50558,1677698811896,,,1133615119263705,4.40174,Bike
Fix,FLP,37.4237463,-122.1658948,5.979368346226192,4.618386,8.092,333.60175,1677698812422,,,1133615646000000,4.40174,Bike
Fix,GPS,37.4237355613,-122.165925806,2.500678407895594,4.3541493,5.361363,283.90607,1677698810000,0.36269474,4.9695125,1133615616022000,5.2819977,Bike
Fix,FLP,37.4237581,-122.1659295,5.979368346226192,4.522868,8.328,297.54965,1677698812981,,,1133616204303500,2.7992826,Bike
Fix,GPS,37.423737557,-122.1659802836,2.7423773598061496,4.5335584,5.313231,285.0421,1677698811000,0.36587533,4.8147955,1133616615923000,5.271108,Bike
Fix,FLP,37.4237549,-122.1659496,10.333799080564924,4.450169,8.301,288.48703,1677698813523,,,1133616746823520,2.1727812,Bike
Fix,FLP,37.4237546,-122.1659884,10.333799080564924,4.5412135,8.315,282.603,1677698814024,,,1133617247000000,2.1727812,Bike
Fix,GPS,37.4237414668,-122.1660355425,2.3372048667652785,4.7005444,5.220946,283.31424,1677698812000,0.3871715,5.030985,1133617615882000,5.2707205,Bike
Fix,FLP,37.4237504,-122.1660341,9.914613112120051,4.649985,8.572,281.2853,1677698814608,,,1133617831850680,1.9347417,Bike
Fix,GPS,37.4237474,-122.1660921298,2.5323451844895133,4.7496667,5.156014,284.5724,1677698813000,0.401641,5.3587193,1133618616096000,5.2389855,Bike
Fix,FLP,37.4237512,-122.1660636,5.922141937359591,4.6777697,8.87,281.8267,1677698815151,,,1133618374382113,2.1213076,Bike
Fix,FLP,37.4237528,-122.1660858,5.922141937359591,4.7240176,8.797,282.90067,1677698815676,,,1133618900000000,2.1213076,Bike
Fix,GPS,37.4237582212,-122.166144296,2.900732490981726,4.419764,5.255212,286.43988,1677698814000,0.4060838,5.7404866,1133619615920000,5.241355,Bike
Fix,FLP,37.4237603,-122.1661305,5.922141937359591,4.7073636,8.743,287.08868,1677698816236,,,1133619459421176,2.1213076,Bike
Fix,FLP,37.4237709,-122.166182,5.922141937359591,4.4590883,8.704,288.77322,1677698817321,,,1133620544460727,2.8335755,Bike
Fix,GPS,37.423772254,-122.1661932013,3.517356316848288,4.5012383,5.4610395,288.59442,1677698815000,0.4220783,5.7421856,1133620615859000,5.3289514,Bike
Fix,FLP,37.4237799,-122.166218,13.265614678083963,4.503557,8.264,286.19177,1677698817863,,,1133621086980319,2.2290509,Bike
Fix,GPS,37.423785307,-122.1662543136,3.808666572770432,4.729181,5.5797725,284.82275,1677698816000,0.40321356,5.244504,1133621615842000,5.3726,Bike
Fix,FLP,37.423783,-122.166233,12.907647571698426,4.5194874,8.333,284.6434,1677698818405,,,1133621629495151,2.0638666,Bike
Fix,FLP,37.4237884,-122.1662708,12.907647571698426,4.6989956,8.343,283.8753,1677698818949,,,1133622172018893,2.0638666,Bike
Fix,GPS,37.423800282,-122.1663300684,3.106851506113164,5.0041227,5.4986334,281.1387,1677698817000,0.39547792,4.8756337,1133622616077000,5.4061236,Bike
Fix,FLP,37.4237921,-122.1662972,12.40191702516166,4.736414,8.328,283.02478,1677698819491,,,1133622714535922,2.0242348,Bike
Fix,GPS,37.4238125597,-122.1663968435,2.602244570940942,5.034295,5.4708242,281.16165,1677698818000,0.40276587,5.0090284,1133623616139000,5.4515886,Bike
Fix,FLP,37.4238079,-122.166377,3.421930490710327,5.033064,8.032,281.03415,1677698820393,0.40276587,5.0090284,1133623616139000,4.293051,Bike
Fix,GPS,37.4238206737,-122.1664597247,2.1194374785681824,4.788425,5.4583364,278.97168,1677698819000,0.41300038,5.395398,1133624616152000,5.4917626,Bike
Fix,FLP,37.4238181,-122.1664421,3.6931681821126894,5.0202904,8.169,279.2172,1677698821393,,,1133624616152000,3.9638715,Bike
Fix,FLP,37.4238256,-122.1664892,3.6931681821126894,3.6212475,8.787,75.10708,1677698822457,,,1133625680309604,3.9638715,Bike
Fix,GPS,37.4238297187,-122.1665196316,1.7020900398847103,4.8069077,5.444369,281.0776,1677698820000,0.37914214,4.821225,1133625616175000,5.4694533,Bike
Fix,FLP,37.4238318,-122.1664972,19.113875226405945,3.6972113,9.022,281.5787,1677698822999,,,1133626222816989,3.4733524,Bike
Fix,GPS,37.4238411644,-122.1665826704,1.5555818026369113,4.8250775,5.455075,279.07092,1677698821000,0.3757051,4.747874,1133626616174000,5.491357,Bike
Fix,FLP,37.423834,-122.1665345,2.261478793808319,4.5917726,9.054,276.23346,1677698823541,,,1133626765335727,3.4053438,Bike
Fix,FLP,37.42384,-122.1665999,2.261478793808319,4.8180356,9.136,275.79718,1677698824084,,,1133627307866549,3.4053438,Bike
Fix,GPS,37.4238546617,-122.1666442012,2.4712167391648343,4.350598,5.3929415,283.104,1677698822000,0.37090018,5.224444,1133627616423000,5.431023,Bike
Fix,FLP,37.4238485,-122.1666402,-4.03671897504022,4.406228,9.182,281.17575,1677698824627,,,1133627850384738,2.1975951,Bike
Fix,GPS,37.4238636142,-122.1666948763,3.0557985641410808,4.467793,5.3574705,291.84818,1677698823000,0.35399595,4.5549316,1133628616187000,5.339767,Bike
Fix,FLP,37.4238547,-122.1666632,-4.03671897504022,4.348915,9.523,285.045,1677698825168,,,1133628392903598,3.530972,Bike
Fix,FLP,37.4238703,-122.1667162,-4.03671897504022,4.4116387,9.463,294.38126,1677698826254,,,1133629477939974,3.530972,Bike
Fix,GPS,37.42388812,-122.1667415598,4.288085674968064,4.727527,5.287282,306.82135,1677698824000,0.3400625,3.9706922,1133629616027000,5.269802,Bike
Fix,GPS,37.4239211248,-122.1667816586,5.58507130905624,4.5039005,5.3102508,314.12103,1677698825000,0.3541692,4.309476,1133630616015000,5.270713,Bike
Fix,FLP,37.4239026,-122.1667769,-4.305657945070397,4.6505814,8.751,304.87097,1677698827338,,,1133630562976107,3.188433,Bike
Fix,FLP,37.4239249,-122.166798,-2.884318123550539,4.5497985,8.701,312.92386,1677698827881,,,1133631105494418,3.2227476,Bike
