Fix,Provider,LatitudeDegrees,LongitudeDegrees,AltitudeMeters,SpeedMps,AccuracyMeters,BearingDegrees,UnixTimeMillis,SpeedAccuracyMps,BearingAccuracyDegrees,elapsedRealtimeNanos,VerticalAccuracyMeters,TransitType
Fix,GPS,37.421506399,-122.1585388525,-2.939709756762921,0.0,36.983227,,1677538506990,0.8823644,,973310045461550,38.148003,Bike
Fix,FLP,37.421483,-122.1586382,-8.200000762939453,0.05599587,28.616,,1677538506603,,,973309827787528,1.0482364,Bike
Fix,GPS,37.4214619703,-122.1585641688,-0.9590411393025602,0.0,49.4307,,1677538508085,0.9459389,,973311073196617,51.461845,Bike
Fix,FLP,37.4214891,-122.158627,-8.200000762939453,0.04327163,40.995,,1677538507611,,,973310835947867,1.0594263,Bike
Fix,FLP,37.4214931,-122.1586233,-7.700000286102295,0.0485502,40.319,,1677538508118,,,973311342289725,1.2711288,Bike
Fix,NLP,37.4215356,-122.1586307,-7.700000286102295,,15.566,,1677538508047,,,973311271000000,1.6682204,Bike
Fix,FLP,37.4214944,-122.1586222,-7.700000286102295,0.04972344,33.988,,1677538508624,,,973311848632743,1.2711288,Bike
Fix,GPS,37.4214411276,-122.1585998836,2.7203538289285696,0.0,47.18909,,1677538509084,0.938323,,973312077781619,49.12664,Bike
Fix,FLP,37.4214951,-122.1586218,-12.493198565417586,0.03792731,27.664,,1677538509131,,,973312354976249,1.1624973,Bike
Fix,GPS,37.4214173814,-122.1586357395,2.2650466251871118,0.0,22.48338,,1677538510967,0.9752792,,973314081981124,34.368904,Bike
Fix,FLP,37.4215014,-122.1586234,-19.683781491328297,0.032914717,26.039,,1677538510857,,,973314081981124,1.1824073,Bike
Fix,GPS,37.4214085126,-122.1586876704,1.21797181888775,0.0,35.88636,,1677538512017,0.97135466,,973315087752690,54.856804,Bike
Fix,FLP,37.4215071,-122.158625,-7.700000286102295,0.02884383,20.619,,1677538511864,,,973315087752690,1.2488571,Bike
Fix,NLP,37.421547,-122.1586513,-7.700000286102295,,14.764,,1677538512780,,,973316004000000,2.2479136,Bike
Fix,FLP,37.4215144,-122.158631,-5.907599606480254,0.022519609,20.03,,1677538512781,,,973316004000000,1.3621407,Bike
Fix,GPS,37.4214076717,-122.1587428573,-1.847385497634512,0.0,21.965914,,1677538513002,0.93496794,,973316099723190,31.105953,Bike
Fix,FLP,37.4215182,-122.1586364,-5.920872923248744,0.031328186,15.55,,1677538512876,,,973316099723190,1.3631006,Bike
Fix,GPS,37.4214283245,-122.1586795346,2.740569946754281,0.0,7.3410583,,1677538513873,0.87120634,,973317144434128,12.968526,Bike
Fix,FLP,37.4214726,-122.1586597,-6.055136455812576,0.11268203,14.466,251.01855,1677538513920,0.87120634,,973317144434128,1.40791,Bike
Fix,GPS,37.4214290277,-122.1586861101,1.8733335041900616,0.0,10.422522,,1677538514873,0.4974307,,973318088296230,14.328346,Bike
Fix,FLP,37.4214793,-122.1586609,-7.700000286102295,0.10974674,14.238,256.9333,1677538514864,,,973318088296230,1.4425794,Bike
Fix,GPS,37.4214441417,-122.1587000061,1.6334597779591216,0.0,9.738374,,1677538515873,0.5108004,,973319089529954,13.413054,Bike
Fix,FLP,37.4214861,-122.1586631,-7.700000286102295,0.11169787,13.754,264.22144,1677538515866,,,973319089529954,1.42689,Bike
Fix,GPS,37.4214548058,-122.1587122684,1.7080384501045247,0.0,9.3684225,,1677538516999,0.52037156,,973320164081957,12.987084,Bike
Fix,FLP,37.4214926,-122.1586662,-2.17135346508633,0.11866777,13.167,271.42413,1677538516940,,,973320164081957,1.455814,Bike
Fix,NLP,37.4215402,-122.1586499,-7.700000286102295,,14.807,,1677538517832,,,973321056000000,2.1471148,Bike
Fix,FLP,37.4214969,-122.1586682,-3.182554763373876,0.122848846,12.724,275.8657,1677538517832,,,973321056000000,1.4358101,Bike
Fix,GPS,37.4214631768,-122.1587166957,1.17725446073011,0.0,8.997832,,1677538517999,0.49270937,,973321242764086,12.675832,Bike
Fix,FLP,37.4215,-122.1586695,-1.1171239336696424,0.128367,12.319,278.9088,1677538518018,,,973321242764086,1.470039,Bike
Fix,GPS,37.4214687448,-122.1587208002,1.088921369260003,0.0,8.744737,,1677538518999,0.514629,,973322244049324,12.486117,Bike
Fix,FLP,37.4215032,-122.158672,-10.011634891617083,0.1345629,13.251,281.73566,1677538519020,,,973322244049324,1.7428709,Bike
Fix,GPS,37.4214762562,-122.1587282953,1.2243945699320689,0.0,8.575683,,1677538519999,0.56147945,,973323179639000,12.271553,Bike
Fix,FLP,37.4215063,-122.1586749,-18.113817338274156,0.14231677,13.114,284.2658,1677538519956,,,973323179639000,1.4802965,Bike
Fix,GPS,37.4214810497,-122.1587305193,1.6902611970242476,0.0,8.40102,,1677538520999,0.5296044,,973324179458000,12.101231,Bike
Fix,FLP,37.4215092,-122.1586775,-24.83101448799543,0.14888899,13.006,286.47174,1677538520955,,,973324179458000,1.454864,Bike
Fix,GPS,37.4214874914,-122.1587315509,2.052778010483558,0.0,8.270838,,1677538521999,0.57526946,,973325179409000,11.994466,Bike
Fix,FLP,37.421512,-122.1586799,-24.83101448799543,0.15384078,12.913,288.6884,1677538521956,,,973325179409000,1.4646041,Bike
Fix,NLP,37.4215523,-122.1586666,-8.300000190734863,,14.964,,1677538522887,,,973326110000000,1.8139949,Bike
Fix,FLP,37.4215159,-122.1586842,-4.952887163709754,0.16847043,12.829,290.7241,1677538522887,,,973326110000000,1.4500359,Bike
Fix,GPS,37.4214949334,-122.1587342504,2.185835543286967,0.0,8.152246,,1677538522999,0.53072864,,973326179507000,11.852455,Bike
Fix,FLP,37.4215186,-122.1586864,-2.274521966780544,0.17928042,12.806,292.15866,1677538522956,,,973326179507000,1.4456266,Bike
Fix,GPS,37.4215008115,-122.1587332411,2.314048958535959,0.0,8.042514,,1677538523999,0.5484363,,973327179565000,11.774563,Bike
Fix,FLP,37.4215218,-122.1586896,-1.004746752711192,0.18754414,12.74,293.90833,1677538523956,,,973327179565000,1.4579939,Bike
Fix,GPS,37.421501928,-122.1587304951,1.8822872990436612,0.0,8.098545,,1677538524999,0.61292446,,973328179486000,11.795858,Bike
Fix,FLP,37.4215138,-122.1587088,-3.3348120482045225,0.24708536,12.05,281.08752,1677538524955,0.61292446,,973328179486000,1.6534879,Bike
Fix,GPS,37.4215048342,-122.1587286368,1.965663839463819,0.0,8.052653,,1677538525999,20.0,,973329179503000,11.791065,Bike
Fix,FLP,37.4215106,-122.1587184,-11.154920351908654,0.27258977,11.138,277.4287,1677538525955,20.0,,973329179503000,1.6730632,Bike
Fix,GPS,37.4215071039,-122.1587261204,1.0893846890603185,0.0,8.121671,,1677538526999,20.0,,973330179485000,11.753297,Bike
Fix,FLP,37.4215095,-122.1587232,-11.154920351908654,0.2790568,10.381,276.25482,1677538526955,20.0,,973330179485000,1.6732879,Bike
Fix,NLP,37.4215376,-122.1586601,-8.300000190734863,,16.738,,1677538527961,,,973331185000000,1.6845059,Bike
Fix,FLP,37.4215085,-122.1587266,-4.568419026687032,0.27955115,9.104,275.3275,1677538527962,20.0,,973331185000000,1.4896963,Bike
Fix,GPS,37.421508402,-122.158725206,0.0991679608744602,0.0,8.0858345,,1677538527999,0.5193894,,973331179545000,11.690909,Bike
Fix,FLP,37.4215103,-122.1587097,-3.752451287381408,0.12633704,8.677,283.2537,1677538528548,,,973331772266064,1.4597014,Bike
Fix,GPS,37.4215118563,-122.1587212579,-0.4598122838489855,0.0,8.05621,,1677538528999,0.5161877,,973332179531000,11.532505,Bike
Fix,FLP,37.4215113,-122.1587003,1.054063255375553,0.09061122,8.557,,1677538529091,,,973332314765821,1.4573853,Bike
Fix,FLP,37.4215124,-122.1586917,1.054063255375553,0.06394422,8.032,,1677538529633,,,973332857267469,1.4573853,Bike
Fix,GPS,37.4215143405,-122.1587195901,-1.3156589747480665,0.0,7.9242563,,1677538529999,0.54903036,,973333179560000,11.383325,Bike
Fix,FLP,37.4215134,-122.158682,-3.337288533258836,0.034995813,7.906,,1677538530176,,,973333399768933,1.5106263,Bike
Fix,GPS,37.4215160123,-122.1587220511,-1.9231996553701876,0.0,7.98137,,1677538530999,0.6308123,,973334179554000,11.406092,Bike
Fix,FLP,37.4215139,-122.1586784,-3.337288533258836,0.024159387,7.861,,1677538530719,,,973333942269910,1.4899814,Bike
Fix,FLP,37.4215145,-122.1586756,-3.337288533258836,0.017350415,7.838,,1677538531261,,,973334484767956,1.4899814,Bike
Fix,GPS,37.4215168964,-122.1587252025,-1.7167878550530251,0.0,8.003394,,1677538531999,20.0,,973335179592000,11.435006,Bike
Fix,FLP,37.4215151,-122.1586735,-3.84334520902517,0.011479342,7.811,,1677538531804,,,973335027271375,1.485766,Bike
Fix,NLP,37.4215635,-122.1586644,-8.700000762939453,,14.331,,1677538532953,,,973336177000000,1.7173536,Bike
Fix,FLP,37.4215161,-122.1586717,-5.20765787644746,0.0014905301,7.813,,1677538532889,,,973336112271131,1.4848932,Bike
Fix,GPS,37.4215174313,-122.1587334496,-1.7914305585258663,0.0,7.9189196,,1677538532999,20.0,,973336179610000,11.385728,Bike
Fix,GPS,37.4215208754,-122.1587418249,-1.6081883718945176,0.0,7.800426,,1677538533999,20.0,,973337179622000,11.322579,Bike
Fix,FLP,37.4215202,-122.158669,-4.649602998010959,0.0013508091,7.691,,1677538533974,,,973337197269422,1.6289493,Bike
Fix,GPS,37.4215273445,-122.158764233,-2.4828010129822995,1.4405484,7.481724,323.84723,1677538534999,0.44571838,17.178106,973338179646000,11.207692,Bike
Fix,FLP,37.4215244,-122.1586681,-4.649602998010959,0.0030529425,7.748,,1677538535058,,,973338282266736,1.4914169,Bike
Fix,GPS,37.4215379693,-122.1587819475,-2.9908653324532395,1.5047677,6.9715586,313.86047,1677538535999,0.42527246,15.238951,973339179820000,11.023812,Bike
Fix,FLP,37.421528,-122.1586688,-26.757745535591685,0.03457691,7.818,,1677538536102,,,973339325060803,1.5809708,Bike
Fix,FLP,37.4215309,-122.1586708,-26.757745535591685,0.09891922,7.853,,1677538536686,,,973339909760388,1.5809708,Bike
Fix,GPS,37.4215503758,-122.1587992614,-4.194195225896711,1.8537322,6.5909314,299.72623,1677538536999,0.440321,13.456067,973340179794000,10.872156,Bike
Fix,NLP,37.4215593,-122.1587543,-8.800000190734863,,21.837,,1677538538000,,,973341223000000,1.3098522,Bike
Fix,FLP,37.4215359,-122.1586923,-16.686324133986183,0.5701091,8.139,300.84726,1677538537771,,,973340994754529,1.608028,Bike
Fix,GPS,37.421561477,-122.1588139777,-5.147398077103221,1.7548325,6.2425475,306.9296,1677538537999,0.4394089,13.723356,973341179655000,10.6186695,Bike
Fix,FLP,37.421544,-122.1587291,-16.686324133986183,1.1532242,8.679,302.21683,1677538538313,,,973341537251294,1.608028,Bike
Fix,FLP,37.42155,-122.1587479,-16.686324133986183,1.3671288,8.884,307.7863,1677538538855,,,973342079747876,1.608028,Bike
Fix,GPS,37.4215731641,-122.1588276466,-7.057339243627484,1.3233591,6.1206017,350.20837,1677538538999,0.46481895,19.169895,973342179717000,10.390058,Bike
Fix,FLP,37.4215634,-122.1587778,-14.101438234655388,1.2348026,9.436,332.21228,1677538539399,,,973342622233593,1.6068518,Bike
Fix,GPS,37.4215885303,-122.1588239338,-9.375464028301636,1.3142483,6.001712,10.43372,1677538539999,0.45915127,19.005531,973343179708000,10.103386,Bike
Fix,FLP,37.4215675,-122.1587855,-6.087298126107413,1.1848261,9.651,347.44156,1677538539941,,,973343164728894,1.5311135,Bike
Fix,FLP,37.4215816,-122.1587989,-6.087298126107413,1.2379452,9.875,5.2630744,1677538540484,,,973343707236646,1.5311135,Bike
Fix,GPS,37.4216051626,-122.1588160323,-10.989355937360829,1.9163282,5.9844956,5.746134,1677538540999,0.436672,11.193127,973344179662000,9.7581,Bike
Fix,FLP,37.4215848,-122.1588035,12.841842823138515,1.2656364,9.884,6.121271,1677538541026,,,973344249732556,1.5400935,Bike
Fix,GPS,37.4216298285,-122.1588099408,-12.279849967008529,2.7137668,5.8878684,317.5852,1677538541999,0.39885747,10.0,973345180109000,9.313192,Bike
Fix,FLP,37.4216005,-122.1588083,10.865584743760966,1.4892287,10.636,1.5319943,1677538541568,,,973344792228406,1.6123393,Bike
Fix,FLP,37.42161,-122.1588106,10.865584743760966,1.652383,10.547,348.91974,1677538542101,,,973345325060803,1.6123393,Bike
Fix,FLP,37.4216222,-122.1588168,10.865584743760966,1.8195006,10.478,330.95493,1677538542654,,,973345877211316,1.6123393,Bike
Fix,NLP,37.4217209,-122.1588676,-8.700000762939453,,22.157,,1677538543006,,,973346229000000,1.0,Bike
Fix,GPS,37.4216567361,-122.1588311813,-13.109946725935936,4.2308855,5.822276,309.00714,1677538542999,0.38143536,10.0,973346179740000,9.032087,Bike
Fix,FLP,37.4216368,-122.1588281,23.66777827053457,2.394529,10.283,313.48355,1677538543196,,,973346419715160,1.5921673,Bike
Fix,FLP,37.4216526,-122.1588479,23.66777827053457,2.804019,10.119,308.01123,1677538543739,,,973346962210584,1.5921673,Bike
Fix,GPS,37.4216851,-122.1588689551,-13.1776135052897,5.047284,5.828072,307.78308,1677538543999,0.39079836,10.0,973347179788000,8.847328,Bike
Fix,FLP,37.4216774,-122.158884,18.113073809968213,3.5160203,10.112,304.0678,1677538544824,,,973348047201001,1.602296,Bike
Fix,GPS,37.4217177667,-122.1589152431,-13.996454353458509,5.1428576,5.741519,308.2648,1677538544999,0.39719927,10.0,973348179757000,8.76076,Bike
Fix,FLP,37.4216974,-122.1589006,13.580751241595344,4.7771277,9.778,307.4254,1677538544955,0.39719927,10.0,973348179757000,1.626466,Bike
Fix,GPS,37.4217567874,-122.1589653301,-14.292482899974392,5.4706607,5.807912,306.59277,1677538545999,0.58311695,10.0,973349179822000,8.703941,Bike
Fix,FLP,37.4217378,-122.1589535,10.557651365479511,5.2602887,9.357,306.51865,1677538545955,0.58311695,10.0,973349179822000,1.6193247,Bike
Fix,GPS,37.4217952193,-122.1590217251,-13.336936595043154,5.8889923,5.459583,303.57925,1677538546999,0.3973639,10.0,973350179966000,8.511779,Bike
Fix,FLP,37.4217792,-122.1590117,1.353475405000882,5.7361665,8.978,304.00137,1677538546956,0.3973639,10.0,973350179966000,1.6293747,Bike
Fix,GPS,37.4218261063,-122.1590849866,-13.0841781989293,5.983035,5.415241,303.22,1677538547999,0.46711877,10.0,973351179929000,8.390101,Bike
Fix,FLP,37.4218162,-122.1590745,4.736543023536477,5.9236507,8.19,303.3768,1677538547955,0.46711877,10.0,973351179929000,1.6410114,Bike
Fix,GPS,37.421857791,-122.1591435117,-13.427920052065694,6.0283484,5.4567647,307.17676,1677538548999,0.53240883,10.0,973352180087000,8.341319,Bike
Fix,FLP,37.4218515,-122.159136,6.545239687667021,5.993648,6.895,305.71613,1677538548957,0.53240883,10.0,973352180087000,1.6520513,Bike
Fix,GPS,37.4218918985,-122.1591969163,-13.79198911175981,5.8827467,5.889623,310.92834,1677538549999,0.54967874,10.0,973353180085000,8.351838,Bike
Fix,FLP,37.4218871,-122.1591928,6.545239687667021,5.9209104,5.606,308.50284,1677538549956,0.54967874,10.0,973353180085000,1.6620214,Bike
Fix,GPS,37.4219268767,-122.1592559372,-13.35400002627884,5.7821097,6.2382846,312.31396,1677538550999,0.51471645,10.0,973354179828000,8.474219,Bike
Fix,FLP,37.4219231,-122.1592487,11.571030669183877,5.832504,5.692,310.78705,1677538550955,0.51471645,10.0,973354179828000,1.6720214,Bike
Fix,GPS,37.4219691492,-122.1593149051,-12.676454687118184,6.030811,6.2911334,319.05148,1677538551999,0.54235023,10.0,973355179893000,8.473061,Bike
Fix,FLP,37.4219632,-122.1593042,13.053716175640538,5.9762425,5.791,316.075,1677538551956,0.54235023,10.0,973355179893000,1.6820214,Bike
Fix,GPS,37.4220150007,-122.1593567398,-13.53061693091346,5.9502773,6.393115,321.20044,1677538552999,0.46081594,10.0,973356179918000,8.457178,Bike
Fix,FLP,37.4220075,-122.1593525,4.028608590589698,5.977142,5.947,319.30338,1677538552955,0.46081594,10.0,973356179918000,1.6920114,Bike
Fix,GPS,37.4220584234,-122.1593960766,-14.187568065603566,5.9864182,6.3703127,316.1881,1677538553999,0.49558824,10.0,973357180160000,8.472262,Bike
Fix,FLP,37.4220519,-122.159397,10.253817781254403,5.986287,6.236,317.22375,1677538553957,0.49558824,10.0,973357180160000,1.7161707,Bike
Fix,GPS,37.4220984247,-122.1594474077,-14.82263764514911,5.8695493,6.3259964,308.9023,1677538554999,0.406846,10.0,973358179934000,8.384567,Bike
Fix,FLP,37.422093,-122.159446,4.865868858680706,5.9347343,6.251,311.2092,1677538554956,0.406846,10.0,973358179934000,1.7251607,Bike
Fix,GPS,37.4221334204,-122.1595029258,-15.276894293805736,6.402138,6.322506,308.74252,1677538555999,0.44311655,10.0,973359179969000,8.415346,Bike
Fix,FLP,37.4221303,-122.1595001,5.323892471204978,6.243552,6.34,309.04694,1677538555956,0.44311655,10.0,973359179969000,1.7361907,Bike
Fix,GPS,37.4221741685,-122.1595561856,-15.267375386481172,6.478923,6.4239397,318.5617,1677538556999,0.5337111,4.3226924,973360180063000,8.57213,Bike
Fix,FLP,37.422171,-122.1595543,5.482459053449578,6.433988,6.367,316.50516,1677538556957,0.5337111,4.3226924,973360180063000,1.7293147,Bike
Fix,GPS,37.4222211853,-122.1596027639,-14.63437121175903,6.328941,6.5628824,320.04047,1677538557999,0.66935647,10.0,973361179997000,8.753094,Bike
Fix,FLP,37.4222162,-122.1596035,9.857426020914648,6.3836775,6.401,318.4021,1677538557956,0.66935647,10.0,973361179997000,1.7393247,Bike
Fix,FLP,37.4222629,-122.1596475,7.983623922983146,6.3289804,6.453,322.10916,1677538558957,0.5657792,4.993066,973362180052000,1.7493047,Bike
Fix,GPS,37.4222678246,-122.1596435329,-15.74853800236561,6.320259,6.7170486,323.48666,1677538558999,0.5657792,4.993066,973362180052000,8.8945465,Bike
Fix,GPS,37.4223152122,-122.1596920352,-14.616589198427636,6.416801,6.68764,320.18048,1677538559999,0.582432,4.9609175,973363180289000,9.011651,Bike
Fix,FLP,37.4223105,-122.1596921,8.953714694176927,6.3970103,6.543,320.5053,1677538559956,0.582432,4.9609175,973363180289000,1.7593147,Bike
Fix,FLP,37.4223576,-122.1597393,6.790723429518213,6.391315,6.629,320.7825,1677538560957,0.6548105,10.0,973364180052000,1.7683347,Bike
Fix,GPS,37.4223623297,-122.1597414679,-14.568713077443512,6.3785944,6.7549562,321.01498,1677538560999,0.6548105,10.0,973364180052000,9.230889,Bike
Fix,GPS,37.4224075075,-122.1597929327,-14.612878034308276,6.4005237,6.6979027,321.44592,1677538561999,0.5493568,4.7827625,973365180223000,9.401429,Bike
Fix,FLP,37.4224042,-122.159788,6.699646081691924,6.4015713,6.684,320.9528,1677538561956,0.5493568,4.7827625,973365180223000,1.7810414,Bike
Fix,GPS,37.4224548471,-122.1598384348,-15.067460386325758,6.393946,6.637094,324.20746,1677538562999,0.57960606,5.0359335,973366180079000,9.463902,Bike
Fix,FLP,37.4224514,-122.159835,4.942034011445294,6.3953786,6.699,323.26794,1677538562956,0.57960606,5.0359335,973366180079000,1.7920014,Bike
Fix,GPS,37.4225018669,-122.1598880543,-14.58498540737095,6.4039845,6.653331,320.447,1677538563999,0.6300074,5.2663913,973367180404000,9.542951,Bike
Fix,FLP,37.4224989,-122.1598824,7.378147337876214,6.4026628,6.686,320.85205,1677538563957,0.6300074,5.2663913,973367180404000,1.8020014,Bike
Fix,GPS,37.4225457982,-122.1599389651,-14.358801086098683,6.3221545,6.562739,322.27484,1677538564999,0.56938523,4.9460535,973368180111000,9.50119,Bike
Fix,FLP,37.4225444,-122.1599321,5.167977629528785,6.3418736,6.665,321.7263,1677538564957,0.56938523,4.9460535,973368180111000,1.8120114,Bike
Fix,GPS,37.4225920904,-122.1599839488,-14.072145249848145,6.375026,6.6626425,324.82526,1677538565999,0.6829853,5.782292,973369180110000,9.635661,Bike
Fix,FLP,37.4225905,-122.159979,5.167977629528785,6.364942,6.642,323.31522,1677538565956,0.6829853,5.782292,973369180110000,1.8220114,Bike
Fix,GPS,37.422641883,-122.1600245043,-14.633577160234998,6.658986,6.5769053,329.1408,1677538566999,0.59881246,4.912067,973370180135000,9.662938,Bike
Fix,FLP,37.4226394,-122.1600224,5.846867185755819,6.582682,6.631,327.69824,1677538566956,0.59881246,4.912067,973370180135000,1.8461607,Bike
Fix,GPS,37.4226963885,-122.1600657736,-15.401413731701586,6.7542706,6.459273,330.58286,1677538567999,0.5498745,4.437542,973371180138000,9.568082,Bike
Fix,FLP,37.4226925,-122.1600634,5.846867185755819,6.7172437,6.583,329.51657,1677538567957,0.5498745,4.437542,973371180138000,1.8551707,Bike
Fix,GPS,37.4227490568,-122.1601090482,-15.799878761860572,6.4319057,6.4240046,327.02875,1677538568999,0.54996085,4.68844,973372180265000,9.534215,Bike
Fix,FLP,37.4227459,-122.1601048,5.719060016024557,6.4965377,6.556,327.5761,1677538568957,0.54996085,4.68844,973372180265000,1.8651707,Bike
Fix,GPS,37.4227964413,-122.1601544807,-16.02483018807367,6.2682667,6.3987045,327.90506,1677538569999,0.5312769,4.6227427,973373180466000,9.507694,Bike
Fix,FLP,37.4227954,-122.1601481,5.719060016024557,6.3175483,6.504,327.11743,1677538569956,0.5312769,4.6227427,973373180466000,1.8751707,Bike
Fix,GPS,37.4228427511,-122.1602005096,-15.477855356507565,6.449558,6.41913,326.1956,1677538570999,0.5568019,4.727109,973374180163000,9.505372,Bike
Fix,FLP,37.4228431,-122.1601924,6.868371525101857,6.4205356,6.455,326.2305,1677538570957,0.5568019,4.727109,973374180163000,1.8851707,Bike
Fix,FLP,37.422848,-122.1601985,6.868371525101857,6.419657,6.743,326.22104,1677538571093,0.5568019,4.727109,973374316000000,1.8851707,Bike
Fix,NLP,37.4224205,-122.1620097,,,600.0,,1677538571092,,,973374316000000,,Bike
Fix,GPS,37.4228870154,-122.1602495558,-15.032971229257008,6.4817867,6.438916,319.93912,1677538571999,0.5655336,4.780789,973375180299000,9.568646,Bike
Fix,FLP,37.4228879,-122.1602428,1.5321433966378954,6.4809093,6.72,319.09256,1677538571957,0.5655336,4.780789,973375180299000,1.8951607,Bike
Fix,GPS,37.4229268938,-122.1603069922,-14.908391708192038,6.2941017,6.451272,318.31393,1677538572999,0.54026407,4.700903,973376180205000,9.523223,Bike
Fix,FLP,37.422929,-122.1603004,8.112953527822206,6.296585,6.719,318.01358,1677538572956,0.54026407,4.700903,973376180205000,1.9051607,Bike
Fix,GPS,37.4229653202,-122.1603614224,-15.373407745055134,6.327533,6.4658527,318.70612,1677538573999,0.5455454,4.727412,973377180269000,9.489347,Bike
Fix,FLP,37.4229677,-122.160356,1.690709978882495,6.3271437,6.726,317.9992,1677538573956,0.5455454,4.727412,973377180269000,1.8983147,Bike
Fix,GPS,37.42300459,-122.1604087667,-16.20598577955717,6.130923,6.4272985,320.87112,1677538574999,0.52958,4.7310686,973378180170000,9.461225,Bike
Fix,FLP,37.4230068,-122.1604068,-5.995917822178882,6.13331,6.683,319.97372,1677538574957,0.52958,4.7310686,973378180170000,1.9074764,Bike
Fix,GPS,37.4230422368,-122.1604517081,-17.80153416040907,5.854238,6.4830627,324.5294,1677538575999,0.52682716,4.9399915,973379180443000,9.411851,Bike
Fix,FLP,37.423045,-122.1604516,-8.700000762939453,5.857435,6.741,323.9477,1677538575956,0.52682716,4.9399915,973379180443000,1.9183047,Bike
Fix,GPS,37.4230790948,-122.16048611,-19.15074051798068,5.480803,6.3781157,332.0396,1677538576999,0.5319815,5.3835664,973380180524000,9.376109,Bike
Fix,FLP,37.4230825,-122.1604879,-10.605562245984778,5.484717,6.441,331.89148,1677538576956,0.5319815,5.3835664,973380180524000,1.9283247,Bike
Fix,GPS,37.4231199584,-122.1605145255,-19.76173547096596,5.233916,6.268769,336.49838,1677538577999,0.52888054,5.5105014,973381180563000,9.324154,Bike
Fix,FLP,37.4231224,-122.1605155,-8.700000762939453,5.236765,6.404,335.94815,1677538577957,0.52888054,5.5105014,973381180563000,1.9383147,Bike
Fix,GPS,37.4231553172,-122.1605462124,-19.761757327892425,4.5537066,6.234127,332.31918,1677538578999,0.5026261,6.0454025,973382180265000,9.275857,Bike
Fix,FLP,37.4231592,-122.1605436,-8.700000762939453,4.5614557,6.376,332.05176,1677538578957,0.5026261,6.0454025,973382180265000,1.9483147,Bike
Fix,GPS,37.4231835399,-122.1605824714,-19.96462566589013,4.0934434,6.343747,323.10202,1677538579999,0.5134135,6.8707795,973383180288000,9.251903,Bike
Fix,FLP,37.4231802,-122.1605692,-8.700000762939453,4.11051,6.31,323.4043,1677538579956,0.5134135,6.8707795,973383180288000,1.9583147,Bike
Fix,GPS,37.4232071572,-122.1606229281,-19.746131539581675,3.95793,6.399308,313.59866,1677538580999,0.45191202,6.2369633,973384180318000,9.221588,Bike
Fix,FLP,37.4232032,-122.160606,-8.700000762939453,3.9604309,6.324,313.32822,1677538580957,0.45191202,6.2369633,973384180318000,1.9683146,Bike
Fix,GPS,37.4232278552,-122.1606659808,-18.50802636471745,3.3429,6.479786,298.65546,1677538581999,0.4928657,8.0461035,973385180507000,9.1778145,Bike
Fix,FLP,37.4232277,-122.160655,-8.700000762939453,3.3490145,6.331,298.21976,1677538581956,0.4928657,8.0461035,973385180507000,1.9783247,Bike
Fix,GPS,37.4232367222,-122.1607071661,-18.31343156230125,2.833077,6.7594256,275.4024,1677538582999,0.5401392,10.742676,973386180605000,9.204831,Bike
Fix,FLP,37.4232346,-122.1606862,-8.700000762939453,3.0584903,6.398,288.86508,1677538582957,0.5401392,10.742676,973386180605000,1.9883248,Bike
Fix,GPS,37.4232361984,-122.1607388381,-16.46706047970924,2.4223635,6.95663,253.1311,1677538583999,0.52708936,12.482517,973387180427000,9.148911,Bike
Fix,FLP,37.4232386,-122.160722,-6.661593066093527,2.4749398,6.489,258.25653,1677538583957,0.52708936,12.482517,973387180427000,1.9983248,Bike
Fix,GPS,37.4232172543,-122.1607708485,-16.907803961449293,3.1911,7.12545,226.46431,1677538584999,0.5573039,9.588179,973388180367000,9.131144,Bike
Fix,NLP,37.4228525,-122.1605884,-7.400000095367432,,22.813,,1677538585043,,,973388266000000,1.835967,Bike
Fix,FLP,37.423234,-122.1607469,7.035566422834918,2.4222152,7.836,253.00363,1677538585042,0.52708936,12.482517,973388266000000,1.6088123,Bike
Fix,GPS,37.4231827609,-122.1608028504,-16.668665886117427,3.5722039,7.055021,214.67473,1677538585999,0.57317615,8.942506,973389180550000,9.020302,Bike
Fix,FLP,37.4232052,-122.1607867,4.281106922163971,3.551396,8.063,214.31488,1677538585956,0.57317615,8.942506,973389180550000,1.6081171,Bike
Fix,GPS,37.423140902,-122.1608271718,-15.582504538855426,3.976573,7.035818,205.46461,1677538586999,0.50020856,6.9593067,973390180875000,8.859713,Bike
Fix,FLP,37.4231667,-122.1608136,-2.1378802751436865,3.7875073,8.156,208.6729,1677538586956,0.50020856,6.9593067,973390180875000,1.6183174,Bike
Fix,GPS,37.4231007539,-122.160844554,-14.263979173379608,4.4570613,6.8695498,211.26994,1677538587999,0.4932281,6.0780983,973391180419000,8.570697,Bike
Fix,FLP,37.4231236,-122.1608364,4.514700151454491,4.408522,8.104,210.48907,1677538587957,0.4932281,6.0780983,973391180419000,1.6281027,Bike
Fix,GPS,37.4230563374,-122.160871283,-12.91688081978427,4.868538,6.723165,214.26973,1677538588999,0.5121761,5.7559423,973392180460000,8.386187,Bike
Fix,FLP,37.4230771,-122.1608623,7.562737735858349,4.847765,8.342,213.86365,1677538588957,0.5121761,5.7559423,973392180460000,1.6380928,Bike
Fix,GPS,37.4230086003,-122.1609035455,-11.604943677580396,4.7194896,6.55075,213.57863,1677538589999,0.5018686,5.8603935,973393180652000,8.208452,Bike
Fix,FLP,37.4230282,-122.160894,13.37812027962216,4.7252884,8.181,213.03595,1677538589957,0.5018686,5.8603935,973393180652000,1.6480927,Bike
Fix,FLP,37.4230086,-122.1609061,12.125119991368567,4.719579,7.041,213.00017,1677538590053,0.5018686,5.8603935,973393276000000,1.4835293,Bike
Fix,NLP,37.4227822,-122.1607768,-6.499999523162842,,24.274,,1677538590052,,,973393276000000,2.2804568,Bike
Fix,GPS,37.4229642985,-122.1609350265,-10.216825185866355,4.710928,6.3681436,214.86792,1677538590999,0.48664713,5.6931906,973394180468000,8.0939455,Bike
Fix,FLP,37.4229698,-122.1609338,12.125119991368567,4.7111187,6.989,213.98773,1677538590957,0.48664713,5.6931906,973394180468000,1.4871609,Bike
Fix,GPS,37.422925213,-122.1609659101,-9.353905666807748,4.4815593,6.3964777,215.98555,1677538591999,0.5073482,6.2642045,973395180724000,8.075042,Bike
Fix,FLP,37.4229401,-122.1609554,-2.483229306352108,4.4998674,6.764,214.91559,1677538591956,0.5073482,6.2642045,973395180724000,1.5011138,Bike
Fix,GPS,37.4228908376,-122.1609928711,-8.896727899021725,4.4296637,6.335375,218.79433,1677538592999,0.4866709,6.0446,973396180665000,7.9381084,Bike
Fix,FLP,37.4229052,-122.1609829,-6.499999523162842,4.4344935,6.602,217.70947,1677538592957,0.4866709,6.0446,973396180665000,1.5306236,Bike
Fix,GPS,37.4228596808,-122.1610220885,-8.975505778897297,4.0987,6.2994795,223.24448,1677538593999,0.47701162,6.3980184,973397180578000,7.8528013,Bike
Fix,FLP,37.4228745,-122.1610095,-0.395823517239922,4.2569017,6.528,220.44528,1677538593957,0.47701162,6.3980184,973397180578000,1.5217146,Bike
Fix,GPS,37.4228343387,-122.1610488484,-9.345470975375688,3.5336297,6.3767347,223.96121,1677538594999,0.49721077,7.7327313,973398180511000,7.8970895,Bike
Fix,FLP,37.4228392,-122.1610452,-2.483229306352108,3.5417533,6.502,222.96501,1677538594957,0.49721077,7.7327313,973398180511000,1.5317146,Bike
Fix,GPS,37.4228115045,-122.1610719084,-9.627545409840216,2.9431374,6.5557165,227.42078,1677538595999,0.48693272,9.039179,973399180745000,7.9942946,Bike
Fix,FLP,37.4228134,-122.1610722,-1.5249053330482203,2.9494278,6.382,226.94843,1677538595957,0.48693272,9.039179,973399180745000,1.5417045,Bike
Fix,GPS,37.4227929691,-122.1610944191,-9.509200815829796,2.756492,6.667774,225.86845,1677538596999,0.48088658,9.558869,973400180723000,8.074492,Bike
Fix,FLP,37.422794,-122.1610953,-0.395823517239922,2.7584875,6.417,225.02138,1677538596957,0.48088658,9.558869,973400180723000,1.5517246,Bike
Fix,GPS,37.4227765751,-122.1611153551,-8.668899724555825,2.582668,6.6061406,238.80945,1677538597999,0.52831215,10.921408,973401180751000,8.160221,Bike
Fix,FLP,37.4227793,-122.1611125,-0.3396209346868382,2.5854592,6.501,237.58862,1677538597957,0.52831215,10.921408,973401180751000,1.5617045,Bike
Fix,GPS,37.4227677869,-122.161145251,-6.9520389272951935,2.5855315,6.405182,261.55173,1677538598999,0.42294568,8.771285,973402180572000,8.073973,Bike
Fix,FLP,37.4227676,-122.1611405,3.1490123733971025,2.5828998,6.502,260.76154,1677538598957,0.42294568,8.771285,973402180572000,1.6837786,Bike
Fix,GPS,37.4227688643,-122.1611830461,-6.801478287660717,2.930435,6.419717,285.92276,1677538599999,0.43335786,7.941904,973403180836000,8.1027975,Bike
Fix,FLP,37.4227671,-122.1611671,4.970148838560732,2.898028,6.526,283.85373,1677538599956,0.43335786,7.941904,973403180836000,1.6937987,Bike
Fix,GPS,37.4227801637,-122.1612223462,-7.981125353566375,3.4710813,6.4441967,305.55646,1677538600999,0.4720291,7.452549,973404180710000,8.139653,Bike
Fix,FLP,37.4227756,-122.161207,4.970148838560732,3.4475646,6.509,304.4469,1677538600956,0.4720291,7.452549,973404180710000,1.7037987,Bike
Fix,GPS,37.4228070385,-122.1612675783,-9.215324221017877,3.9652696,6.4120774,315.79852,1677538601999,0.49113107,6.800589,973405181015000,8.181819,Bike
Fix,FLP,37.4227961,-122.1612484,7.187425204903114,3.9375968,6.473,314.5498,1677538601957,0.49113107,6.800589,973405181015000,1.7137986,Bike
Fix,GPS,37.4228404016,-122.1613020327,-9.508238918237376,3.9310033,6.5245314,328.60776,1677538602999,0.50061476,7.100758,973406180729000,8.267147,Bike
Fix,FLP,37.4228283,-122.1612901,-15.36412163722186,3.9288244,6.454,327.5767,1677538602957,0.50061476,7.100758,973406180729000,1.7237986,Bike
Fix,GPS,37.4228749916,-122.1613383124,-9.540132331426976,3.085562,6.4253097,310.67102,1677538603999,0.47528523,8.41669,973407180844000,8.269941,Bike
Fix,FLP,37.4228629,-122.1613232,-13.906554966660668,3.107011,6.437,310.72473,1677538603956,0.47528523,8.41669,973407180844000,1.7337986,Bike
Fix,GPS,37.4228928837,-122.1613708155,-8.223755066428282,3.1020012,6.657816,293.53754,1677538604999,0.49598175,8.812,973408180787000,8.257086,Bike
Fix,FLP,37.422881,-122.1613508,-13.906554966660668,3.102572,6.787,299.70142,1677538604614,,,973407838864209,1.7437886,Bike
Fix,FLP,37.4228869,-122.1613622,-13.906554966660668,3.119101,7.243,294.66638,1677538605157,,,973408381354566,1.7437886,Bike
Fix,FLP,37.4228946,-122.1613812,-13.906554966660668,3.1166735,7.714,290.33914,1677538605699,,,973408923842969,1.7437886,Bike
Fix,GPS,37.4228991677,-122.1614148944,-8.701210944553234,3.3748274,6.74761,271.58847,1677538605999,0.50553536,8.367803,973409180721000,8.319846,Bike
Fix,FLP,37.4229022,-122.1614185,-0.7950121935006393,3.3347373,8.607,273.53436,1677538606760,,,973409984000000,1.7537886,Bike
Fix,GPS,37.4228955472,-122.161466014,-9.720411790132523,3.585122,6.769308,274.02716,1677538606999,0.49872893,7.50115,973410180997000,8.259174,Bike
Fix,FLP,37.4229003,-122.1614616,6.852521415883459,3.5524068,9.953,274.8518,1677538607298,,,973410522612622,1.7637986,Bike
Fix,GPS,37.4228978562,-122.1615140232,-11.306880092241434,3.5221243,6.8061028,283.40317,1677538607999,0.5069037,7.588738,973411180730000,8.206267,Bike
Fix,FLP,37.422901,-122.1614782,6.852521415883459,3.5490406,10.411,281.13742,1677538607869,,,973411093795727,1.7737886,Bike
Fix,FLP,37.4229028,-122.161507,6.852521415883459,3.5099895,10.508,285.9105,1677538608412,,,973411636283215,1.7737886,Bike
Fix,GPS,37.422906462,-122.1615570684,-12.870611316950637,4.079668,6.74666,298.10492,1677538608999,0.49071944,6.4756265,973412180779000,8.186955,Bike
Fix,FLP,37.4229057,-122.1615285,6.743616630361068,3.496431,10.953,291.23032,1677538608954,,,973412178769971,1.7837986,Bike
Fix,GPS,37.4229289804,-122.1616114753,-13.002335110503672,4.6020646,6.4668,301.62378,1677538609999,0.46913922,5.574662,973413181007000,8.163147,Bike
Fix,FLP,37.4229169,-122.1615733,6.743616630361068,3.9377298,11.969,298.24072,1677538610039,,,973413263749463,1.7837986,Bike
Fix,FLP,37.4229328,-122.1616155,9.555650296510017,4.460516,11.803,300.2078,1677538610583,,,973413806234204,1.7937886,Bike
Fix,GPS,37.4229532584,-122.1616691182,-12.815861636568236,4.8891873,6.314002,301.7257,1677538610999,0.49745998,5.627575,973414180829000,8.15319,Bike
Fix,FLP,37.4229516,-122.1616587,10.682976447552996,4.8064733,11.53,300.69223,1677538611125,,,973414348721997,1.8037887,Bike
Fix,GPS,37.4229782734,-122.1617267551,-12.10158323879068,5.4539156,6.2969723,302.93225,1677538611999,0.45527917,4.541004,973415181004000,8.095465,Bike
Fix,FLP,37.4229706,-122.1617047,10.682976447552996,5.4476686,10.975,301.99588,1677538611957,0.45527917,4.541004,973415181004000,1.8138086,Bike
Fix,GPS,37.4230066902,-122.161789118,-11.493553362231529,5.8100967,6.1946054,303.58008,1677538612999,0.47931114,4.5163574,973416181002000,8.087495,Bike
Fix,FLP,37.4230027,-122.1617764,5.7159926676946,5.806476,10.405,302.9906,1677538612958,0.47931114,4.5163574,973416181002000,1.8237886,Bike
Fix,GPS,37.4230374295,-122.1618508472,-10.603983406460744,5.871366,6.213199,303.36197,1677538613999,0.4979188,4.603146,973417180843000,8.072353,Bike
Fix,FLP,37.4230349,-122.1618432,5.7159926676946,5.8707447,9.647,302.99982,1677538613957,0.4979188,4.603146,973417180843000,1.8337886,Bike
Fix,GPS,37.4230632058,-122.161915271,-10.632444400852885,5.3577156,6.1889257,301.7022,1677538614999,0.52099144,5.3079214,973418180815000,8.092307,Bike
Fix,FLP,37.4230634,-122.1619089,6.825934202642358,5.364012,9.017,301.02448,1677538614957,0.52099144,5.3079214,973418180815000,1.8548303,Bike
Fix,GPS,37.4230840917,-122.1619753296,-10.804110215208722,5.0401206,6.266694,297.35733,1677538615999,0.46551177,4.952979,973419180842000,8.004486,Bike
Fix,FLP,37.4230857,-122.1619696,7.346956560687744,5.0431046,6.881,297.0383,1677538615956,0.46551177,4.952979,973419180842000,1.8648202,Bike
Fix,GPS,37.4230977793,-122.1620328296,-11.12588086212308,4.73955,6.12014,294.7072,1677538616999,0.44222468,4.9234605,973420181119000,7.9260864,Bike
Fix,FLP,37.4231037,-122.1620255,10.406757405564171,4.937528,7.047,295.5698,1677538616958,,,973420181119000,1.8748302,Bike
Fix,GPS,37.4231080801,-122.1620909147,-11.168554537504365,4.7179885,6.17503,291.75555,1677538617999,0.4714309,5.301668,973421180852000,7.869547,Bike
Fix,FLP,37.4231108,-122.1620616,10.406757405564171,2.4764237,7.833,91.123795,1677538618079,,,973421303000000,1.8748302,Bike
Fix,FLP,37.423108,-122.1620552,10.406757405564171,3.308393,8.659,283.67178,1677538618624,,,973421848596386,1.8848302,Bike
Fix,GPS,37.4231149855,-122.1621508554,-10.660468596224783,4.885646,6.21313,289.1879,1677538618999,0.46914586,5.034993,973422180854000,7.7759676,Bike
Fix,FLP,37.4231175,-122.162118,10.60727107150911,4.7248282,9.329,288.1464,1677538619185,,,973422409164563,1.8948302,Bike
Fix,GPS,37.4231212985,-122.1622120298,-9.886209403687271,5.0855703,6.2961483,287.43045,1677538619999,0.47925237,5.0031,973423180977000,7.7061424,Bike
Fix,FLP,37.4231229,-122.1621483,11.205771267204844,4.8441153,9.841,288.78006,1677538619727,,,973422951649488,1.9048302,Bike
Fix,FLP,37.4231251,-122.1621792,11.205771267204844,5.0383825,9.955,287.32214,1677538620241,,,973423465000000,1.9048302,Bike
Fix,FLP,37.4231308,-122.1622263,11.205771267204844,5.084695,10.449,284.98337,1677538620813,,,973424036619458,1.9048302,Bike
Fix,GPS,37.4231265161,-122.1622772251,-9.011861624304554,5.1788774,6.3341517,288.1032,1677538620999,0.4892344,5.0536094,973424180916000,7.672399,Bike
Fix,FLP,37.4231287,-122.1622528,11.34696210596556,5.1775436,10.075,287.92374,1677538620957,0.4892344,5.0536094,973424180916000,1.9148203,Bike
Fix,GPS,37.4231354564,-122.1623417493,-8.949092560563164,5.427236,6.4150333,289.19202,1677538621999,0.5083511,5.0757627,973425181502000,7.7048035,Bike
Fix,FLP,37.4231386,-122.1623279,11.205771267204844,5.42444,9.715,288.98828,1677538621957,0.5083511,5.0757627,973425181502000,1.9248303,Bike
Fix,GPS,37.4231458977,-122.1624098226,-8.821306991205926,5.585488,6.3634286,292.6828,1677538622999,0.48684314,4.668744,973426181001000,7.5942664,Bike
Fix,FLP,37.4231494,-122.1624002,11.116249312105872,5.5838685,9.527,291.9701,1677538622957,0.48684314,4.668744,973426181001000,1.9348303,Bike
Fix,GPS,37.4231588267,-122.1624798851,-8.401628631540024,5.4306054,6.3751383,294.07187,1677538623999,0.47489345,4.677102,973427180984000,7.5319476,Bike
Fix,FLP,37.4231626,-122.1624714,10.54026214890206,5.432278,8.618,293.9785,1677538623956,0.47489345,4.677102,973427180984000,1.9448403,Bike
Fix,GPS,37.4231717724,-122.1625455747,-7.920400710514016,5.377761,6.2679796,293.56674,1677538624999,0.4572392,4.5274887,973428181134000,7.438449,Bike
Fix,FLP,37.423176,-122.1625386,10.54026214890206,5.378293,7.706,293.0078,1677538624957,0.4572392,4.5274887,973428181134000,1.9548303,Bike
Fix,NLP,37.423336,-122.1630872,-5.599999904632568,,56.1,,1677538625013,,,973428237000000,4.4640536,Bike
Fix,GPS,37.4231853032,-122.1626100952,-7.125176875162869,5.2024174,6.0844474,290.38376,1677538625999,0.44326645,4.506643,973429181012000,7.3152056,Bike
Fix,FLP,37.4231884,-122.1626043,7.426723367601404,5.204115,7.045,290.02118,1677538625957,0.44326645,4.506643,973429181012000,1.6203622,Bike
Fix,GPS,37.4231976997,-122.1626768032,-6.625918400191575,5.4484253,6.0274763,288.04767,1677538626999,0.45771912,4.407056,973430181157000,7.2368684,Bike
Fix,FLP,37.4232003,-122.1626702,7.426723367601404,5.4460354,6.305,288.01706,1677538626957,0.45771912,4.407056,973430181157000,1.6298888,Bike
Fix,GPS,37.423209911,-122.1627466457,-6.35327729321437,5.4990406,6.045932,290.22308,1677538627999,0.4747108,4.571594,973431181198000,7.1697598,Bike
Fix,FLP,37.423212,-122.1627398,8.509274264750317,5.4985986,6.233,289.9812,1677538627958,0.4747108,4.571594,973431181198000,1.6352922,Bike
Fix,GPS,37.4232238599,-122.1628151971,-6.132002591618583,5.197561,6.082512,291.33435,1677538628999,0.47020978,4.783175,973432181147000,7.1060166,Bike
Fix,FLP,37.4232259,-122.1628087,6.1548039608989775,5.200687,6.185,290.98825,1677538628957,0.47020978,4.783175,973432181147000,1.5323473,Bike
Fix,GPS,37.4232355162,-122.1628746297,-5.436694193252523,5.1311073,5.982271,288.85123,1677538629999,0.45887682,4.730047,973433181134000,7.0460443,Bike
Fix,FLP,37.4232382,-122.1628705,6.671259960021057,5.131656,6.156,288.0257,1677538629957,0.45887682,4.730047,973433181134000,1.5423273,Bike
Fix,GPS,37.423246309,-122.1629359479,-4.862924147981677,5.2440968,5.9038396,287.777,1677538630999,0.46895596,4.7339716,973434181125000,7.0269737,Bike
Fix,FLP,37.4232486,-122.1629321,7.313038854899251,5.242954,6.008,287.00912,1677538630957,0.46895596,4.7339716,973434181125000,1.5523273,Bike
Fix,GPS,37.4232562533,-122.1629952924,-4.159491143623734,5.133909,5.831949,284.316,1677538631999,0.45641142,4.7170315,973435181221000,6.9893713,Bike
Fix,FLP,37.4232585,-122.1629929,6.671259960021057,5.134837,5.969,284.0257,1677538631958,0.45641142,4.7170315,973435181221000,1.5623173,Bike
Fix,GPS,37.4232655941,-122.163056928,-4.040898672970091,5.2694154,5.8383665,284.0728,1677538632999,0.45316544,4.5004845,973436181127000,6.9621797,Bike
Fix,FLP,37.4232671,-122.1630541,13.777522730100454,5.268162,5.947,284.00043,1677538632958,0.45316544,4.5004845,973436181127000,1.5723373,Bike
Fix,GPS,37.4232740467,-122.1631202264,-3.914235261871625,5.4380336,5.846114,284.134,1677538633999,0.45620182,4.4021564,973437181141000,6.947766,Bike
Fix,FLP,37.4232757,-122.1631172,16.51552143067241,5.436425,5.914,284.0003,1677538633957,0.45620182,4.4021564,973437181141000,1.5823373,Bike
Fix,GPS,37.4232857496,-122.1631846257,-3.8072253678663097,5.240249,5.892627,284.66995,1677538634999,0.45570242,4.6055827,973438181139000,6.93683,Bike
Fix,FLP,37.4232864,-122.1631817,6.2892840193395365,5.2421703,5.862,283.9992,1677538634957,0.45570242,4.6055827,973438181139000,1.5923173,Bike
Fix,GPS,37.4232961988,-122.1632428227,-3.729736945293246,5.3362703,5.905767,287.54895,1677538635999,0.46787435,4.617061,973439181153000,6.945222,Bike
Fix,FLP,37.4232968,-122.1632415,6.3951310452246055,5.335364,5.863,286.9738,1677538635958,0.46787435,4.617061,973439181153000,1.6023273,Bike
Fix,GPS,37.4233098323,-122.1632988674,-3.6009703892816907,5.402969,5.9066486,289.9117,1677538636999,0.46649027,4.6111465,973440181213000,6.9517784,Bike
Fix,FLP,37.4233102,-122.1632991,10.538012145368771,5.4023166,5.87,288.9818,1677538636958,0.46649027,4.6111465,973440181213000,1.6123273,Bike
Fix,FLP,37.4233254,-122.1633558,10.816834468258625,5.2187696,5.885,288.99918,1677538637957,0.4521524,4.602291,973441181233000,1.6223173,Bike
Fix,GPS,37.4233249633,-122.1633551171,-3.3407694912417183,5.2170396,5.87443,289.0245,1677538637999,0.4521524,4.602291,973441181233000,6.980017,Bike
Fix,GPS,37.4233377405,-122.1634125056,-3.31726206529332,5.061516,5.833924,287.40298,1677538638999,0.4456166,4.651165,973442181219000,6.994598,Bike
Fix,FLP,37.4233388,-122.1634122,2.199592766382388,5.0628676,5.882,287.0162,1677538638957,0.4456166,4.651165,973442181219000,1.6323173,Bike
Fix,GPS,37.4233473786,-122.1634688847,-3.5859359541721267,4.838815,6.024483,279.70074,1677538639999,0.46590596,5.07632,973443181373000,7.0382686,Bike
Fix,FLP,37.4233492,-122.1634682,10.155349874473972,4.8404374,5.909,279.07254,1677538639957,0.46590596,5.07632,973443181373000,1.6423173,Bike
Fix,GPS,37.4233521343,-122.1635283061,-3.489435753576241,4.833348,6.1780844,275.53973,1677538640999,0.48183134,5.3606,973444181222000,7.103518,Bike
Fix,FLP,37.4233519,-122.163511,12.55392559177378,4.8331184,5.98,275.16635,1677538640957,0.48183134,5.3606,973444181222000,1.6523273,Bike
Fix,GPS,37.4233560456,-122.1635874225,-3.5236921389224767,4.8235297,6.2650466,275.89288,1677538641999,0.4805937,5.4834595,973445181477000,7.118605,Bike
Fix,FLP,37.4233555,-122.1635753,12.029946519026186,4.8238573,6.05,274.99997,1677538641958,0.4805937,5.4834595,973445181477000,1.6623673,Bike
Fix,GPS,37.4233590122,-122.1636435891,-3.714141309756989,4.9786296,6.299777,281.8786,1677538642999,0.43828043,4.7127304,973446181233000,7.0685225,Bike
Fix,FLP,37.4233582,-122.1636223,14.459763993677807,4.9627967,6.111,280.50696,1677538642957,0.43828043,4.7127304,973446181233000,1.6723173,Bike
Fix,GPS,37.423367407,-122.1637043368,-3.965258362879296,5.3652167,6.088566,288.16583,1677538643999,0.45055786,4.5075006,973447181261000,7.054491,Bike
Fix,FLP,37.4233656,-122.1636853,15.144107807052382,5.353765,6.173,287.83157,1677538643957,0.45055786,4.5075006,973447181261000,1.6823173,Bike
Fix,GPS,37.4233814503,-122.1637652033,-4.457163169757998,5.400022,6.001874,289.99634,1677538644999,0.44739377,4.4255953,973448181389000,7.025218,Bike
Fix,FLP,37.4233811,-122.1637562,12.029946519026186,5.3997054,6.171,288.99008,1677538644958,0.44739377,4.4255953,973448181389000,1.6923373,Bike
Fix,GPS,37.4233951516,-122.1638244662,-4.903600685646492,5.302087,5.940247,289.01266,1677538645999,0.44391719,4.464794,973449181320000,6.9716105,Bike
Fix,FLP,37.4233958,-122.1638205,7.991178500791097,5.3030086,6.178,288.9994,1677538645958,0.44391719,4.464794,973449181320000,1.7023273,Bike
Fix,GPS,37.4234091053,-122.1638835113,-5.012617814451176,5.362435,5.939596,288.191,1677538646999,0.4422164,4.359104,973450181380000,6.944423,Bike
Fix,FLP,37.42341,-122.1638812,9.170636910948868,5.3618827,6.151,288.00806,1677538646957,0.4422164,4.359104,973450181380000,1.7123274,Bike
Fix,GPS,37.4234228982,-122.1639437018,-5.338686594040926,5.4087973,5.9211845,289.56955,1677538647999,0.43181956,4.19308,973451181576000,6.924758,Bike
Fix,FLP,37.4234236,-122.1639419,9.170636910948868,5.408435,6.032,288.9925,1677538647957,0.43181956,4.19308,973451181576000,1.7223173,Bike
Fix,GPS,37.4234370996,-122.1640054597,-5.602155777255431,5.281927,5.893296,286.41714,1677538648999,0.44610593,4.4832864,973452181346000,6.8800635,Bike
Fix,FLP,37.423438,-122.1640034,7.991178500791097,5.28296,5.939,286.0248,1677538648958,0.44610593,4.4832864,973452181346000,1.7323173,Bike
Fix,FLP,37.4234494,-122.1640646,12.500195774428663,5.300376,5.936,285.0088,1677538649957,0.45814362,4.598411,973453181343000,1.7423173,Bike
Fix,GPS,37.4234482746,-122.1640667513,-5.607119626234909,5.3005624,5.920001,285.5329,1677538649999,0.45814362,4.598411,973453181343000,6.8651004,Bike
Fix,GPS,37.423460019,-122.164130827,-5.745571483791504,5.3414288,6.076322,287.78793,1677538650999,0.47139105,4.6551266,973454181496000,6.869933,Bike
Fix,FLP,37.4234607,-122.1641276,12.750426117817783,5.341077,5.95,286.9819,1677538650958,0.47139105,4.6551266,973454181496000,1.7523173,Bike
Fix,GPS,37.423472683,-122.1641912397,-5.796161018955151,5.446894,6.2234526,288.975,1677538651999,0.47801447,4.630049,973455181459000,6.886641,Bike
Fix,FLP,37.4234735,-122.1641889,12.500195774428663,5.4458356,6.006,287.99084,1677538651958,0.47801447,4.630049,973455181459000,1.7623173,Bike
Fix,GPS,37.4234882226,-122.1642542498,-5.5577490102228495,5.472294,6.4765663,289.03824,1677538652999,0.46887377,4.5104246,973456181539000,6.9174957,Bike
Fix,FLP,37.4234884,-122.1642515,13.745008691927715,5.4720836,6.085,288.99088,1677538652957,0.46887377,4.5104246,973456181539000,1.8771265,Bike
Fix,GPS,37.4235020386,-122.1643119121,-5.632025624922051,5.540602,6.5413465,287.03,1677538653999,0.44759622,4.2417636,973457181457000,6.929308,Bike
Fix,FLP,37.423503,-122.1643112,13.745008691927715,5.539879,6.247,287.01624,1677538653958,0.44759622,4.2417636,973457181457000,1.8871565,Bike
Fix,GPS,37.4235152639,-122.1643739945,-5.968944259406501,5.4734683,6.171165,287.6204,1677538654999,0.4407336,4.2259536,973458181452000,6.903235,Bike
Fix,FLP,37.4235162,-122.1643729,10.785793618257443,5.474069,6.297,286.9998,1677538654957,0.4407336,4.2259536,973458181452000,1.8971364,Bike
Fix,GPS,37.4235286092,-122.1644359957,-6.037380959218271,5.4769144,6.009659,288.17004,1677538655999,0.4578271,4.3775086,973459181449000,6.888415,Bike
Fix,FLP,37.4235293,-122.1644346,7.309118723178805,5.4769273,6.249,287.99133,1677538655957,0.4578271,4.3775086,973459181449000,1.9071465,Bike
Fix,GPS,37.4235432807,-122.1644991902,-6.04629217526083,5.5338063,6.1924915,288.35117,1677538656999,0.47249484,4.4833794,973460181772000,6.883427,Bike
Fix,FLP,37.4235438,-122.164497,13.783387060870249,5.5332465,6.278,288.00003,1677538656957,0.47249484,4.4833794,973460181772000,1.9171364,Bike
Fix,GPS,37.4235546844,-122.1645619465,-5.754894859740691,5.379386,6.261923,286.17346,1677538657999,0.47498763,4.674665,973461181645000,6.8750057,Bike
Fix,FLP,37.4235565,-122.1645598,9.259521944311231,5.380905,6.235,286.0183,1677538657957,0.47498763,4.674665,973461181645000,1.9271364,Bike
Fix,GPS,37.4235658493,-122.164624652,-5.561499487912343,5.3624725,6.343869,285.39633,1677538658999,0.46805793,4.668596,973462181671000,6.868055,Bike
Fix,FLP,37.4235674,-122.1646222,13.036319461839868,5.362647,6.195,285.00906,1677538658957,0.46805793,4.668596,973462181671000,1.9371464,Bike
Fix,GPS,37.4235780703,-122.1646926695,-5.642148393365754,5.3720255,6.5493546,285.4964,1677538659999,0.47297525,4.6756682,973463181746000,6.895425,Bike
Fix,FLP,37.4235789,-122.1646878,13.697931463981476,5.3719764,6.271,284.99988,1677538659957,0.47297525,4.6756682,973463181746000,1.9471464,Bike
Fix,NLP,37.4222299,-122.1651647,-1.899999976158142,,77.6,,1677538659838,,,973463062000000,27.437021,Bike
Fix,GPS,37.4235886402,-122.1647602689,-5.45692084461386,5.22413,6.563631,286.1412,1677538660999,0.47038218,4.7976036,973464181701000,6.8911195,Bike
Fix,FLP,37.4235903,-122.1647582,10.941156376693112,5.225517,6.41,285.99088,1677538660957,0.47038218,4.7976036,973464181701000,1.6387718,Bike
Fix,GPS,37.4236062614,-122.1648313024,-5.376439971598149,5.1219573,6.3692713,283.05286,1677538661999,0.4683554,4.8940477,973465181757000,6.8700747,Bike
Fix,FLP,37.4236051,-122.1648248,7.367758512926567,5.122946,6.404,283.02762,1677538661957,0.4683554,4.8940477,973465181757000,1.6247214,Bike
Fix,GPS,37.4236200459,-122.1649012056,-5.5410760782154,5.2476506,6.26915,283.57516,1677538662999,0.47226503,4.773401,973466181565000,6.8976603,Bike
Fix,FLP,37.4236182,-122.1648934,14.7904123519094,5.24645,6.415,283.00064,1677538662958,0.47226503,4.773401,973466181565000,1.6145898,Bike
Fix,GPS,37.4236310853,-122.1649621816,-6.0321482214202815,5.234395,6.136365,286.74023,1677538663999,0.48614138,5.0372777,973467181568000,6.9628835,Bike
Fix,FLP,37.4236302,-122.164958,12.645522924888288,5.2345743,6.397,285.96945,1677538663958,0.48614138,5.0372777,973467181568000,1.6270734,Bike
Fix,GPS,37.4236445635,-122.1650237611,-7.116388273080935,4.7575274,6.174885,286.23914,1677538664999,0.478568,5.4010453,973468181655000,7.0415998,Bike
Fix,FLP,37.423644,-122.1650203,12.645522924888288,4.762627,6.343,285.99796,1677538664958,0.478568,5.4010453,973468181655000,1.6370834,Bike
Fix,GPS,37.4236489678,-122.1650757523,-7.507675540679506,4.3715806,6.1459446,278.3434,1677538665999,0.46607003,5.6592574,973469181602000,7.1008606,Bike
Fix,FLP,37.4236491,-122.1650549,12.692601269963095,4.4234023,6.251,279.1765,1677538665958,0.46607003,5.6592574,973469181602000,1.6470534,Bike
Fix,GPS,37.4236490633,-122.1651243642,-7.607626136541019,4.590367,6.227739,269.21,1677538666999,0.50023705,5.819088,973470181938000,7.1803765,Bike
Fix,FLP,37.4236512,-122.1651088,17.904566860086188,4.580122,6.181,269.291,1677538666958,0.50023705,5.819088,973470181938000,1.6570734,Bike
Fix,GPS,37.4236431336,-122.1651749998,-7.551442274578894,5.0752864,6.1558385,271.95456,1677538667999,0.4771091,5.0037236,973471181643000,7.172461,Bike
Fix,FLP,37.4236471,-122.165155,11.638006845027736,4.8416176,6.179,270.09363,1677538667958,0.4771091,5.0037236,973471181643000,1.6670634,Bike
Fix,GPS,37.4236451233,-122.1652361393,-7.714864777869685,5.24022,6.2197165,273.62616,1677538668999,0.5316978,5.5592914,973472181668000,7.212164,Bike
Fix,FLP,37.423645,-122.1652076,11.83090438748253,5.1962104,6.184,272.5079,1677538668957,0.5316978,5.5592914,973472181668000,1.6770734,Bike
Fix,GPS,37.4236480608,-122.1652977083,-7.3841994718819075,5.679793,6.3319416,281.01428,1677538669999,0.57271415,5.7798867,973473181919000,7.281682,Bike
Fix,FLP,37.4236477,-122.1652839,14.762772520091492,5.6717124,6.199,280.88028,1677538669957,0.57271415,5.7798867,973473181919000,1.6870733,Bike
Fix,NLP,37.4235146,-122.1654264,4.900000095367432,,21.727,,1677538670966,,,973474189000000,8.189199,Bike
Fix,FLP,37.4236548,-122.1653336,14.762772520091492,5.6559095,6.896,280.87378,1677538670965,0.57271415,5.7798867,973474189000000,1.6740035,Bike
Fix,GPS,37.423656973,-122.1653626949,-6.933655463566601,5.762008,6.379407,286.71964,1677538670999,0.5443145,5.2641973,973474181663000,7.350398,Bike
Fix,GPS,37.4236688917,-122.1654304062,-6.642285730793986,5.8703184,6.3384867,289.4704,1677538671999,0.546421,5.239304,973475181702000,7.423534,Bike
Fix,FLP,37.4236691,-122.1654241,14.10865621153346,5.8730154,6.868,288.93015,1677538671957,0.546421,5.239304,973475181702000,1.7005749,Bike
Fix,GPS,37.4236809132,-122.1655082082,-6.647027849143785,5.920415,6.3657475,284.98068,1677538672999,0.5300466,5.0063214,973476181767000,7.5055375,Bike
Fix,FLP,37.4236829,-122.1655,14.762772520091492,5.919616,7.054,284.0607,1677538672958,0.5300466,5.0063214,973476181767000,1.7105849,Bike
Fix,GPS,37.4236901074,-122.1655834934,-6.549392024026039,5.6871605,6.3321776,283.2515,1677538673999,0.52415615,5.193786,973477181759000,7.5719786,Bike
Fix,FLP,37.4236924,-122.1655762,13.543397188992593,5.690239,7.36,283.01285,1677538673958,0.52415615,5.193786,973477181759000,1.7768441,Bike
Fix,GPS,37.4236997368,-122.1656521839,-6.322058117076189,5.316092,6.358616,281.87372,1677538674999,0.51129466,5.3703322,973478181730000,7.6477256,Bike
Fix,FLP,37.4237014,-122.1656469,13.543397188992593,5.320679,7.217,281.02423,1677538674958,0.51129466,5.3703322,973478181730000,1.7846437,Bike
Fix,GPS,37.4237087335,-122.1657155821,-6.181178699411135,5.187627,6.304643,280.91138,1677538675999,0.50644284,5.46085,973479181727000,7.686318,Bike
Fix,FLP,37.4237094,-122.1657118,13.543397188992593,5.189262,7.345,280.01172,1677538675958,0.50644284,5.46085,973479181727000,1.7946136,Bike
Fix,GPS,37.4237169627,-122.1657768389,-6.175752871485362,4.8173866,6.339712,281.34277,1677538676999,0.5115444,5.875489,973480181720000,7.7407494,Bike
Fix,FLP,37.4237172,-122.1657739,12.105135853278206,4.8219786,6.34,280.98697,1677538676957,0.5115444,5.875489,973480181720000,1.8046136,Bike
Fix,GPS,37.4237230462,-122.1658373,-5.7390640455644215,4.9045,6.2876415,279.62552,1677538677999,0.5194067,6.026237,973481181841000,7.8025155,Bike
Fix,FLP,37.4237244,-122.1658317,15.524413104528412,4.9770155,7.105,318.1264,1677538677958,,,973481181841000,1.8146136,Bike
Fix,FLP,37.4237299,-122.1658547,15.524413104528412,5.1407704,7.385,319.81702,1677538678541,,,973481765772656,1.8146136,Bike
Fix,GPS,37.4237274523,-122.1659027854,-5.735203588900076,5.084433,6.2114315,279.38425,1677538678999,0.49265543,5.4290457,973482181776000,7.8525434,Bike
Fix,FLP,37.4237425,-122.1658767,12.105135853278206,5.6367445,8.196,307.44666,1677538679084,,,973482308252087,1.8246336,Bike
Fix,FLP,37.4237517,-122.1659182,12.105135853278206,5.270048,8.648,295.86066,1677538679627,,,973482850732067,1.8246336,Bike
Fix,GPS,37.4237331411,-122.1659658504,-6.055793559257555,5.1296496,6.082283,279.36084,1677538679999,0.47487694,5.130481,973483181836000,7.8109746,Bike
Fix,FLP,37.4237414,-122.1659423,16.044436339373462,5.115566,8.363,279.4168,1677538679957,0.47487694,5.130481,973483181836000,1.8348036,Bike
Fix,GPS,37.4237433364,-122.1660305971,-5.704952685275346,5.31765,6.114293,280.12238,1677538680999,0.46150383,4.6314197,973484182147000,7.7227135,Bike
Fix,FLP,37.4237456,-122.166018,16.46006846165671,5.3157854,8.342,279.99493,1677538680959,0.46150383,4.6314197,973484182147000,1.8446037,Bike
Fix,GPS,37.4237539308,-122.1660917351,-5.341620716345499,5.0990562,6.025339,282.80356,1677538681999,0.48585358,5.113501,973485181863000,7.74167,Bike
Fix,FLP,37.4237539,-122.1660862,16.261975233805643,5.101522,8.307,281.97858,1677538681957,0.48585358,5.113501,973485181863000,1.8546236,Bike
Fix,GPS,37.423766741,-122.1661488644,-4.567432299302293,5.012377,6.0213327,285.92972,1677538682999,0.5136578,5.4362116,973486181874000,7.8064623,Bike
Fix,FLP,37.4237655,-122.1661465,16.044436339373462,5.013519,7.844,284.96634,1677538682958,0.5136578,5.4362116,973486181874000,1.8646237,Bike
Fix,GPS,37.4237796069,-122.1662066762,-4.086241532275024,4.7816377,6.0912876,285.8027,1677538683999,0.5089953,5.7104597,973487182158000,7.8289585,Bike
Fix,FLP,37.423778,-122.166203,16.261975233805643,5.0763745,7.831,284.70288,1677538683958,,,973487182158000,1.8746136,Bike
Fix,NLP,37.4239766,-122.1662408,2.799999952316284,,21.218,,1677538683986,,,973487209000000,2.9958324,Bike
Fix,FLP,37.4237951,-122.1662346,11.473254339143228,5.032337,7.553,287.6436,1677538684537,,,973487760171338,1.7134187,Bike
Fix,GPS,37.4237931816,-122.1662615524,-4.193963575768184,4.8963976,6.1486216,287.66724,1677538684999,0.52373993,5.8539615,973488181922000,7.887022,Bike
Fix,FLP,37.4238014,-122.1662371,15.008974945552051,4.8093944,8.054,290.32977,1677538685078,,,973488302652295,1.7194188,Bike
Fix,FLP,37.4238101,-122.1662716,15.008974945552051,4.849517,8.285,283.2986,1677538685621,,,973488845120069,1.7194188,Bike
Fix,GPS,37.423804219,-122.1663206316,-4.567900148035921,4.9565296,6.350989,283.76794,1677538685999,0.537918,5.9151945,973489181926000,7.9835,Bike
Fix,FLP,37.4238133,-122.1663157,14.218695711243942,4.960825,8.92,279.13556,1677538686715,,,973489939000000,1.7169286,Bike
Fix,GPS,37.4238166405,-122.1663789646,-3.8632464081629503,4.9624743,6.5581255,284.26242,1677538686999,0.520355,5.9886804,973490181920000,8.018188,Bike
Fix,FLP,37.4238193,-122.1663649,14.787341255022389,4.945694,9.522,281.2315,1677538687247,,,973490470851087,1.7248452,Bike
Fix,GPS,37.4238276691,-122.1664385523,-3.905843593254458,5.11241,6.7472277,282.65164,1677538687999,0.5043826,5.5577188,973491181993000,8.080992,Bike
Fix,FLP,37.423826,-122.1664174,14.218695711243942,5.1116986,9.588,281.99402,1677538687957,0.5043826,5.5577188,973491181993000,1.7369287,Bike
Fix,GPS,37.4238387143,-122.1665022568,-4.188976968849954,5.013805,6.808302,280.67792,1677538688999,0.5008633,5.7277446,973492181973000,8.176354,Bike
Fix,FLP,37.4238374,-122.1664902,-1.899999976158142,5.015086,9.356,280.02393,1677538688958,0.5008633,5.7277446,973492181973000,1.7469386,Bike
Fix,GPS,37.4238502222,-122.1665683636,-3.643386368740426,4.5728974,6.3621893,278.24643,1677538689999,0.47669274,5.934202,973493182300000,8.184618,Bike
Fix,FLP,37.4238467,-122.1665551,-6.51813428083895,4.977395,9.558,278.7764,1677538689958,,,973493182300000,1.7569387,Bike
Fix,GPS,37.423860476,-122.166623729,-2.890342160733255,3.877662,6.0649614,279.5646,1677538690999,0.45069802,6.7148633,973494182307000,8.108231,Bike
Fix,FLP,37.4238512,-122.1665928,-6.421127141367155,4.4654827,9.031,312.80533,1677538691006,,,973494229232556,1.7669387,Bike
Fix,FLP,37.4238661,-122.1666256,-6.421127141367155,4.0227532,8.944,291.8012,1677538691548,,,973494771710889,1.7669387,Bike
Fix,GPS,37.4238722277,-122.1666713378,-2.2583919103843466,3.5341485,5.959029,287.42136,1677538691999,0.4395854,6.982749,973495182000000,8.030984,Bike
Fix,FLP,37.423866,-122.1666353,-6.384876819316048,3.933842,8.881,289.3631,1677538692090,,,973495314189160,1.7769287,Bike
Fix,FLP,37.4238735,-122.1666732,-6.384876819316048,3.594939,8.732,291.54745,1677538692633,,,973495856666944,1.7769287,Bike
Fix,GPS,37.4238899503,-122.1667151521,-0.6577630103247981,4.022027,5.911029,293.00854,1677538692999,0.4431573,6.087124,973496182256000,8.004701,Bike
Fix,GPS,37.4239146426,-122.1667624142,1.8025473385316997,4.4439645,5.9266996,303.28503,1677538693999,0.43979308,5.2478237,973497182042000,8.038061,Bike
Fix,FLP,37.4238914,-122.1667277,-3.830114045697794,3.9373772,9.469,296.39185,1677538693717,,,973496941622814,1.7969286,Bike
Fix,FLP,37.4239076,-122.1667547,-3.830114045697794,4.2700987,9.533,300.5874,1677538694261,,,973497484100414,1.7969286,Bike
Fix,GPS,37.4239435751,-122.1668003343,3.582250601624874,4.3291607,6.1158247,313.25897,1677538694999,0.5159523,6.471713,973498182025000,8.163405,Bike
Fix,FLP,37.4239216,-122.1667781,-1.899999976158142,4.410965,9.541,300.98215,1677538694802,,,973498026578382,1.8069386,Bike
Fix,FLP,37.4239444,-122.1668102,-1.899999976158142,4.3554792,9.832,310.36517,1677538695345,,,973498569055860,1.8069386,Bike
Fix,GPS,37.4239776857,-122.1668300114,4.285309350092376,4.4333878,6.179213,317.54178,1677538695999,0.46040896,5.6550665,973499182079000,8.233549,Bike
Fix,FLP,37.4239547,-122.1668205,2.799999952316284,4.3558416,9.855,312.9699,1677538695888,,,973499111533216,1.8169286,Bike
Fix,FLP,37.4239788,-122.1668426,2.799999952316284,4.425221,9.853,314.0781,1677538696431,,,973499654010694,1.8169286,Bike
Fix,GPS,37.4240138529,-122.1668588696,4.228393877044447,4.6169634,6.175844,323.25107,1677538696999,0.46412262,5.4739943,973500182043000,8.273818,Bike
Fix,FLP,37.423993,-122.1668559,18.95687079753451,4.4487424,9.828,312.8115,1677538696972,,,973500196487988,1.8269286,Bike
Fix,FLP,37.424016,-122.1668725,18.95687079753451,4.6084685,9.834,320.63535,1677538697475,,,973500698000000,1.8269286,Bike
Fix,GPS,37.4240574806,-122.1668773371,3.401252266394368,4.632343,6.161172,332.6882,1677538697999,0.49388912,5.7681866,973501182073000,8.321317,Bike
Fix,FLP,37.4240372,-122.1668863,12.868123932713647,4.6553116,9.879,326.38455,1677538698058,,,973501281442394,1.8369286,Bike
Fix,GPS,37.4241100062,-122.1668977376,2.8892141988106186,4.996023,6.347373,338.2993,1677538698999,0.51572514,5.2889786,973502182146000,8.39923,Bike
Fix,FLP,37.424073,-122.1668989,12.341566877626304,4.651206,9.937,334.75836,1677538698600,,,973501823919995,1.8469386,Bike
Fix,FLP,37.4240912,-122.1669025,12.341566877626304,4.8965087,10.004,336.8164,1677538699143,,,973502366396375,1.8469386,Bike
Fix,FLP,37.424127,-122.1669104,12.341566877626304,4.956325,10.013,337.0121,1677538699685,,,973502908872997,1.8469386,Bike
Fix,GPS,37.4241630076,-122.1669185375,1.8421680078150544,5.0550895,6.518302,334.0233,1677538699999,0.55087125,5.761348,973503182087000,8.468198,Bike
