Fix,Provider,LatitudeDegrees,LongitudeDegrees,AltitudeMeters,SpeedMps,AccuracyMeters,BearingDegrees,UnixTimeMillis,SpeedAccuracyMps,BearingAccuracyDegrees,elapsedRealtimeNanos,VerticalAccuracyMeters,TransitType
Fix,GPS,37.4275089779,-122.1729079172,-9.251594582041074,0.0,52.609123,,1677176827878,1.6171702,,611625698948602,53.276073,Bike
Fix,FLP,37.4272342,-122.1729722,0.1000000461935997,0.13750911,52.609,20.23795,1677176830341,1.6171702,,611625698948602,2.4530468,Bike
Fix,GPS,37.427505092,-122.1728509929,-7.622924819489297,0.0,50.503582,,1677176828878,1.7528763,,611626697870315,50.557365,Bike
Fix,FLP,37.4273118,-122.1729432,0.1000000461935997,0.7840586,52.082,18.520391,1677176831340,1.7528763,,611626697870315,2.4626868,Bike
Fix,GPS,37.4274675336,-122.1727472948,1.5128647524408765,0.0,15.68837,,1677176829878,1.1849613,,611627710860021,21.477072,Bike
Fix,FLP,37.427405,-122.1728205,-2.9298491600337933,2.5828395,44.803,38.03498,1677176832353,1.1849613,,611627710860021,2.4730368,Bike
Fix,GPS,37.4274520139,-122.1727543152,7.473939545604932,0.0,20.22722,,1677176830878,0.58681864,,611628672160152,22.429764,Bike
Fix,FLP,37.4274325,-122.1727863,0.1000000461935997,2.9059985,40.707,39.683434,1677176833315,0.58681864,,611628672160152,2.482647,Bike
Fix,GPS,37.4274494294,-122.1727633026,9.865932168795275,0.0,18.581251,,1677176831878,0.62180626,,611629678444576,19.724648,Bike
Fix,FLP,37.4274515,-122.1727644,0.1000000461935997,2.891436,37.546,40.244705,1677176834321,0.62180626,,611629678444576,2.4922469,Bike
Fix,GPS,37.4274434669,-122.1727696307,9.63667214147622,0.0,17.95906,,1677176833000,0.8903767,,611630772590288,18.129047,Bike
Fix,FLP,37.427461,-122.1727529,0.1000000461935997,2.5417228,32.596,40.691784,1677176835415,0.8903767,,611630772590288,2.5034869,Bike
Fix,GPS,37.4274362235,-122.1727723419,8.60846481145763,0.0,17.378672,,1677176834000,0.7389484,,611631767355588,17.01928,Bike
Fix,FLP,37.427461,-122.1727499,0.1000000461935997,2.0649233,17.966,41.85265,1677176836410,0.7389484,,611631767355588,2.5138369,Bike
Fix,GPS,37.4274369417,-122.1727726309,7.354978953788264,0.0,16.559002,,1677176835000,20.0,,611632810126706,15.978411,Bike
Fix,FLP,37.4274591,-122.1727501,-2.873637149279368,1.6101302,18.141,42.689423,1677176837453,20.0,,611632810126706,2.524247,Bike
Fix,GPS,37.4274391577,-122.1727759224,6.334957634871156,0.0,16.117714,,1677176836000,20.0,,611633748208000,15.150384,Bike
Fix,FLP,37.427457,-122.1727537,5.098455330514078,1.243269,17.319,42.02509,1677176838391,20.0,,611633748208000,2.5338569,Bike
Fix,GPS,37.4274434503,-122.1727843245,4.715668003545806,0.0,15.710836,,1677176837000,20.0,,611634748377000,14.466479,Bike
Fix,FLP,37.4274565,-122.1727604,20.56200084912281,0.92753774,16.745,37.212044,1677176839391,20.0,,611634748377000,2.5426805,Bike
Fix,GPS,37.4274534243,-122.172796608,3.01988405862608,0.0,15.229074,,1677176838000,20.0,,611635748307000,13.405655,Bike
Fix,FLP,37.4274592,-122.1727713,11.49618691990733,0.7115696,16.492,22.695047,1677176840391,20.0,,611635748307000,2.5534768,Bike
Fix,GPS,37.4274574066,-122.1728085608,1.9116838783411052,0.0,15.05069,,1677176839000,0.8399604,,611636748300000,12.68485,Bike
Fix,FLP,37.4274621,-122.1727842,8.588643309754914,0.5927991,16.007,0.7990188,1677176841391,0.8399604,,611636748300000,2.5634868,Bike
Fix,GPS,37.4274617392,-122.1728140561,0.9316280008187928,0.0,18.94475,,1677176840000,1.0032411,,611637748621000,12.185621,Bike
Fix,FLP,37.4274658,-122.1727926,6.842857584594661,0.5746644,16.268,346.53165,1677176842391,1.0032411,,611637748621000,2.5734768,Bike
Fix,GPS,37.4274646971,-122.1728173532,0.0369239334559571,0.0,14.918959,,1677176841000,0.73226357,,611638748307000,11.7331,Bike
Fix,FLP,37.4274683,-122.1728039,2.5505357162888345,0.5849469,15.971,329.96835,1677176843391,0.73226357,,611638748307000,2.5845268,Bike
Fix,GPS,37.4274680479,-122.1728205717,-0.2936082608262129,0.0,14.81119,,1677176842000,20.0,,611639748632000,11.31864,Bike
Fix,FLP,37.4274709,-122.1728126,2.2140754373523706,0.6022215,15.791,320.8209,1677176844391,20.0,,611639748632000,2.5934868,Bike
Fix,GPS,37.4274750879,-122.1728195622,-0.466450252499719,0.0,14.70118,,1677176843000,20.0,,611640748337000,11.04689,Bike
Fix,FLP,37.4274751,-122.1728179,0.1000000461935997,0.6135652,15.685,319.5533,1677176845391,20.0,,611640748337000,2.6045368,Bike
Fix,GPS,37.4274784991,-122.1728198963,-0.1857552428400719,0.0,18.729551,,1677176844000,0.98892015,,611641748353000,10.893053,Bike
Fix,FLP,37.4274791,-122.1728217,-3.370844965806967,0.602472,16.421,320.11893,1677176846390,0.98892015,,611641748353000,2.6134868,Bike
Fix,GPS,37.4274903403,-122.1728127599,-0.4284791715802625,0.0,14.584759,,1677176845000,0.60815334,,611642748476000,10.73934,Bike
Fix,FLP,37.4274862,-122.1728205,-2.351358597224692,0.6007139,16.115,330.57297,1677176847391,0.60815334,,611642748476000,2.6234868,Bike
Fix,GPS,37.4274796836,-122.172839374,0.2232597151441533,0.0,13.740289,,1677176846000,20.0,,611643748355000,10.544783,Bike
Fix,FLP,37.4274877,-122.172827,-8.108948387212436,0.5746788,15.192,321.53925,1677176848391,20.0,,611643748355000,2.6345267,Bike
Fix,FLP,37.4274293,-122.1728426,-8.108948387212436,0.44854987,14.396,181.30356,1677176849247,,,611644604790487,2.6345267,Bike
Fix,GPS,37.4274781249,-122.1728646926,0.4455496390903919,0.0,13.120754,,1677176847000,20.0,,611644748345000,10.391585,Bike
Fix,NLP,37.4271915,-122.1729929,0.1000000461935997,,28.28,,1677176849485,,,611644842000000,2.3275967,Bike
Fix,FLP,37.4273616,-122.1728716,0.1000000461935997,0.43960315,12.475,180.39172,1677176850332,,,611645689957967,2.317673,Bike
Fix,GPS,37.4274757816,-122.1729009915,-0.0764147969534778,0.0,12.399836,,1677176848000,20.0,,611645748353000,10.02869,Bike
Fix,GPS,37.4274805707,-122.1729121231,-1.3656814895659417,0.0,12.3075485,,1677176849000,20.0,,611646748400000,9.888635,Bike
Fix,FLP,37.4273446,-122.1728853,3.069058477011609,0.30829054,11.113,180.73068,1677176851418,,,611646775123494,2.354021,Bike
Fix,GPS,37.4274751981,-122.172921588,-1.0123906511684273,0.0,12.060869,,1677176850000,20.0,,611647748456000,9.7008,Bike
Fix,FLP,37.4273366,-122.1728947,4.892322483265112,0.005916486,10.58,,1677176852503,,,611647860299581,2.364699,Bike
Fix,FLP,37.4273337,-122.1728995,4.892322483265112,0.014903324,9.589,,1677176853045,,,611648402888204,2.364699,Bike
Fix,GPS,37.4274754755,-122.1729204215,-1.4087358511295072,0.0,11.926917,,1677176851000,20.0,,611648748442000,9.637562,Bike
Fix,FLP,37.427331,-122.1729033,3.771722911137914,0.0136571685,7.824,,1677176854131,,,611649488064779,2.384964,Bike
Fix,GPS,37.4274719571,-122.1729230381,-0.8491941123540268,0.0,11.760337,,1677176852000,20.0,,611649748479000,9.528551,Bike
Fix,NLP,37.4272672,-122.1730076,0.1000000461935997,,20.373,,1677176854548,,,611649905000000,2.0215294,Bike
Fix,FLP,37.4273299,-122.1729042,3.771722911137914,0.008987872,7.687,,1677176854673,,,611650030647787,2.3041525,Bike
Fix,GPS,37.4274617067,-122.1729260069,-1.1005077877664304,0.0,11.43247,,1677176853000,20.0,,611650748497000,9.3687315,Bike
Fix,FLP,37.4273291,-122.1729073,3.4996508588283177,0.026847154,7.274,,1677176855216,,,611650573243916,2.3131526,Bike
Fix,GPS,37.4274307105,-122.1729476535,0.0012579814778671,0.0,10.255621,,1677176854000,20.0,,611651748835000,9.273443,Bike
Fix,FLP,37.4273265,-122.1729106,8.233521692444882,0.034315825,7.045,,1677176856301,,,611651658415853,2.3313699,Bike
Fix,FLP,37.4273225,-122.1729141,8.233521692444882,0.029118093,6.915,,1677176856844,,,611652201002462,2.3313699,Bike
Fix,GPS,37.4274135865,-122.1729497353,0.4709726809094576,0.0,9.464329,,1677176855000,20.0,,611652748508000,9.1217575,Bike
Fix,FLP,37.4273211,-122.1729147,27.78175695975524,0.023193656,6.898,,1677176857386,,,611652743588704,2.346865,Bike
Fix,FLP,37.4273186,-122.1729168,27.78175695975524,0.02524683,6.896,,1677176857924,,,611653281000000,2.346865,Bike
Fix,GPS,37.4273936605,-122.1729431253,-0.7049153669486689,2.648302,9.041727,126.765114,1677176856000,0.51911604,10.311148,611653748541000,9.08175,Bike
Fix,FLP,37.4273169,-122.1729178,10.3895544695822,0.02124504,6.967,,1677176858471,,,611653828758870,2.3513699,Bike
Fix,FLP,37.4273127,-122.1729162,10.3895544695822,0.9231292,6.98,93.65662,1677176859561,,,611654918000000,2.3513699,Bike
Fix,GPS,37.4273680028,-122.1729172772,-0.6288751113606258,3.0828047,8.34809,122.140884,1677176857000,0.4887764,10.0,611654748503000,8.939079,Bike
Fix,NLP,37.4271578,-122.172884,0.1000000461935997,,19.674,,1677176859611,,,611654969000000,2.0130095,Bike
Fix,FLP,37.427305,-122.1729014,8.45176195946928,1.6549001,7.452,96.203575,1677176860099,,,611655456509481,2.252139,Bike
Fix,GPS,37.4273417247,-122.1728854502,0.3997681756522765,3.719024,8.104163,115.26017,1677176858000,0.5129009,10.0,611655748568000,8.797363,Bike
Fix,FLP,37.4272994,-122.1728805,17.937122610366536,2.5000155,8.307,97.73661,1677176861184,,,611656541674520,2.263947,Bike
Fix,GPS,37.42732534,-122.1728392243,0.2848149062689201,4.026635,7.9494286,106.07669,1677176859000,0.4978323,10.0,611656748705000,8.66991,Bike
Fix,FLP,37.4272928,-122.1728538,0.1000000461935997,3.2084517,9.241,100.1139,1677176861727,,,611657084256368,2.2701092,Bike
Fix,GPS,37.4273168984,-122.1727903295,-0.2754188918861561,3.8484147,7.8751154,111.559326,1677176860000,0.44510865,10.0,611657748580000,8.559416,Bike
Fix,FLP,37.4272894,-122.1728466,-3.959995815404607,3.3768141,9.653,102.44772,1677176862269,,,611657626837118,2.1753502,Bike
Fix,GPS,37.4272957933,-122.1727491876,0.1051179797789419,3.5415804,7.877001,127.290054,1677176861000,0.523751,10.0,611658748680000,8.537317,Bike
Fix,FLP,37.4272763,-122.17281,-2.6452081324960446,3.4297752,10.386,111.55352,1677176863354,,,611658711998312,2.18624,Bike
Fix,GPS,37.4272630826,-122.1727161973,-0.5927278144894126,3.5634913,7.6196957,158.08981,1677176862000,0.40832204,10.0,611659748631000,8.532965,Bike
Fix,FLP,37.4272592,-122.172769,-2.5552657073484437,3.4961395,11.232,123.04969,1677176864439,,,611659797157919,2.19635,Bike
Fix,NLP,37.4271269,-122.1728211,0.1000000461935997,,25.043,,1677176864538,,,611659895000000,1.4800686,Bike
Fix,GPS,37.4272251858,-122.1726972962,-0.9632937423166036,3.8184407,7.4072104,162.92548,1677176863000,0.4129023,10.0,611660748606000,8.572389,Bike
Fix,FLP,37.4272363,-122.1727283,-2.0293899877186625,3.586658,12.12,128.49333,1677176865525,,,611660882302877,1.9989729,Bike
Fix,GPS,37.4271673261,-122.1726844274,-2.473238700029772,3.2633271,6.9373617,167.28557,1677176864000,0.39859337,10.0,611661748615000,8.553758,Bike
Fix,FLP,37.4272088,-122.1726981,0.1000000461935997,3.7869396,11.982,139.60425,1677176866067,,,611661424894735,1.9582263,Bike
Fix,GPS,37.4271275041,-122.1726724458,-3.234442065071971,3.0897331,6.3679333,160.59998,1677176865000,0.10495111,10.0,611662748590000,7.776458,Bike
Fix,FLP,37.4271762,-122.1726783,0.1000000461935997,3.6223717,11.25,146.97536,1677176867152,,,611662510050680,1.9481257,Bike
Fix,FLP,37.4271607,-122.172673,0.1000000461935997,3.5043151,11.139,150.06044,1677176867681,,,611663038000000,1.9481257,Bike
Fix,GPS,37.427087991,-122.1726605227,-2.575659077783397,3.305783,6.190938,151.8363,1677176866000,0.3269661,10.0,611663748907000,7.5143204,Bike
Fix,FLP,37.4271377,-122.1726631,2.2135641097346195,3.3238091,10.812,152.71411,1677176868238,,,611663595202230,1.9581357,Bike
Fix,FLP,37.4271076,-122.172647,2.2135641097346195,3.3303893,10.924,152.35144,1677176869323,,,611664680359090,1.9581357,Bike
Fix,GPS,37.4270474811,-122.1726478406,-2.119189130914219,2.6827285,6.051019,150.22772,1677176867000,0.32838073,10.0,611664748744000,7.363285,Bike
Fix,FLP,37.4270741,-122.1726347,0.1000000461935997,3.1234612,10.775,151.9803,1677176869865,,,611665222935201,1.9681257,Bike
Fix,GPS,37.42701319,-122.1726415432,-1.3136394041719062,3.387046,5.9188733,160.64684,1677176868000,0.31351602,10.0,611665748702000,7.257631,Bike
Fix,FLP,37.4270689,-122.1726359,14.243943876601158,3.0215807,10.922,151.18134,1677176870408,,,611665765511678,1.9791358,Bike
Fix,FLP,37.427044,-122.1726281,14.243943876601158,3.1839437,10.983,154.92055,1677176870951,,,611666308087301,1.9791358,Bike
Fix,GPS,37.4269757834,-122.1726336969,-0.874121697270674,4.302941,5.7460804,169.75294,1677176869000,0.32205787,10.0,611666748673000,7.086701,Bike
Fix,FLP,37.4270285,-122.1726265,23.205572857571383,3.2851367,11.09,158.7244,1677176871493,,,611666850663534,1.9891057,Bike
Fix,FLP,37.4269927,-122.172621,23.205572857571383,3.6412847,11.071,163.25217,1677176872036,,,611667393242269,1.9891057,Bike
Fix,GPS,37.4269336453,-122.1726243223,-0.3958815058287028,4.2789097,5.4949527,167.66884,1677176870000,0.35513756,10.0,611667748746000,6.8955283,Bike
Fix,FLP,37.4269603,-122.1726181,21.064205669791768,3.9841828,11.033,165.22014,1677176872578,,,611667935800497,1.9991658,Bike
Fix,GPS,37.4268934628,-122.1726139105,-0.295343518598939,4.6841054,5.3843,167.9953,1677176871000,0.3616596,10.0,611668748673000,6.757839,Bike
Fix,FLP,37.4269302,-122.1726122,13.155895285073868,4.1043415,10.927,165.97202,1677176873121,,,611668478389303,2.0081058,Bike
Fix,FLP,37.4269133,-122.1726103,13.155895285073868,4.2897615,10.763,166.66022,1677176873662,,,611669019000000,2.0081058,Bike
Fix,GPS,37.4268531008,-122.1725983224,-0.1297295532958811,4.595032,5.3052287,163.75099,1677176872000,0.36631736,10.0,611669748767000,6.643593,Bike
Fix,FLP,37.4268822,-122.1726038,21.07752987744345,4.427058,10.384,167.23799,1677176874205,,,611669563539693,2.0181758,Bike
Fix,FLP,37.4268558,-122.1725993,21.07752987744345,4.5048146,10.088,167.05057,1677176874749,,,611670106114217,2.0181758,Bike
Fix,GPS,37.4268172692,-122.1725776922,-0.1891364979035051,4.852233,5.2898736,146.13524,1677176873000,0.37947837,10.0,611670748909000,6.5960374,Bike
Fix,FLP,37.4268333,-122.1725922,11.422475167291095,4.4939685,9.696,165.44194,1677176875290,,,611670648688558,2.0291157,Bike
Fix,FLP,37.4267923,-122.1725642,11.422475167291095,4.5207853,9.185,156.37811,1677176876376,,,611671733836752,2.0291157,Bike
Fix,GPS,37.4267881209,-122.1725384704,-0.5125656382911635,4.8120093,5.171233,134.74599,1677176874000,0.35508293,10.0,611671749019000,6.345718,Bike
Fix,FLP,37.4267662,-122.1725278,20.021395331961397,4.573992,8.763,145.2237,1677176876919,,,611672276411092,2.0391657,Bike
Fix,GPS,37.426760562,-122.1724997324,-0.1979330510512477,4.9293566,5.1474257,129.40932,1677176875000,0.3437629,10.0,611672748767000,6.1968703,Bike
Fix,FLP,37.4267664,-122.1725187,20.021395331961397,4.6635814,8.607,140.71541,1677176877461,,,611672818984579,2.0491157,Bike
Fix,FLP,37.4267426,-122.172485,20.021395331961397,4.7032228,8.643,137.74316,1677176878004,,,611673361558553,2.0491157,Bike
Fix,GPS,37.4267365018,-122.1724558105,-0.7245460243319458,4.8892365,5.117528,126.749664,1677176876000,0.38325527,10.0,611673748811000,6.0888605,Bike
Fix,FLP,37.4267382,-122.1724738,18.02273618666201,4.770973,8.689,136.3669,1677176878547,,,611673904131429,2.0591156,Bike
Fix,FLP,37.4267173,-122.1724345,18.02273618666201,4.8264585,8.768,132.77098,1677176879089,,,611674446705892,2.0591156,Bike
Fix,GPS,37.4267130463,-122.1724107487,-1.032959001345442,4.6059685,5.112165,123.50968,1677176877000,0.33477017,10.0,611674748846000,6.008326,Bike
Fix,FLP,37.4267044,-122.1724021,12.699724578358158,4.7797213,8.663,129.08694,1677176879618,,,611674975797567,2.0681257,Bike
Fix,FLP,37.4266971,-122.1723816,12.699724578358158,4.808789,8.614,126.072464,1677176880174,,,611675531849691,2.0681257,Bike
Fix,GPS,37.426708158,-122.1723568777,-2.0938124174218458,4.5353556,4.6999273,105.11103,1677176878000,0.027979096,10.0,611675748965000,5.5058007,Bike
Fix,FLP,37.4266852,-122.1723314,-2.400930452460948,4.7982597,8.475,118.73246,1677176881219,,,611676577000000,2.0791657,Bike
Fix,GPS,37.4266984471,-122.1723042854,-2.499611458793866,4.524145,4.3518286,103.1615,1677176879000,0.028867785,10.0,611676749177000,5.1989455,Bike
Fix,GPS,37.4266893345,-122.172253162,-2.493718386480915,4.0547137,4.4590936,105.62371,1677176880000,0.29154968,10.0,611677748884000,5.0190353,Bike
Fix,FLP,37.4266748,-122.1722697,0.1000000461935997,4.705166,8.249,112.5834,1677176882345,,,611677702138814,2.0992358,Bike
Fix,FLP,37.4266699,-122.1722113,0.1000000461935997,4.1465406,7.833,107.561005,1677176883430,,,611678787282064,2.0992358,Bike
Fix,GPS,37.4266777004,-122.1722101138,-2.3467130119810498,3.8984456,4.664262,116.97528,1677176881000,0.36724085,10.0,611678748947000,4.9785147,Bike
Fix,FLP,37.4266649,-122.1721838,17.871613530386654,3.8618975,7.428,120.237564,1677176883972,,,611679329837789,2.1088457,Bike
Fix,GPS,37.4266498664,-122.1721883228,-1.1527338195851584,3.7657747,4.4979277,149.84872,1677176882000,0.062133253,10.0,611679748860000,4.9099627,Bike
Fix,FLP,37.4266604,-122.1721802,18.94643609165169,3.8790307,7.326,123.46858,1677176884515,,,611679872424947,2.1191058,Bike
Fix,GPS,37.4266193506,-122.1721816101,-0.9686580061623314,3.3299031,4.400841,173.62022,1677176883000,0.052232504,10.0,611680748922000,4.8687415,Bike
Fix,FLP,37.4266344,-122.1721673,13.4973994572036,3.811683,7.269,152.58786,1677176885057,,,611680414993673,2.1292057,Bike
Fix,GPS,37.4265888364,-122.1721744064,-0.7666017516074565,1.9893004,4.4110684,196.74274,1677176884000,0.3389869,10.660331,611681748933000,4.840159,Bike
Fix,FLP,37.4265997,-122.1721802,9.930462247847103,3.2636523,7.168,188.01149,1677176886143,,,611681500141439,2.1381156,Bike
Fix,GPS,37.4265769836,-122.1721881869,-1.1761426711404035,1.509914,4.219942,209.87903,1677176885000,0.25839093,10.0,611682749067000,4.719845,Bike
Fix,FLP,37.426572,-122.1721942,6.612125661547033,2.0779073,7.15,215.01605,1677176887228,,,611682585287557,2.1481256,Bike
Fix,FLP,37.4265694,-122.1722014,6.612125661547033,1.5924715,7.099,211.91846,1677176887769,,,611683127860799,2.1481256,Bike
Fix,FLP,37.4265617,-122.1722094,6.612125661547033,1.4968332,7.071,187.74756,1677176888313,,,611683670433492,2.1481256,Bike
Fix,GPS,37.4265670686,-122.172199712,-1.7260400441921049,1.6798866,4.198983,203.54643,1677176886000,0.30689144,10.0,611683748919000,4.621372,Bike
Fix,FLP,37.4265578,-122.1722111,6.511342296674755,1.6540042,7.044,192.5682,1677176888855,,,611684213009725,2.1581256,Bike
Fix,GPS,37.4265505608,-122.1722095864,-2.212819024422204,2.025516,4.277337,185.46559,1677176887000,0.40302444,10.0,611684748964000,4.635967,Bike
Fix,FLP,37.4265526,-122.1722124,5.117892434002215,1.6736599,6.944,188.80147,1677176889398,,,611684755579488,2.1691158,Bike
Fix,FLP,37.4265435,-122.172215,5.117892434002215,1.9749259,6.882,187.53204,1677176889944,,,611685301000000,2.1691158,Bike
Fix,GPS,37.4265272106,-122.1722160123,-2.271826558617143,3.31071,4.2984633,185.32645,1677176888000,0.29050538,10.0,611685749218000,4.731466,Bike
Fix,FLP,37.4265329,-122.1722163,14.649501814409568,2.0184207,6.807,182.38037,1677176890483,,,611685840724996,2.1791058,Bike
Fix,GPS,37.426491649,-122.1722265502,-2.013898992690578,3.4857042,4.2979994,184.22484,1677176889000,0.35125232,10.0,611686748973000,4.841807,Bike
Fix,FLP,37.4265101,-122.1722194,19.345558958597067,3.0917637,6.816,176.41928,1677176891568,,,611686925869466,2.1891057,Bike
Fix,GPS,37.4264564084,-122.1722311515,-2.3509657845799627,3.2428553,4.7393913,179.30333,1677176890000,0.4422668,10.0,611687749247000,4.983489,Bike
Fix,FLP,37.426482,-122.1722264,19.345558958597067,3.4410172,6.848,182.30194,1677176892110,,,611687468441793,2.1991057,Bike
Fix,FLP,37.4264589,-122.1722336,19.345558958597067,3.2694123,6.939,181.86171,1677176892618,,,611687975797567,2.1991057,Bike
Fix,GPS,37.4264191622,-122.1722346231,-1.4753605910424528,3.289975,4.5614147,191.78401,1677176891000,0.34711725,10.0,611688749170000,5.105489,Bike
Fix,FLP,37.4264452,-122.1722358,18.69488052601384,3.2428353,7.043,176.95068,1677176893196,,,611688553586996,2.2091157,Bike
Fix,FLP,37.4264206,-122.172243,18.69488052601384,3.2569366,7.135,189.54376,1677176893739,,,611689096157064,2.2091157,Bike
Fix,GPS,37.426383746,-122.1722434985,-0.5673420957784296,3.2316551,4.6886272,198.07384,1677176892000,0.360122,10.0,611689749015000,5.238114,Bike
Fix,FLP,37.42641,-122.1722495,15.88319348600976,3.2516477,7.225,197.79356,1677176894281,,,611689638728719,2.2192059,Bike
Fix,GPS,37.4263527547,-122.1722570371,-0.4978541327642256,3.6377115,4.8560348,200.00127,1677176893000,0.3585258,10.0,611690749019000,5.414659,Bike
Fix,FLP,37.4263716,-122.1722648,13.330997649904084,3.2330039,7.459,203.78186,1677176895365,,,611690723870321,2.2292058,Bike
Fix,GPS,37.4263194379,-122.1722738886,-0.5245295460200764,4.2476377,4.980663,205.0749,1677176894000,0.33651075,10.0,611691749044000,5.5035825,Bike
Fix,FLP,37.4263319,-122.1722813,8.647490551790078,3.5826693,7.86,203.81548,1677176896452,,,611691809010641,2.2391057,Bike
Fix,FLP,37.426289,-122.1723024,8.647490551790078,4.1199703,7.962,207.84877,1677176897539,,,611692896000000,2.2391057,Bike
Fix,GPS,37.4262815777,-122.1722963904,-0.0100625174152279,4.523805,5.1457777,210.38406,1677176895000,0.36804688,10.0,611692749220000,5.646501,Bike
Fix,FLP,37.4262504,-122.1723218,8.647490551790078,4.407657,8.038,216.32977,1677176898079,,,611693436719381,2.2491357,Bike
Fix,GPS,37.4262417091,-122.1723227662,2.178531146826162,4.3469086,5.1368227,214.14203,1677176896000,0.301864,10.0,611693749076000,5.6506057,Bike
Fix,FLP,37.4262154,-122.1723417,18.525814800164937,4.4217877,8.131,206.6549,1677176899164,,,611694521857443,2.2592556,Bike
Fix,NLP,37.4261053,-122.1722656,0.4000000059604645,,23.728,,1677176899396,,,611694753000000,4.023417,Bike
Fix,GPS,37.4262093399,-122.1723515468,2.065139666510842,3.616121,5.2352953,211.74658,1677176897000,0.37060925,10.0,611694749121000,5.786419,Bike
Fix,FLP,37.4261949,-122.1723498,-1.5576582763037905,3.8293192,8.125,205.61626,1677176899707,,,611695064431966,2.5462685,Bike
Fix,GPS,37.4261798173,-122.1723709887,2.404253340878173,2.3949564,5.3595924,207.85193,1677176898000,0.32098278,10.0,611695749261000,5.7861857,Bike
Fix,FLP,37.4261741,-122.172362,0.4000000059604645,3.673928,8.048,202.04549,1677176900248,,,611695606994466,3.6573386,Bike
Fix,FLP,37.4261605,-122.1723688,0.4000000059604645,2.610869,7.952,201.64735,1677176900792,,,611696149563131,3.6573386,Bike
Fix,FLP,37.4261454,-122.1723751,0.4000000059604645,2.428191,7.964,192.27748,1677176901335,,,611696692131246,3.6573386,Bike
Fix,GPS,37.4261621183,-122.1723789419,1.6759780483305693,1.8119218,5.4531536,189.40977,1677176899000,0.41029087,13.576243,611696749212000,5.9020386,Bike
Fix,FLP,37.4261281,-122.1723797,0.4000000059604645,1.8446621,7.939,168.89499,1677176902419,,,611697777267355,2.4288266,Bike
Fix,GPS,37.4261404253,-122.1723717808,0.892236547904157,1.807929,5.339105,151.2133,1677176900000,0.43966246,14.505968,611697749164000,5.815236,Bike
Fix,FLP,37.4261106,-122.1723646,21.24562168535909,1.7923119,7.934,138.88487,1677176903504,,,611698862402975,2.1167424,Bike
Fix,GPS,37.4261241344,-122.1723480411,0.5602844053313364,3.0007138,5.356324,118.991035,1677176901000,0.39057732,10.0,611698749313000,5.7781987,Bike
Fix,FLP,37.4261008,-122.1723401,21.24562168535909,2.858229,8.031,114.87525,1677176904047,,,611699404970846,2.1177523,Bike
Fix,GPS,37.4261005482,-122.1722965401,2.603507967317935,3.6885338,5.1724086,112.185455,1677176902000,0.38987413,10.0,611699749444000,5.6686482,Bike
Fix,FLP,37.4260863,-122.1722896,19.283563028020225,3.6201725,8.265,107.1918,1677176905132,,,611700490105855,2.1277323,Bike
Fix,GPS,37.4260801892,-122.172231459,4.658432354894365,4.5419855,4.976865,112.75753,1677176903000,0.2649011,10.0,611700749456000,5.454511,Bike
Fix,FLP,37.4260678,-122.1722223,19.283563028020225,4.4390373,8.411,105.53108,1677176906218,,,611701575237386,2.1377723,Bike
Fix,GPS,37.4260634609,-122.1721730085,5.065752505272814,4.340128,5.614667,113.38978,1677176904000,0.3432716,10.0,611701749214000,5.2761517,Bike
Fix,FLP,37.4260541,-122.1721674,19.51669058125004,4.3690424,8.509,107.714745,1677176906759,,,611702117807089,2.1478324,Bike
Fix,GPS,37.4260479319,-122.1721170415,4.484918354482784,4.5742235,4.7797256,107.92063,1677176905000,0.28812334,10.0,611702749245000,5.21127,Bike
Fix,FLP,37.4260485,-122.172145,19.51669058125004,4.371553,8.635,106.51338,1677176907303,,,611702660374532,2.1578424,Bike
Fix,FLP,37.4260392,-122.1721107,19.51669058125004,4.548608,8.677,106.59275,1677176907845,,,611703202943136,2.1578424,Bike
Fix,GPS,37.4260254693,-122.172055288,4.176110749971473,5.194907,4.5525155,105.42119,1677176906000,0.2579365,10.0,611703749230000,5.0411725,Bike
Fix,FLP,37.4260318,-122.1720818,17.37625752785857,4.583384,8.621,106.54484,1677176908388,,,611703745507650,2.1677225,Bike
Fix,GPS,37.4260106659,-122.1719900707,3.813417024919814,5.583838,4.396693,103.76288,1677176907000,0.24971335,10.0,611704749477000,4.926599,Bike
Fix,FLP,37.4260138,-122.1720178,14.796982252374184,5.0887327,8.266,107.64853,1677176909473,,,611704830646383,2.1779125,Bike
Fix,GPS,37.4259975153,-122.1719245729,3.238699572982908,5.4157515,4.4367476,105.20482,1677176908000,0.3004643,10.0,611705749200000,4.891509,Bike
Fix,FLP,37.4259985,-122.1719302,18.47509574175645,5.415989,7.511,104.9547,1677176910391,0.3004643,10.0,611705749200000,2.1867323,Bike
Fix,GPS,37.425985934,-122.171863185,2.507058085496744,5.2316265,4.5597672,105.972244,1677176909000,0.3434947,10.0,611706749321000,4.9603825,Bike
Fix,FLP,37.4259859,-122.1718657,20.154109503472093,5.2334065,6.897,105.01217,1677176911391,0.3434947,10.0,611706749321000,2.1977224,Bike
Fix,GPS,37.4259731421,-122.1718001083,2.297012276307297,4.968909,4.5371695,107.4387,1677176910000,0.30480534,10.0,611707749284000,4.9498596,Bike
Fix,FLP,37.4259733,-122.1718028,14.032979511265104,4.9701076,6.166,106.95968,1677176912391,0.30480534,10.0,611707749284000,2.2077224,Bike
Fix,GPS,37.4259600497,-122.1717293091,4.1603700609599645,5.566993,4.2925644,105.87269,1677176911000,0.07057497,10.0,611708749287000,4.7007723,Bike
Fix,FLP,37.4259601,-122.1717356,10.114198505746453,5.5651674,5.411,105.00901,1677176913392,0.07057497,10.0,611708749287000,2.2177224,Bike
Fix,GPS,37.4259474859,-122.1716696264,3.838913820036092,5.1665297,4.063805,102.234695,1677176912000,0.033796947,10.0,611709749277000,4.5733,Bike
Fix,FLP,37.4259474,-122.1716712,0.1000000461935997,5.1697345,4.847,102.13653,1677176914392,0.033796947,10.0,611709749277000,2.2277224,Bike
Fix,GPS,37.4259376707,-122.1716150882,3.2260029357037765,5.1856174,4.2085276,104.03207,1677176913000,0.028145904,10.0,611710749385000,4.405555,Bike
Fix,FLP,37.4259377,-122.1716147,-4.809159226977364,5.1842675,4.332,103.93764,1677176915392,0.028145904,10.0,611710749385000,2.2377224,Bike
Fix,GPS,37.4259233141,-122.17155734,3.114461252587362,5.113049,3.7971117,107.061935,1677176914000,0.0240098,10.0,611711749368000,4.2488785,Bike
Fix,FLP,37.4259243,-122.1715574,-4.53579732738697,5.1112156,4.18,106.9147,1677176916392,0.0240098,10.0,611711749368000,2.194477,Bike
Fix,GPS,37.4259087007,-122.1715025945,2.550886309713437,5.0410876,3.81529,109.52821,1677176915000,0.027069023,10.0,611712749355000,4.120622,Bike
Fix,FLP,37.4259094,-122.1715024,-2.410116117246904,5.0400352,4.052,108.94814,1677176917392,0.027069023,10.0,611712749355000,2.205487,Bike
Fix,GPS,37.4258944774,-122.1714504856,2.432319465482232,4.8593173,3.681766,110.27925,1677176916000,0.021811279,10.0,611713749355000,4.0019536,Bike
Fix,FLP,37.4258948,-122.1714496,0.4000000059604645,5.1548996,4.463,109.71243,1677176918392,,,611713749355000,2.214597,Bike
Fix,FLP,37.4258805,-122.1714256,0.4000000059604645,4.969883,4.959,156.31876,1677176918941,,,611714298418355,2.214597,Bike
Fix,GPS,37.4258791701,-122.1713953907,2.3629581608318184,5.17827,4.2077656,108.70777,1677176917000,0.07113617,10.0,611714749541000,3.8797228,Bike
Fix,FLP,37.42588,-122.1714092,2.6599514232292805,5.357447,4.98,113.873436,1677176919392,0.07113617,10.0,611714749541000,2.225477,Bike
Fix,GPS,37.4258638915,-122.1713398594,2.2153473876034484,5.2301426,4.207576,106.70383,1677176918000,0.35130852,10.0,611715749446000,3.9408693,Bike
Fix,FLP,37.4258628,-122.1713446,3.665329071306914,5.23616,4.98,106.269295,1677176920392,0.35130852,10.0,611715749446000,2.235487,Bike
Fix,GPS,37.4258495306,-122.1712806143,1.9900870650600135,5.4692993,6.5376277,105.63501,1677176919000,0.3528871,10.0,611716749439000,4.019904,Bike
Fix,FLP,37.4258496,-122.1712838,3.156488715047004,5.4677567,5.371,105.02578,1677176921392,0.3528871,10.0,611716749439000,2.244487,Bike
Fix,GPS,37.4258375614,-122.1712139279,1.9014089491775656,5.356282,6.5370703,103.84722,1677176920000,0.04481572,10.0,611717749386000,3.8936563,Bike
Fix,FLP,37.4258373,-122.1712181,-3.359584982269766,5.358183,5.748,103.08098,1677176922391,0.04481572,10.0,611717749386000,2.255507,Bike
Fix,GPS,37.4258264,-122.1711540787,1.6906413684112782,5.2543645,4.7698536,101.07888,1677176921000,0.31040522,10.0,611718749599000,3.975608,Bike
Fix,FLP,37.4258264,-122.1711555,-2.180653658060514,5.256184,5.523,101.08095,1677176923392,0.31040522,10.0,611718749599000,2.265477,Bike
Fix,GPS,37.4258152857,-122.1710986708,1.595142985636485,5.1220074,6.5359507,104.42047,1677176922000,0.042554427,10.0,611719749457000,3.874788,Bike
Fix,FLP,37.4258162,-122.171098,0.4000000059604645,5.1206007,5.466,103.91653,1677176924392,0.042554427,10.0,611719749457000,2.275487,Bike
Fix,GPS,37.4258040563,-122.1710446991,1.5328631778842978,4.765062,6.53539,103.649124,1677176923000,0.04120789,10.0,611720749509000,3.7742233,Bike
Fix,FLP,37.4258051,-122.1710427,0.4000000059604645,4.9016347,7.101,103.198944,1677176925392,,,611720749509000,2.285487,Bike
Fix,FLP,37.4258004,-122.1710254,0.4000000059604645,3.1967506,7.771,244.22797,1677176925936,,,611721293007650,2.285487,Bike
Fix,GPS,37.425794957,-122.1709934686,1.4317279823788054,4.506861,6.534828,102.86086,1677176924000,0.41269836,10.0,611721749464000,3.8709362,Bike
Fix,FLP,37.4257977,-122.1710397,0.4000000059604645,4.305131,9.105,249.18495,1677176926478,,,611721835571126,2.294487,Bike
Fix,GPS,37.4257898252,-122.1709506085,1.3692509213183086,3.964606,4.279341,99.085464,1677176925000,0.029079918,10.0,611722749666000,3.7841983,Bike
Fix,FLP,37.4257842,-122.1710153,2.1726470945672745,3.7358303,9.848,108.28972,1677176927563,,,611722920704000,2.305547,Bike
Fix,GPS,37.4257845675,-122.1709085146,1.3900765876776942,2.896812,4.8177414,96.37289,1677176926000,0.26241228,10.0,611723749546000,3.8946974,Bike
Fix,FLP,37.425783,-122.1709381,3.208649835051837,3.96179,9.474,102.402596,1677176928106,,,611723463270040,2.315487,Bike
Fix,FLP,37.425781,-122.1709106,3.208649835051837,3.063567,9.867,98.75381,1677176928648,,,611724005836019,2.315487,Bike
Fix,GPS,37.4257799885,-122.1708730566,1.0586553357352846,3.0942945,5.034447,94.05017,1677176927000,0.3604582,10.0,611724749555000,3.9914439,Bike
Fix,FLP,37.4257797,-122.170887,8.200730836345876,2.9263732,10.036,93.03647,1677176929191,,,611724548399557,2.325487,Bike
Fix,FLP,37.4257788,-122.1708694,8.200730836345876,3.0675445,9.853,93.656815,1677176929732,,,611725090967855,2.325487,Bike
Fix,FLP,37.4257771,-122.1708434,8.200730836345876,3.087205,9.558,97.46796,1677176930276,,,611725633533285,2.325487,Bike
Fix,GPS,37.4257753135,-122.1708354922,0.9550856654252666,4.094174,5.319601,99.64651,1677176928000,0.2956061,10.0,611725749563000,4.1200852,Bike
Fix,FLP,37.4257739,-122.170821,15.151276232366143,3.9328628,9.457,97.74777,1677176930819,,,611726176098775,2.334507,Bike
Fix,FLP,37.425771,-122.1707983,15.151276232366143,4.068987,8.711,97.52382,1677176931361,,,611726718663900,2.334507,Bike
Fix,GPS,37.4257656563,-122.1707796154,0.7334876281332976,5.3766866,5.2493725,106.05207,1677176929000,0.2905071,10.0,611726749515000,4.1847157,Bike
Fix,FLP,37.4257634,-122.1707566,18.240876770794397,5.1193647,8.804,101.85187,1677176931903,,,611727261229330,2.345537,Bike
Fix,GPS,37.4257510114,-122.1707185107,0.4671275304784388,5.402503,5.2059927,105.85882,1677176930000,0.3734464,10.0,611727749604000,4.304841,Bike
Fix,FLP,37.4257552,-122.1707305,18.124586538842287,5.393691,8.504,104.84985,1677176932391,0.3734464,10.0,611727749604000,2.355487,Bike
Fix,GPS,37.4257384887,-122.1706530385,0.8985124894320241,5.905746,5.3721437,102.04416,1677176931000,0.3121067,10.0,611728749582000,4.391755,Bike
Fix,FLP,37.42574,-122.1706596,15.56302116412995,5.9037333,8.108,102.078354,1677176933392,0.3121067,10.0,611728749582000,2.364507,Bike
Fix,GPS,37.4257272943,-122.1705870658,1.31102239724281,5.945518,5.28594,103.51079,1677176932000,0.3008193,10.0,611729749601000,4.4524665,Bike
Fix,FLP,37.4257278,-122.1705895,14.323238007305214,5.944416,7.924,102.958984,1677176934392,0.3008193,10.0,611729749601000,2.375477,Bike
Fix,GPS,37.4257149346,-122.1705211188,1.2170646478249518,5.99086,5.3308372,100.9275,1677176933000,0.28527164,10.0,611730749634000,4.489715,Bike
Fix,FLP,37.4257152,-122.170522,10.465761780874956,5.9927115,7.471,100.13055,1677176935392,0.28527164,10.0,611730749634000,2.385487,Bike
Fix,GPS,37.4257067201,-122.1704552499,-0.1772536392186884,5.957646,4.830655,101.37075,1677176934000,0.02701172,10.0,611731749688000,4.1925125,Bike
Fix,FLP,37.4257064,-122.1704552,3.779886300139808,5.9569964,6.353,100.96288,1677176936392,0.02701172,10.0,611731749688000,2.395487,Bike
Fix,GPS,37.4256945678,-122.1703931561,-0.3095290986226426,5.80772,4.497607,103.41172,1677176935000,0.025740914,10.0,611732749640000,4.071549,Bike
Fix,FLP,37.4256951,-122.1703918,0.4000000059604645,5.806562,5.063,102.929436,1677176937392,0.025740914,10.0,611732749640000,2.405477,Bike
Fix,GPS,37.4256843899,-122.1703311395,-0.5861808971459452,5.751251,4.236021,102.27843,1677176936000,0.026167948,10.0,611733749646000,3.9663763,Bike
Fix,FLP,37.4256841,-122.17033,0.4000000059604645,5.7522097,4.836,102.04147,1677176938391,0.026167948,10.0,611733749646000,2.415517,Bike
Fix,NLP,37.426084,-122.1726537,,,899.999,,1677176933509,,,611728866000000,,Bike
Fix,GPS,37.425677129,-122.1702661898,-0.8191662224630041,5.6729717,3.7969759,94.26809,1677176937000,0.05599072,10.0,611734749668000,3.8580868,Bike
Fix,FLP,37.4256731,-122.1702385,0.4000000059604645,5.673281,4.538,94.04528,1677176939392,0.05599072,10.0,611734749668000,2.425587,Bike
Fix,GPS,37.4256710276,-122.1701956704,-0.6894454183631764,5.404368,4.3117213,83.580086,1677176938000,0.28957155,10.0,611735749632000,3.969808,Bike
Fix,FLP,37.4256707,-122.1701893,0.4000000059604645,5.400874,4.5,83.4328,1677176940392,0.28957155,10.0,611735749632000,2.435487,Bike
Fix,GPS,37.4256757886,-122.1701311264,-0.6628774255643032,5.1874537,4.6164083,86.27289,1677176939000,0.32600778,10.0,611736749931000,4.023672,Bike
Fix,FLP,37.4256759,-122.1701303,0.4000000059604645,5.1890984,4.291,85.89875,1677176941392,0.32600778,10.0,611736749931000,2.445487,Bike
Fix,GPS,37.4256691611,-122.1700686887,-0.8549439920289561,5.3496284,4.2827215,96.266396,1677176940000,0.02701514,10.0,611737749698000,3.892443,Bike
Fix,FLP,37.4256723,-122.1700696,0.4000000059604645,5.3460326,4.248,95.62912,1677176942392,0.02701514,10.0,611737749698000,2.455507,Bike
Fix,GPS,37.425658277,-122.1700064268,-0.885704295323239,5.2743216,3.9988313,102.30126,1677176941000,0.03189837,10.0,611738749867000,3.7900736,Bike
Fix,FLP,37.4256611,-122.1700073,0.4000000059604645,5.2705235,4.201,101.78872,1677176943392,0.03189837,10.0,611738749867000,2.465497,Bike
Fix,GPS,37.4256463765,-122.1699482622,-0.9765551535433994,5.187104,3.8032742,104.800896,1677176942000,0.038040645,10.0,611739749728000,3.69648,Bike
Fix,FLP,37.425648,-122.1699485,0.4000000059604645,5.1860137,4.222,103.93791,1677176944392,0.038040645,10.0,611739749728000,2.475477,Bike
Fix,GPS,37.4256346538,-122.1698962982,-1.0636238879639752,5.108624,3.7530274,107.731285,1677176943000,0.03191828,1.0,611740749762000,3.6021965,Bike
Fix,FLP,37.4256353,-122.1698947,0.4000000059604645,5.108611,4.139,106.999084,1677176945391,0.03191828,1.0,611740749762000,2.485477,Bike
Fix,GPS,37.4256179446,-122.1698418169,-1.3113048027686174,5.0301948,3.7769458,108.374176,1677176944000,0.03533435,1.0,611741749882000,3.524728,Bike
Fix,FLP,37.4256192,-122.169841,0.4000000059604645,5.030197,4.099,107.99974,1677176946392,0.03533435,1.0,611741749882000,2.495477,Bike
Fix,GPS,37.425601346,-122.1697876503,-1.6895489796629095,4.929698,3.8134708,108.6203,1677176945000,0.026782507,1.0,611742749805000,3.4450283,Bike
Fix,FLP,37.4256026,-122.1697874,0.4000000059604645,4.929707,3.919,108.00009,1677176947392,0.026782507,1.0,611742749805000,2.504487,Bike
Fix,GPS,37.4255900884,-122.1697370914,-2.124524414942184,4.929742,3.7969306,104.30229,1677176946000,0.023066988,1.0,611743749766000,3.362239,Bike
Fix,FLP,37.4255914,-122.1697447,0.4000000059604645,4.9297986,3.914,104.00314,1677176948392,0.023066988,1.0,611743749766000,2.515487,Bike
Fix,GPS,37.4255793033,-122.1696819843,-2.0859695767970994,4.6202493,3.985345,102.70479,1677176947000,0.3941403,4.8441076,611744749782000,3.449679,Bike
Fix,FLP,37.4255828,-122.1696999,4.87592969578975,4.635046,3.912,102.10056,1677176949392,0.3941403,4.8441076,611744749782000,2.524497,Bike
Fix,GPS,37.4255692437,-122.1696289078,-2.4422163966223143,4.303029,4.762763,107.33077,1677176948000,0.45064533,5.6826544,611745749885000,3.6326814,Bike
Fix,FLP,37.4255743,-122.1696543,4.891274289106057,4.4803567,4.024,104.14069,1677176950391,0.45064533,5.6826544,611745749885000,2.535677,Bike
Fix,GPS,37.4255570763,-122.1695799766,-2.3973346450422715,4.606029,5.146137,113.78357,1677176949000,0.3856108,4.7344728,611746750067000,3.8870823,Bike
Fix,FLP,37.4255598,-122.1695893,0.4000000059604645,4.6048503,4.162,112.940506,1677176951393,0.3856108,4.7344728,611746750067000,2.544487,Bike
Fix,GPS,37.4255418777,-122.1695334956,-2.3566912744121136,3.5867896,5.4326496,110.55737,1677176950000,0.37904155,6.0055304,611747749862000,4.166636,Bike
Fix,FLP,37.4255425,-122.1695363,0.4000000059604645,3.593678,4.333,110.02489,1677176952392,0.37904155,6.0055304,611747749862000,2.554487,Bike
Fix,GPS,37.4255327025,-122.1695029042,-2.531766215732382,2.32163,5.438878,109.10752,1677176951000,0.40025753,9.067833,611748749817000,4.4331446,Bike
Fix,FLP,37.4255366,-122.169512,0.4000000059604645,3.2823987,5.064,40.58158,1677176953462,,,611748819084127,2.564477,Bike
Fix,NLP,37.4253438,-122.1694898,-1.1999999284744265,,65.962,,1677176953337,,,611748694000000,1.0771344,Bike
Fix,GPS,37.4255300019,-122.1694885461,-2.509820479881397,0.91055053,5.4937696,109.10752,1677176952000,0.3680484,30.090569,611749749840000,4.6494966,Bike
Fix,FLP,37.4255404,-122.1694908,3.1027937806514743,0.90856266,5.931,107.25762,1677176954392,0.3680484,30.090569,611749749840000,1.5985096,Bike
Fix,GPS,37.4255318046,-122.1694858269,-2.0975554160340053,0.702565,5.358197,109.10752,1677176953000,0.28907987,22.342003,611750749952000,4.7489476,Bike
Fix,FLP,37.4255339,-122.1694842,0.4000000059604645,0.70336753,6.294,108.99142,1677176955391,0.28907987,22.342003,611750749952000,1.5611851,Bike
Fix,GPS,37.4255361926,-122.1694805137,-2.515702119478709,0.3795306,5.459509,109.10752,1677176954000,0.29918328,43.541523,611751750066000,4.8557386,Bike
Fix,FLP,37.4255347,-122.1694792,0.4000000059604645,0.38089037,6.504,108.995995,1677176956393,0.29918328,43.541523,611751750066000,1.5038214,Bike
Fix,GPS,37.4255332705,-122.1694760781,-2.3102489029186786,0.54486185,5.741289,109.10752,1677176955000,0.2913115,54.159847,611752749953000,4.964596,Bike
Fix,FLP,37.4255334,-122.1694757,-1.1999999284744265,0.5439322,6.782,108.964455,1677176957392,0.2913115,54.159847,611752749953000,1.5070783,Bike
Fix,FLP,37.4255322,-122.1694758,-1.1999999284744265,0.53942233,6.618,134.60341,1677176957802,,,611753159576497,1.5070783,Bike
Fix,NLP,37.425789,-122.169265,-1.6999999284744265,,33.817,,1677176958381,,,611753738000000,1.4537904,Bike
Fix,FLP,37.425531,-122.1694756,-1.6999999284744265,0.54232657,6.101,140.1156,1677176958345,,,611753702151449,1.1517392,Bike
Fix,GPS,37.4255269072,-122.1694657152,-2.86662866476366,0.78029937,5.6848526,109.10752,1677176956000,0.29073498,55.75064,611753749928000,5.0662227,Bike
Fix,FLP,37.4255316,-122.1694727,-1.6999999284744265,0.75315785,5.603,143.99403,1677176958887,,,611754244714925,1.1528492,Bike
Fix,GPS,37.4255162024,-122.1694545367,-3.044495790238752,0.67998135,5.822496,109.10752,1677176957000,0.30461136,60.75263,611754750111000,5.1573925,Bike
Fix,FLP,37.4255321,-122.1694705,16.32354436451984,0.75966173,5.667,152.70317,1677176959430,,,611754787278707,1.1226052,Bike
Fix,GPS,37.4255069725,-122.1694541386,-2.9347235248000203,1.1058381,5.8157163,196.76651,1677176958000,0.31392798,16.396685,611755750147000,5.2549644,Bike
Fix,FLP,37.4255293,-122.1694681,17.196500414217233,0.6786618,5.739,174.0274,1677176959972,,,611755329837422,1.162422,Bike
Fix,GPS,37.4254892582,-122.1694580768,-2.431013007753144,1.185038,5.673418,213.92133,1677176959000,0.3038049,14.312508,611756749959000,5.304879,Bike
Fix,FLP,37.4255255,-122.1694688,14.719261640931329,1.0684686,5.779,197.19153,1677176961057,,,611756414965413,1.1453071,Bike
Fix,FLP,37.4255207,-122.1694704,14.719261640931329,1.164819,5.862,183.86732,1677176961600,,,611756957531576,1.1453071,Bike
Fix,GPS,37.4254775041,-122.1694631503,-2.0445214522353274,1.0846688,5.7655325,215.27402,1677176960000,0.3387128,17.610376,611757750002000,5.3742714,Bike
Fix,FLP,37.4255194,-122.1694704,8.854849699797263,1.1781416,5.928,179.91606,1677176962143,,,611757500094808,1.151672,Bike
Fix,GPS,37.4254635453,-122.169471348,-1.2947489479409755,0.8014621,5.9299726,215.27402,1677176961000,0.34307313,14.633629,611758750038000,5.4440603,Bike
Fix,FLP,37.425513,-122.1694699,9.144544385304272,1.0901518,6.122,185.86186,1677176963228,,,611758585221273,1.161672,Bike
Fix,NLP,37.4253584,-122.1694674,-1.600000023841858,,25.506,,1677176963435,,,611758792000000,1.5061619,Bike
Fix,GPS,37.4254529115,-122.1694794318,-0.7886084148413256,1.1301078,5.9111266,206.11162,1677176962000,0.3073109,14.555616,611759750036000,5.471473,Bike
Fix,FLP,37.425504,-122.1694717,7.192048020513283,1.0906076,6.403,186.0754,1677176964313,,,611759670347555,2.352246,Bike
Fix,GPS,37.425444276,-122.1694865926,-0.3541093945158767,1.2174277,5.5384336,208.8784,1677176963000,0.26543942,11.908801,611760750066000,5.381396,Bike
Fix,FLP,37.425496,-122.1694756,2.581181994776287,1.1251026,6.569,202.30644,1677176965398,,,611760755473470,2.3137162,Bike
Fix,GPS,37.4254354721,-122.1694923166,-0.1684795321573229,0.98852223,5.5202613,208.8784,1677176964000,0.27738854,6.113759,611761750280000,5.347133,Bike
Fix,FLP,37.4254883,-122.16948,-5.614024022322738,1.2093537,6.856,202.97728,1677176966483,,,611761840599447,2.288764,Bike
Fix,GPS,37.425426888,-122.1694946517,0.2344455738758057,1.1971705,5.608242,201.36993,1677176965000,0.30705082,14.117754,611762750211000,5.373148,Bike
Fix,FLP,37.4254826,-122.1694834,-11.392112818788789,1.0018717,7.138,198.41931,1677176967026,,,611762383161947,2.29385,Bike
Fix,FLP,37.4254796,-122.1694842,-11.392112818788789,1.1471891,7.232,195.58116,1677176967568,,,611762925724447,2.29385,Bike
Fix,GPS,37.4254076331,-122.1695015716,0.3418488836955078,1.4247812,5.8637533,202.34352,1677176966000,0.33517477,13.28143,611763750113000,5.481828,Bike
Fix,FLP,37.4254749,-122.1694861,2.581181994776287,1.188367,7.399,191.31508,1677176968111,,,611763468286886,2.30386,Bike
Fix,NLP,37.4252593,-122.1694647,-1.3000000715255735,,27.372,,1677176968487,,,611763844000000,1.4945484,Bike
Fix,GPS,37.4253883492,-122.1695093157,0.1655718847359064,1.6350269,6.101548,208.60352,1677176967000,0.36932555,12.886411,611764750118000,5.572903,Bike
Fix,FLP,37.4254616,-122.1694865,0.7109992132039267,1.217101,7.783,190.70479,1677176969196,,,611764553410970,3.1755977,Bike
Fix,GPS,37.425376203,-122.16951754,-0.2029137249094218,1.3837136,6.282487,201.01024,1677176968000,0.355434,14.951928,611765750063000,5.687662,Bike
Fix,FLP,37.4254502,-122.1694871,8.955626007840763,1.6094382,7.909,186.39542,1677176970281,,,611765638534505,3.1855776,Bike
Fix,GPS,37.4253633048,-122.1695233902,-0.6090665598500831,1.0067971,6.40061,198.70284,1677176969000,0.37245288,21.70319,611766750286000,5.8087845,Bike
Fix,FLP,37.4254418,-122.1694874,11.804406195896227,1.3960679,8.189,168.67607,1677176971366,,,611766723657552,2.2388551,Bike
Fix,GPS,37.4253525515,-122.1695290059,-0.4804372898300643,0.96157354,6.313767,198.70284,1677176970000,0.341532,10.692118,611767750128000,5.8437943,Bike
Fix,FLP,37.4254366,-122.1694858,-7.1499839989966745,1.0358979,8.284,173.95015,1677176972451,,,611767808779134,3.3008616,Bike
Fix,GPS,37.425340667,-122.1695305685,0.3681704647873602,1.0189669,6.2685213,201.94835,1677176971000,0.3534645,19.161167,611768750174000,5.8738046,Bike
Fix,FLP,37.4254338,-122.169487,-6.536706786274227,0.9637235,8.643,187.62764,1677176972994,,,611768351339925,3.3108716,Bike
Fix,NLP,37.4252729,-122.1694815,-1.3000000715255735,,17.949,,1677176973475,,,611768833000000,1.1333258,Bike
Fix,GPS,37.4253278743,-122.1695335728,1.2566139187510683,1.1389418,6.199314,199.25957,1677176972000,0.33229005,15.544672,611769750204000,5.9030566,Bike
Fix,FLP,37.4254197,-122.1694905,-9.47291890888875,1.0043463,8.985,187.7241,1677176974079,,,611769436460775,1.8210179,Bike
Fix,GPS,37.4253051719,-122.1695345386,1.5684192313722014,1.1281056,6.192191,192.80096,1677176973000,0.34427345,17.643534,611770750294000,6.0216727,Bike
Fix,FLP,37.4254075,-122.1694934,-6.536706786274227,1.138437,9.079,175.69205,1677176975164,,,611770521581380,3.254124,Bike
Fix,GPS,37.425284556,-122.1695356332,1.0849738103889628,1.1208236,6.0049367,191.31828,1677176974000,0.3476433,18.717857,611771750232000,6.081057,Bike
Fix,FLP,37.4253991,-122.1694949,-6.092141669890211,1.128637,9.095,165.69507,1677176976249,,,611771606700704,1.8992894,Bike
Fix,GPS,37.4252705334,-122.1695375056,0.2413036969168845,1.2022986,5.9601583,208.73192,1677176975000,0.33998466,16.147844,611772750229000,6.126039,Bike
Fix,FLP,37.4253927,-122.169497,3.001689445694602,1.1155838,9.083,185.93306,1677176977334,,,611772691819601,1.9990867,Bike
Fix,FLP,37.4253844,-122.1695018,3.001689445694602,1.1930271,9.077,181.34517,1677176978381,,,611773738000000,1.9990867,Bike
Fix,GPS,37.4252493753,-122.1695409965,-0.1367606826183455,1.3163315,5.838132,195.01999,1677176976000,0.30429077,13.446808,611773750243000,6.122939,Bike
Fix,NLP,37.4251271,-122.1693276,-0.5000001192092896,,53.44,,1677176978534,,,611773891000000,1.3014375,Bike
Fix,FLP,37.4253753,-122.1695055,-0.5000001192092896,1.3032206,9.198,168.54161,1677176978962,,,611774319486654,1.506,Bike
Fix,GPS,37.4252194553,-122.1695414,-0.6824589020969066,1.8597618,5.663878,180.33813,1677176977000,0.2992691,10.019394,611774750240000,6.0578055,Bike
Fix,FLP,37.4253735,-122.1695059,-13.82120468894167,1.3124807,9.228,162.89557,1677176979505,,,611774862058126,1.8145486,Bike
Fix,FLP,37.4253573,-122.1695046,-13.82120468894167,1.7749442,9.551,150.26416,1677176980047,,,611775404617269,1.8145486,Bike
Fix,GPS,37.4251904946,-122.1695242421,-0.3160736588000746,2.6865232,5.36435,156.22685,1677176978000,0.31929913,7.2919483,611775750324000,5.9676943,Bike
Fix,FLP,37.4252865,-122.1695095,16.33576295298208,2.5765173,9.733,155.35582,1677176980590,,,611775947176351,1.8413626,Bike
Fix,GPS,37.4251623637,-122.1694966548,-0.8915147275383808,2.7156677,5.270532,150.09737,1677176979000,0.3429877,7.4861245,611776750584000,5.8747244,Bike
Fix,FLP,37.4252484,-122.1695111,14.722923942237776,2.6864522,9.772,156.84929,1677176981132,,,611776489735372,1.8513826,Bike
Fix,FLP,37.4251919,-122.1694935,14.722923942237776,2.7320285,9.835,149.92108,1677176982217,,,611777574851400,1.8513826,Bike
Fix,GPS,37.4251399619,-122.1694692361,-1.842091005309346,2.5374465,5.2115636,146.43138,1677176980000,0.33165357,7.7055755,611777750496000,5.842031,Bike
Fix,FLP,37.4251429,-122.169465,14.722923942237776,2.567353,9.895,144.9692,1677176983302,,,611778659969747,1.974859,Bike
Fix,GPS,37.4251184139,-122.1694422155,-1.7257771317363102,2.5901318,5.1475105,139.74565,1677176981000,0.2992175,6.6297255,611778750273000,5.817555,Bike
Fix,NLP,37.4250074,-122.1692287,-0.5000001192092896,,24.736,,1677176983610,,,611778967000000,1.0,Bike
Fix,FLP,37.4251167,-122.1694386,19.91092748901346,2.6043274,9.838,143.99489,1677176983845,,,611779202528036,1.9215779,Bike
Fix,GPS,37.4250967694,-122.1694121714,-2.0854597977463527,2.5156636,5.3387895,134.74045,1677176982000,0.32571766,7.2357626,611779750459000,5.8015447,Bike
Fix,FLP,37.4251056,-122.1694237,19.91092748901346,2.8035905,9.832,142.33014,1677176984388,,,611779745085958,1.9309777,Bike
Fix,GPS,37.4250787222,-122.1693736687,-2.843079731263858,2.4675083,5.5737324,117.65271,1677176983000,0.3455861,7.7474213,611780750571000,5.756785,Bike
Fix,FLP,37.425086,-122.1693951,16.277615732372418,2.5580606,9.598,121.93964,1677176985473,,,611780830201437,3.1340466,Bike
Fix,GPS,37.4250668297,-122.1693302336,-3.943294147856432,2.3712192,5.6883035,104.52253,1677176984000,0.36023107,8.674196,611781750670000,5.684508,Bike
Fix,FLP,37.425075,-122.1693707,10.676701765094547,2.4832027,9.37,112.75479,1677176986015,,,611781372759359,3.1314192,Bike
Fix,GPS,37.4250659186,-122.1692850263,-4.4458026740652565,2.591194,5.6032,100.071945,1677176985000,0.32853064,7.301778,611782750390000,5.55155,Bike
Fix,FLP,37.4250654,-122.1693321,-0.5000001192092896,2.3901074,9.395,107.170876,1677176987100,,,611782457855794,3.1295314,Bike
Fix,FLP,37.42506,-122.1692847,-0.5000001192092896,2.5588448,9.477,117.37623,1677176988185,,,611783542988363,3.1295314,Bike
Fix,GPS,37.4250621758,-122.1692475782,-4.865966819678592,2.4781475,5.6571274,115.17854,1677176986000,0.38396198,8.540533,611783750361000,5.557199,Bike
Fix,FLP,37.4250558,-122.1692556,-9.733947672670752,2.4909742,9.548,123.94094,1677176988728,,,611784085544759,3.1395314,Bike
Fix,FLP,37.4250499,-122.1692402,-5.648909200393341,2.4716008,9.604,139.84258,1677176989270,,,611784628101339,3.1495414,Bike
Fix,GPS,37.425050374,-122.1692235092,-5.664790402935389,2.1240437,5.8287053,148.46387,1677176987000,0.41751066,10.559758,611784750623000,5.626576,Bike
Fix,FLP,37.42504,-122.1692263,-5.648909200393341,2.1685996,9.615,153.20836,1677176989813,,,611785170658041,3.1495414,Bike
Fix,FLP,37.4250323,-122.1692214,-5.648909200393341,2.125846,9.645,164.77225,1677176990356,,,611785713213888,3.1495414,Bike
Fix,GPS,37.4250263788,-122.1692091484,-5.88922090934291,2.5095525,5.8022013,185.29079,1677176988000,0.37502217,7.5847106,611785750406000,5.5608425,Bike
Fix,FLP,37.4250156,-122.1692137,2.3546768221933263,2.4371638,9.698,189.4679,1677176990898,,,611786255770284,3.1597013,Bike
Fix,GPS,37.424990945,-122.1692124487,-5.715299029306476,3.1177661,5.7172,201.9057,1677176989000,0.33816943,5.8493714,611786750572000,5.4692883,Bike
Fix,FLP,37.4250118,-122.169214,2.3546768221933263,2.4671984,9.732,195.38919,1677176991441,,,611786798326192,3.1695414,Bike
Fix,FLP,37.4249845,-122.1692195,2.3546768221933263,3.0201223,9.828,203.88113,1677176991983,,,611787340879171,3.1695414,Bike
Fix,GPS,37.4249488892,-122.1692271107,-4.668357726805831,3.818479,5.6686487,196.21767,1677176990000,0.35098168,4.7325478,611787750721000,5.450509,Bike
Fix,FLP,37.424951,-122.1692304,-11.709326994994075,3.748469,9.829,191.55165,1677176993068,,,611788425992879,3.1795914,Bike
Fix,GPS,37.4249014844,-122.1692415415,-4.251340751655889,3.2989812,5.617662,183.75935,1677176991000,0.33379975,5.757625,611788750464000,5.4547305,Bike
Fix,FLP,37.4249171,-122.1692368,2.367978971752109,3.39379,9.72,183.8551,1677176993611,,,611788968548421,3.1895316,Bike
Fix,FLP,37.4248916,-122.169238,1.3294510434114954,3.2810023,9.67,171.9334,1677176994154,,,611789511103780,3.1995416,Bike
Fix,GPS,37.4248567958,-122.1692413607,-3.931178063943627,2.8322935,5.627468,164.96564,1677176992000,0.3724048,7.4320817,611789750670000,5.4958982,Bike
Fix,FLP,37.4248618,-122.1692333,1.3294510434114954,2.8707275,9.655,157.58757,1677176994696,,,611790053658895,3.1995416,Bike
Fix,GPS,37.4248193382,-122.1692227567,-3.922488284132855,2.8976767,5.5382037,143.05736,1677176993000,0.3106212,6.1009874,611790750719000,5.5218735,Bike
Fix,FLP,37.4248509,-122.1692276,9.576217512537802,2.8230176,9.682,144.2069,1677176995239,,,611790596214132,3.2095516,Bike
Fix,FLP,37.4248257,-122.1692121,9.576217512537802,2.8893063,9.68,138.95442,1677176995747,,,611791104085531,3.2095516,Bike
Fix,GPS,37.4247911321,-122.1691907661,-4.043849104192991,2.5691843,5.283085,123.62346,1677176994000,0.3212834,6.9583955,611791750579000,5.4940577,Bike
Fix,FLP,37.4248161,-122.1692051,9.513234614254811,2.9040146,9.602,135.42789,1677176996323,,,611791681324239,3.2195415,Bike
Fix,FLP,37.4248002,-122.1691898,9.513234614254811,2.6515815,9.536,125.413635,1677176996831,,,611792188000000,3.2195415,Bike
Fix,FLP,37.4247871,-122.1691706,9.513234614254811,2.5947115,9.406,118.433365,1677176997409,,,611792766000000,3.2195415,Bike
Fix,GPS,37.4247723645,-122.1691525658,-3.571706398860369,2.9042327,5.4172063,120.16456,1677176995000,0.3221678,5.8307905,611792750524000,5.550274,Bike
Fix,FLP,37.424773,-122.1691458,3.169727943420199,2.835909,9.233,124.617325,1677176997951,,,611793308987997,3.2295315,Bike
Fix,GPS,37.4247518581,-122.1691052965,-4.678646863867787,2.945148,5.365713,134.01924,1677176996000,0.3412588,6.456014,611793750562000,5.66624,Bike
Fix,FLP,37.4247627,-122.16913,9.513234614254811,2.892402,9.253,132.06485,1677176998494,,,611793851544393,3.2395515,Bike
Fix,FLP,37.4247409,-122.1690998,9.513234614254811,2.947553,9.175,144.3519,1677176999037,,,611794394096639,3.2395515,Bike
Fix,GPS,37.4247218347,-122.1690647791,-5.798479538869448,2.9090533,5.549077,130.6191,1677176997000,0.36552173,6.935157,611794750527000,5.8052936,Bike
Fix,GPS,37.4247016884,-122.1690353487,-5.628171643165119,2.706421,5.8119435,128.76175,1677176998000,0.3907566,7.984363,611795750498000,5.9071484,Bike
Fix,FLP,37.4247147,-122.1690634,-0.5000001192092896,2.9185417,9.092,125.97745,1677177000122,,,611795479204794,3.2495315,Bike
Fix,FLP,37.4246968,-122.1690248,-0.5000001192092896,2.733564,9.096,110.43436,1677177001207,,,611796564312276,3.2695415,Bike
Fix,GPS,37.424683919,-122.1690064983,-4.708741629935155,2.93925,6.178293,113.724075,1677176999000,0.4455647,7.9005337,611796750944000,6.0228453,Bike
Fix,FLP,37.4246828,-122.1689882,-0.5000001192092896,2.9236753,9.307,105.49232,1677177002292,,,611797649422140,3.2695415,Bike
Fix,GPS,37.4246685326,-122.168972512,-3.4924515623643435,3.6775594,6.365485,110.673706,1677177000000,0.445555,6.582135,611797750588000,6.1953435,Bike
Fix,FLP,37.4246703,-122.1689575,13.27101120799589,3.5625324,9.696,107.35414,1677177002834,,,611798191972677,3.2795515,Bike
Fix,GPS,37.4246525791,-122.1689323966,-2.1050897084659126,4.3382983,6.412732,107.2767,1677177001000,0.4545048,5.581284,611798750828000,6.308431,Bike
Fix,FLP,37.4246658,-122.1689485,14.003605999612304,3.6445472,9.924,107.31593,1677177003376,,,611798734525350,3.2895315,Bike
Fix,FLP,37.424656,-122.16892,14.003605999612304,4.2407494,10.085,104.70405,1677177003920,,,611799277082418,3.2895315,Bike
Fix,GPS,37.4246390753,-122.1688821478,-1.4323114823050032,5.2066245,6.6079717,104.95606,1677177002000,0.48606056,5.1152954,611799750628000,6.4420166,Bike
Fix,FLP,37.4246506,-122.1689025,4.8287250795477945,4.318257,10.258,104.89694,1677177004462,,,611799819619405,3.2995415,Bike
Fix,GPS,37.4246238052,-122.1688191448,-0.9508322585627462,4.8931108,6.8832703,105.96085,1677177003000,0.48456687,5.6553206,611800750867000,6.6389704,Bike
Fix,FLP,37.424631,-122.1688375,-4.518199508131438,4.885858,10.204,105.025314,1677177005393,0.48456687,5.6553206,611800750867000,3.3095315,Bike
Fix,GPS,37.4246148717,-122.1687521463,-0.987707621054559,4.4545765,6.9465365,109.78834,1677177004000,0.48888588,6.4262857,611801750913000,6.849572,Bike
Fix,FLP,37.4246179,-122.1687732,-4.518199508131438,5.1235423,10.378,107.1556,1677177006393,,,611801750913000,3.3195314,Bike
Fix,FLP,37.4246131,-122.1687401,-4.518199508131438,2.786704,10.511,292.4592,1677177006899,,,611802256595724,3.3195314,Bike
Fix,GPS,37.4246057096,-122.168690701,-2.322232589839879,4.6456246,7.1220546,108.82409,1677177005000,0.46923319,5.7120886,611802750633000,7.0254755,Bike
Fix,FLP,37.4246148,-122.1687451,-3.800948555753031,3.646767,10.864,295.31,1677177007442,,,611802799148275,3.3295515,Bike
Fix,FLP,37.4246149,-122.1687355,-3.800948555753031,3.2236671,11.001,96.19012,1677177007983,,,611803341700155,3.3295515,Bike
Fix,GPS,37.4245974917,-122.1686278892,-3.940116088114145,4.7868967,7.2308507,109.48418,1677177006000,0.45635155,5.384283,611803750649000,7.161085,Bike
Fix,FLP,37.4246081,-122.168706,-3.2779253524150462,4.169825,11.139,104.15364,1677177008527,,,611803884252218,3.3395414,Bike
Fix,FLP,37.424598,-122.1686558,-3.2779253524150462,4.6525283,11.351,108.10209,1677177009069,,,611804426803732,3.3395414,Bike
Fix,GPS,37.4245822973,-122.1685557127,-4.479633414416632,4.9800744,7.219923,108.76691,1677177007000,0.46275464,5.2426176,611804751013000,7.32965,Bike
Fix,FLP,37.4245835,-122.1685867,-0.5000001192092896,4.951796,11.809,108.59613,1677177009612,,,611804969355550,3.3495314,Bike
Fix,GPS,37.4245804623,-122.1685102786,-3.6541312532760792,4.9552393,7.268838,103.26776,1677177008000,0.49204573,5.691444,611805750912000,7.3351235,Bike
Fix,FLP,37.4245773,-122.1685578,-0.5000001192092896,4.983894,12.367,108.47432,1677177010154,,,611805511906698,3.3595214,Bike
Fix,FLP,37.4245704,-122.168513,-0.5000001192092896,4.980995,12.417,104.21989,1677177010697,,,611806054458211,3.3595214,Bike
Fix,GPS,37.4245850275,-122.1684563192,-4.375059187537183,4.922758,7.321578,99.004974,1677177009000,0.46499437,5.276196,611806750886000,7.243151,Bike
Fix,FLP,37.4245706,-122.1684995,-1.3000000715255735,4.9810023,12.477,101.00571,1677177011240,,,611806597009237,3.3695614,Bike
Fix,GPS,37.4245796847,-122.1683911847,-4.3596824494466775,5.0521955,7.2147717,96.39575,1677177010000,0.46887687,5.340533,611807750922000,7.144134,Bike
Fix,NLP,37.4243266,-122.1678738,0.2999999821186065,,44.714,,1677177012472,,,611807829000000,5.32512,Bike
Fix,FLP,37.4245711,-122.1684377,-1.3000000715255735,4.9365954,12.607,96.22574,1677177012325,,,611807682111837,3.3795514,Bike
Fix,FLP,37.4245752,-122.168399,-0.5000001192092896,5.035064,12.568,94.26458,1677177012867,,,611808224658650,4.8338,Bike
Fix,GPS,37.4245744769,-122.1683118153,-4.681551062367185,5.1947055,6.809482,91.79739,1677177011000,0.4162794,5.0194545,611808750726000,6.8819823,Bike
Fix,FLP,37.4245745,-122.1683381,-6.980115079542735,5.19388,12.073,91.036476,1677177013393,0.4162794,5.0194545,611808750726000,4.84264,Bike
Fix,GPS,37.4245775221,-122.1682398924,-4.8604428140001605,5.1719027,6.177252,91.88201,1677177012000,0.38582873,4.6586533,611809751064000,6.407444,Bike
Fix,FLP,37.424576,-122.1682549,-5.890162214788258,5.172156,11.331,91.000084,1677177014394,0.38582873,4.6586533,611809751064000,4.096621,Bike
Fix,GPS,37.4245784252,-122.1681749083,-5.133511827933775,4.824112,5.8721023,92.04818,1677177013000,0.38472855,4.8755336,611810750783000,6.0531816,Bike
Fix,FLP,37.4245757,-122.1681878,18.07963152348033,5.061971,10.897,92.061874,1677177015393,,,611810750783000,3.6595373,Bike
Fix,FLP,37.4245683,-122.1681373,18.07963152348033,4.947892,10.161,141.33904,1677177016447,,,611811805503194,3.6595373,Bike
Fix,GPS,37.424578302,-122.168118124,-4.88490956541078,4.687749,5.756887,94.51078,1677177014000,0.3584421,4.527596,611811750948000,5.796325,Bike
Fix,GPS,37.4245696836,-122.1680567834,-4.325174431976374,4.8210907,5.195839,99.26753,1677177015000,0.3071125,3.7194726,611812750782000,5.5439906,Bike
Fix,FLP,37.424554,-122.1681081,17.478469657008226,4.965594,10.428,117.70985,1677177016991,,,611812348055013,4.882606,Bike
Fix,FLP,37.4245562,-122.1680733,17.478469657008226,4.920204,9.942,106.91627,1677177017533,,,611812890606466,4.882606,Bike
Fix,GPS,37.4245597254,-122.1679959431,-3.399197728065042,4.739925,5.035963,103.309456,1677177016000,0.30228433,3.639302,611813750844000,5.343301,Bike
Fix,FLP,37.4245559,-122.1680321,2.0257916933280957,4.8586617,9.87,101.407646,1677177018076,,,611813433159628,4.8925962,Bike
Fix,FLP,37.4245514,-122.1679752,2.0257916933280957,4.718323,9.716,105.384094,1677177019161,,,611814518260763,4.8925962,Bike
Fix,GPS,37.4245459791,-122.1679358029,-2.890958978120123,4.8679113,4.9489603,109.745575,1677177017000,0.31393307,3.6683722,611814751159000,5.265021,Bike
Fix,FLP,37.4245411,-122.1679248,3.001884420723883,4.830915,9.825,107.81485,1677177019703,,,611815060811971,4.902586,Bike
Fix,GPS,37.4245270624,-122.1678764024,-1.886551013010729,4.9275017,4.8500915,107.40227,1677177018000,0.3146891,3.399463,611815750907000,5.1125946,Bike
