# 
# Header Description:
# 
# Version: v3.0.5.6 Platform: 13 Manufacturer: Google Model: Pixel 6 Pro
# 
# Raw,utcTimeMillis,TimeNanos,LeapSecond,TimeUncertaintyNanos,FullBiasNanos,BiasNanos,BiasUncertaintyNanos,DriftNanosPerSecond,DriftUncertaintyNanosPerSecond,HardwareClockDiscontinuityCount,Svid,TimeOffsetNanos,State,ReceivedSvTimeNanos,ReceivedSvTimeUncertaintyNanos,Cn0DbHz,PseudorangeRateMetersPerSecond,PseudorangeRateUncertaintyMetersPerSecond,AccumulatedDeltaRangeState,AccumulatedDeltaRangeMeters,AccumulatedDeltaRangeUncertaintyMeters,CarrierFrequencyHz,CarrierCycles,CarrierPhase,CarrierPhaseUncertainty,MultipathIndicator,SnrInDb,ConstellationType,AgcDb,BasebandCn0DbHz,FullInterSignalBiasNanos,FullInterSignalBiasUncertaintyNanos,SatelliteInterSignalBiasNanos,SatelliteInterSignalBiasUncertaintyNanos,CodeType,ChipsetElapsedRealtimeNanos
# 
# UncalAccel,utcTimeMillis,elapsedRealtimeNanos,UncalAccelXMps2,UncalAccelYMps2,UncalAccelZMps2,BiasXMps2,BiasYMps2,BiasZMps2
# 
# Accel,utcTimeMillis,elapsedRealtimeNanos,AccelXMps2,AccelYMps2,AccelZMps2
# 
# UncalGyro,utcTimeMillis,elapsedRealtimeNanos,UncalGyroXRadPerSec,UncalGyroYRadPerSec,UncalGyroZRadPerSec,DriftXRadPerSec,DriftYRadPerSec,DriftZRadPerSec
# 
# Gyro,utcTimeMillis,elapsedRealtimeNanos,GyroXRadPerSec,GyroYRadPerSec,GyroZRadPerSec
# 
# UncalMag,utcTimeMillis,elapsedRealtimeNanos,UncalMagXMicroT,UncalMagYMicroT,UncalMagZMicroT,BiasXMicroT,BiasYMicroT,BiasZMicroT
# 
# Mag,utcTimeMillis,elapsedRealtimeNanos,MagXMicroT,MagYMicroT,MagZMicroT
# 
# OrientationDeg,utcTimeMillis,elapsedRealtimeNanos,yawDeg,rollDeg,pitchDeg
# 
# Fix,Provider,LatitudeDegrees,LongitudeDegrees,AltitudeMeters,SpeedMps,AccuracyMeters,BearingDegrees,UnixTimeMillis,SpeedAccuracyMps,BearingAccuracyDegrees,elapsedRealtimeNanos,VerticalAccuracyMeters
# 
# Nav,Svid,Type,Status,MessageId,Sub-messageId,Data(Bytes)
# 
# Status,UnixTimeMillis,SignalCount,SignalIndex,ConstellationType,Svid,CarrierFrequencyHz,Cn0DbHz,AzimuthDegrees,ElevationDegrees,UsedInFix,HasAlmanacData,HasEphemerisData,BasebandCn0DbHz
# 
Fix,FLP,37.4216646000,-122.1587072000,-8.5,1.2966372,12.359,31.85968,1678224807615,,,1659619623512469,2.2907982
Fix,FLP,37.4216690000,-122.1587098000,-8.5,1.1119121,12.532,48.435627,1678224808158,,,1659620166097002,2.2907982
Raw,1678224807000,365322951000000,,,-1361894702049002430,0.0,14.70179703207442,233.0,1.0,1185,6,0.0,16431,250424929908566,28,33.7316780090332,-255.25837685037095,0.6976660877048855,16,-6270.822543437541,340282346638528860000000000000000000000,1575420030,,,,0,,1,,29.631677627563477,0.320142130558394,1.0,0.320142130558394,1.0,C,1659620514258000
Raw,1678224807000,365322951000000,,,-1361894702049002430,0.0,14.70179703207442,233.0,1.0,1185,11,0.0,16419,250424922553360,27,34.161590576171875,-596.5122447008362,0.5972744812672022,16,-9333.11137038692,340282346638528860000000000000000000000,1575420030,,,,0,,1,,30.06159210205078,-0.20372681261465636,1.0,-0.20372681261465636,1.0,C,1659620514258000
Raw,1678224807000,365322951000000,,,-1361894702049002430,0.0,14.70179703207442,233.0,1.0,1185,12,0.0,16419,250424921740629,15,41.0584716796875,-456.83507830711983,0.15,17,-7307.277379485335,0.09643639802288985,1575420030,,,,0,,1,,36.958473205566406,-0.6984919076624261,1.0,-0.6984919076624261,1.0,C,1659620514258000
Raw,1678224807000,365322951000000,,,-1361894702049002430,0.0,14.70179703207442,233.0,1.0,1185,13,0.0,16384,250424918446919,1000000000,20.06908416748047,692.6028911580738,299792458,16,9003.136003386688,340282346638528860000000000000000000000,1575420030,,,,0,,1,,15.969083786010742,0.0,1.0,0.0,1.0,C,1659620514258000
Raw,1678224807000,365322951000000,,,-1361894702049002430,0.0,14.70179703207442,233.0,1.0,1185,14,0.0,16423,250424921407436,23,36.20406723022461,547.1894087543728,0.15,21,539933.4100208947,0.09727294804815924,1575420030,,,,0,,1,,32.104068756103516,-0.2619344840127561,1.0,-0.2619344840127561,1.0,C,1659620514258000
Raw,1678224807000,365322951000000,,,-1361894702049002430,0.0,14.70179703207442,233.0,1.0,1185,15,0.0,16384,250424916950191,1000000000,19.54686164855957,592.7872366976321,299792458,16,8188.811536624601,340282346638528860000000000000000000000,1575420030,,,,0,,1,,15.44686222076416,-0.4074536252293127,1.0,-0.4074536252293127,1.0,C,1659620514258000
Raw,1678224807000,365322951000000,,,-1361894702049002430,0.0,14.70179703207442,233.0,1.0,1185,17,0.0,16431,250424925725749,14,41.66722106933594,558.0537030078665,0.15,17,1101751.0254960412,0.09634911353987431,1575420030,,,,0,,1,,37.567222595214844,-0.7858034271858065,1.0,-0.7858034271858065,1.0,C,1659620514258000
Raw,1678224807000,365322951000000,,,-1361894702049002430,0.0,14.70179703207442,233.0,1.0,1185,19,0.0,16431,250424932346062,11,44.419334411621094,271.87188732364314,0.15,29,-520900.90061967017,0.0008757876930758357,1575420030,,,,0,,1,,40.3193359375,0.0,1.0,0.0,1.0,C,1659620514258000
Raw,1678224807000,365322951000000,,,-1361894702049002430,0.0,14.70179703207442,233.0,1.0,1185,24,0.0,16397,250424929311614,13,45.81138610839844,-147.62056004074861,0.15,25,-3177.307341342733,0.0007864571525715292,1575420030,,,,0,,1,,41.711387634277344,-0.20372681261465636,1.0,-0.20372681261465636,1.0,C,1659620514258000
Raw,1678224807000,365322951000000,,,-1361894702049002430,0.0,14.70179703207442,233.0,1.0,1185,6,0.0,16384,250424929908406,1000000000,11.0,-255.01950995383083,299792458,16,-4348.364770830679,340282346638528860000000000000000000000,1176450050,,,,1,,1,,7.0,1.9208527336454408,1.185040656686587,1.9208527336454408,1.0,Q,1659620514258000
Raw,1678224807000,365322951000000,,,-1361894702049002430,0.0,14.70179703207442,233.0,1.0,1185,11,0.0,16384,250424922553168,1000000000,11.726081848144531,-596.84223104489,299792458,16,-7396.9130991205875,340282346638528860000000000000000000000,1176450050,,,,1,,1,,7.726081848144531,0.0,1.185040656686587,0.0,1.0,Q,1659620514258000
Raw,1678224807000,365322951000000,,,-1361894702049002430,0.0,14.70179703207442,233.0,1.0,1185,14,0.0,16384,250424921407215,1000000000,16.56233787536621,547.2607433358751,299792458,16,542637.2078128734,340282346638528860000000000000000000000,1176450050,,,,1,,1,,12.562337875366211,0.0,1.185040656686587,0.0,1.0,Q,1659620514258000
Raw,1678224807000,365322951000000,,,-1361894702049002430,0.0,14.70179703207442,233.0,1.0,1185,24,0.0,16384,250424929311427,1000000000,11.0,-147.7811054521993,299792458,16,-1258.1948307999119,340282346638528860000000000000000000000,1176450050,,,,0,,1,,7.0,3.5215636101095664,1.185040656686587,3.5215636101095664,1.0,Q,1659620514258000
Raw,1678224807000,365322951000000,,,-1361894702049002430,0.0,14.70179703207442,233.0,1.0,1185,10,0.0,32867,2006925704986,49,35.435523986816406,-574.0028271149113,0.5405539844941261,17,-11951.960095018834,0.09608862342120203,1598062460,,,,0,,3,,31.335525512695312,55.87935447692871,2.0000000474974513,55.87935447692871,2.0000000474974513,C,1659620514258000
Raw,1678224807000,365322951000000,,,-1361894702049002430,0.0,14.70179703207442,233.0,1.0,1185,18,0.0,32995,2006927588614,33,43.76774978637695,754.1067970657896,0.15,17,334170.15771532024,0.09459617830468826,1600312450,,,,0,,3,,39.66775131225586,55.87935447692871,2.0000000474974513,55.87935447692871,2.0000000474974513,C,1659620514258000
Raw,1678224807000,365322951000000,,,-1361894702049002430,0.0,14.70179703207442,233.0,1.0,1185,16,0.0,32833,2006930709943,39,38.137386322021484,471.2752698165302,0.15,16,2735467.151920717,340282346638528860000000000000000000000,1601437440,,,,0,,3,,34.03738784790039,55.87935447692871,2.0000000474974513,55.87935447692871,2.0000000474974513,C,1659620514258000
Raw,1678224807000,365322951000000,,,-1361894702049002430,0.0,14.70179703207442,233.0,1.0,1185,20,0.0,32768,2006928701532,1000000000,22.56907844543457,-638.7847836909909,299792458,16,1040183.1392901823,340282346638528860000000000000000000000,1603124990,,,,0,,3,,18.469078063964844,55.87935447692871,2.0000000474974513,55.87935447692871,2.0000000474974513,C,1659620514258000
Raw,1678224807000,365322951000000,,,-1361894702049002430,0.0,14.70179703207442,233.0,1.0,1185,19,0.0,32867,2006935431868,62,32.58179473876953,189.82002624411848,0.6706325754908904,16,1051853.8025849331,340282346638528860000000000000000000000,1603687550,,,,0,,3,,28.481796264648438,55.87935447692871,2.0000000474974513,55.87935447692871,2.0000000474974513,C,1659620514258000
Raw,1678224807000,365322951000000,,,-1361894702049002430,0.0,14.70179703207442,233.0,1.0,1185,15,0.0,84002,250424920082053,1000000000,23.774335861206055,-64.87645870740329,299792458,16,-1284.3364019890491,340282346638528860000000000000000000000,1575420030,,,,0,,6,,19.674335479736328,-4.394678398966788,1.5000000237487257,-4.394678398966788,1.5000000237487257,C,1659620514258000
Raw,1678224807000,365322951000000,,,-1361894702049002430,0.0,14.70179703207442,233.0,1.0,1185,18,0.0,84002,250424935430969,1000000000,19.168228149414062,0.5169890279043059,299792458,16,-524766.2770924403,340282346638528860000000000000000000000,1575420030,,,,0,,6,,15.068228721618652,-4.394678398966788,1.5000000237487257,-4.394678398966788,1.5000000237487257,C,1659620514258000
Raw,1678224807000,365322951000000,,,-1361894702049002430,0.0,14.70179703207442,233.0,1.0,1185,19,0.0,84002,250424906192670,1000000000,19.479198455810547,235.6007747315357,299792458,16,2214.0130048992096,340282346638528860000000000000000000000,1575420030,,,,1,,6,,15.37919807434082,-4.394678398966788,1.5000000237487257,-4.394678398966788,1.5000000237487257,C,1659620514258000
Raw,1678224807000,365322951000000,,,-1361894702049002430,0.0,14.70179703207442,233.0,1.0,1185,21,0.0,84002,250424912987739,1000000000,17.822772979736328,-302.0199843540581,299792458,16,-3705.414131284676,340282346638528860000000000000000000000,1575420030,,,,0,,6,,13.722772598266602,-4.394678398966788,1.5000000237487257,-4.394678398966788,1.5000000237487257,C,1659620514258000
Raw,1678224807000,365322951000000,,,-1361894702049002430,0.0,14.70179703207442,233.0,1.0,1185,27,0.0,83968,250424921000609,1000000000,20.0636043548584,10.061329684121269,299792458,16,-393.0508580701844,340282346638528860000000000000000000000,1575420030,,,,0,,6,,15.963604927062988,-4.394678398966788,1.5000000237487257,-4.394678398966788,1.5000000237487257,C,1659620514258000
Raw,1678224807000,365322951000000,,,-1361894702049002430,0.0,14.70179703207442,233.0,1.0,1185,30,0.0,84002,250424913218091,1000000000,17.59052085876465,376.8653315378019,299792458,16,3539.8635324969828,340282346638528860000000000000000000000,1575420030,,,,0,,6,,13.490520477294922,-4.394678398966788,1.5000000237487257,-4.394678398966788,1.5000000237487257,C,1659620514258000
Raw,1678224807000,365322951000000,,,-1361894702049002430,0.0,14.70179703207442,233.0,1.0,1185,34,0.0,84002,250424912629736,1000000000,15.779117584228516,439.05381766723485,299792458,16,4339.2790972920575,340282346638528860000000000000000000000,1575420030,,,,0,,6,,11.679118156433105,-4.394678398966788,1.5000000237487257,-4.394678398966788,1.5000000237487257,C,1659620514258000
Raw,1678224807000,365322951000000,,,-1361894702049002430,0.0,14.70179703207442,233.0,1.0,1185,15,0.0,16384,250424920082572,1000000000,11.0,-64.52505579973192,299792458,16,626.7780783418104,340282346638528860000000000000000000000,1176450050,,,,0,,6,,7.0,-9.566405788064,1.6850406804353126,-9.566405788064,1.5000000237487257,Q,1659620514258000
Raw,1678224807000,365322951000000,,,-1361894702049002430,0.0,14.70179703207442,233.0,1.0,1185,18,0.0,16384,250424935431969,1000000000,11.0,0.6240411251839317,299792458,16,-522884.3281122803,340282346638528860000000000000000000000,1176450050,,,,1,,6,,7.0,-4.025269299745559,1.6850406804353126,-4.025269299745559,1.5000000237487257,Q,1659620514258000
Raw,1678224807000,365322951000000,,,-1361894702049002430,0.0,14.70179703207442,233.0,1.0,1185,19,0.0,16384,250424906193174,1000000000,11.0,236.22806234383802,299792458,16,4130.367701097461,340282346638528860000000000000000000000,1176450050,,,,1,,6,,7.0,-1.2547010555863385,1.6850406804353126,-1.2547010555863385,1.5000000237487257,Q,1659620514258000
Raw,1678224807000,365322951000000,,,-1361894702049002430,0.0,14.70179703207442,233.0,1.0,1185,21,0.0,16384,250424912988722,1000000000,12.491443634033203,-301.741155777245,299792458,16,-1785.6301471159168,340282346638528860000000000000000000000,1176450050,,,,0,,6,,8.491443634033203,-6.42642844468355,1.6850406804353126,-6.42642844468355,1.5000000237487257,Q,1659620514258000
Raw,1678224807000,365322951000000,,,-1361894702049002430,0.0,14.70179703207442,233.0,1.0,1185,27,0.0,16384,250424921001133,1000000000,11.0,10.257775638134916,299792458,16,1493.3721925931382,340282346638528860000000000000000000000,1176450050,,,,1,,6,,7.0,-6.241723895072936,1.6850406804353126,-6.241723895072936,1.5000000237487257,Q,1659620514258000
Raw,1678224807000,365322951000000,,,-1361894702049002430,0.0,14.70179703207442,233.0,1.0,1185,30,0.0,16384,250424913218615,1000000000,11.0,376.85923077808434,299792458,16,5410.094655718792,340282346638528860000000000000000000000,1176450050,,,,1,,6,,7.0,-5.872314795851706,1.6850406804353126,-5.872314795851706,1.5000000237487257,Q,1659620514258000
Raw,1678224807000,365322951000000,,,-1361894702049002430,0.0,14.70179703207442,233.0,1.0,1185,34,0.0,16384,250424912630243,1000000000,11.0,439.14345452788984,299792458,16,6250.203079965597,340282346638528860000000000000000000000,1176450050,,,,1,,6,,7.0,-7.904064841568468,1.6850406804353126,-7.904064841568468,1.5000000237487257,Q,1659620514258000
Status,0,21,0,3,19,1603687550,32.58,61.0,76.0,1,1,1,28.481796
Status,0,21,1,6,27,1575420030,25.06,10.0,70.0,0,1,1,20.955547
Status,0,21,2,1,19,1575420030,45.18,29.0,70.0,1,1,1,41.075317
Status,0,21,3,6,15,1575420030,23.77,106.0,59.0,0,1,1,19.674335
Status,0,21,4,6,18,1575420030,28.45,52.0,57.0,0,1,1,24.345705
Status,0,21,5,1,6,1575420030,39.65,132.0,52.0,0,1,1,35.551315
Status,0,21,6,1,24,1575420030,46.65,295.0,51.0,1,1,1,42.553623
Status,0,21,7,3,16,1601437440,38.14,110.0,42.0,1,1,1,34.037388
Status,0,21,8,1,17,1575420030,43.55,45.0,39.0,1,1,1,39.445923
Status,0,21,9,3,20,1603124990,22.66,198.0,34.0,0,1,1,18.564032
Status,0,21,10,6,30,1575420030,23.06,93.0,33.0,0,1,1,18.96062
Status,0,21,11,3,18,1600312450,46.89,31.0,30.0,1,1,1,42.791492
Status,0,21,12,6,21,1575420030,27.09,302.0,30.0,0,1,1,22.99291
Status,0,21,13,6,34,1575420030,22.51,44.0,27.0,0,1,1,18.405432
Status,0,21,14,1,11,1575420030,34.16,176.0,26.0,1,1,1,30.061592
Status,0,21,15,3,10,1598062460,36.63,322.0,24.0,1,1,1,32.53173
Status,0,21,16,1,12,1575420030,41.06,295.0,21.0,1,1,1,36.958473
Status,0,21,17,1,14,1575420030,38.13,94.0,21.0,1,1,1,34.03329
Status,0,21,18,6,19,1575420030,19.48,289.0,16.0,0,1,1,15.379198
Status,0,21,19,1,13,1575420030,22.34,206.0,12.0,0,1,1,18.244295
Status,0,21,20,1,15,1575420030,19.89,234.0,10.0,0,1,1,15.789524
Fix,GPS,37.4216764976,-122.1586806031,-9.975023032630848,1.4185429,4.827709,43.385017,1678224807000,0.036952507,25.0,1659620514258000,5.5230618
Fix,FLP,37.4216719000,-122.1587154000,-8.5,1.1461558,12.698,65.44031,1678224808700,,,1659620708683184,2.0605187
Fix,FLP,37.4216737000,-122.1587155000,-8.5,1.2035763,12.777,69.30852,1678224809243,,,1659621251271075,2.0605187
Nav,10,769,1,-1,14,117,80,47,44,102,-64,122,124,57,-11,88
Nav,18,769,1,2,14,117,80,47,44,102,-64,122,124,57,-11,88
Nav,16,769,1,-1,14,117,80,49,44,102,-64,122,124,57,-10,-80
Raw,1678224808000,365323951000000,,,-1361894702049002196,0.0,14.094932522443774,233.0,1.0,1185,6,0.0,16431,250425929909414,32,31.962181091308594,-255.15508996587857,0.6975026649885505,16,-6526.70456186309,340282346638528860000000000000000000000,1575420030,,,,0,,1,,27.862180709838867,0.320142130558394,1.0,0.320142130558394,1.0,C,1659621514256000
Raw,1678224808000,365323951000000,,,-1361894702049002196,0.0,14.094932522443774,233.0,1.0,1185,11,0.0,16419,250425922555332,30,32.81059646606445,-596.6401902426228,0.8052506235167334,16,-9929.758077231496,340282346638528860000000000000000000000,1575420030,,,,0,,1,,28.710596084594727,-0.20372681261465636,1.0,-0.20372681261465636,1.0,C,1659621514256000
Raw,1678224808000,365323951000000,,,-1361894702049002196,0.0,14.094932522443774,233.0,1.0,1185,12,0.0,16419,250425921742158,14,42.345314025878906,-457.0888903608452,0.15,17,-7764.062817538568,0.09625882402815646,1575420030,,,,0,,1,,38.24531555175781,-0.6984919076624261,1.0,-0.6984919076624261,1.0,C,1659621514256000
Raw,1678224808000,365323951000000,,,-1361894702049002196,0.0,14.094932522443774,233.0,1.0,1185,13,0.0,16384,250425918444641,1000000000,21.39749526977539,692.0596168011002,299792458,16,9696.223866314745,340282346638528860000000000000000000000,1575420030,,,,0,,1,,17.297494888305664,0.0,1.0,0.0,1.0,C,1659621514256000
Raw,1678224808000,365323951000000,,,-1361894702049002196,0.0,14.094932522443774,233.0,1.0,1185,14,0.0,16423,250425921405597,32,32.23009490966797,547.14033001698,0.8342828854173572,16,540480.949445691,340282346638528860000000000000000000000,1575420030,,,,0,,1,,28.130094528198242,-0.2619344840127561,1.0,-0.2619344840127561,1.0,C,1659621514256000
Raw,1678224808000,365323951000000,,,-1361894702049002196,0.0,14.094932522443774,233.0,1.0,1185,15,0.0,16384,250425916948212,1000000000,19.448484420776367,592.4159424162726,299792458,16,8781.544043513872,340282346638528860000000000000000000000,1575420030,,,,0,,1,,15.34848403930664,-0.4074536252293127,1.0,-0.4074536252293127,1.0,C,1659621514256000
Raw,1678224808000,365323951000000,,,-1361894702049002196,0.0,14.094932522443774,233.0,1.0,1185,17,0.0,16431,250425925723886,14,42.14411163330078,558.0011478599083,0.15,17,1102309.060621299,0.09628488289945548,1575420030,,,,0,,1,,38.04411315917969,-0.7858034271858065,1.0,-0.7858034271858065,1.0,C,1659621514256000
Raw,1678224808000,365323951000000,,,-1361894702049002196,0.0,14.094932522443774,233.0,1.0,1185,19,0.0,16431,250425932345153,12,43.4826545715332,272.3747228459524,0.15,16,-520628.73951323854,340282346638528860000000000000000000000,1575420030,,,,0,,1,,39.38265609741211,0.0,1.0,0.0,1.0,C,1659621514256000
Raw,1678224808000,365323951000000,,,-1361894702049002196,0.0,14.094932522443774,233.0,1.0,1185,24,0.0,16397,250425929312108,11,44.77439880371094,-147.19613120967006,0.15,29,-3324.8277172152716,0.0008407089626416564,1575420030,,,,0,,1,,40.674400329589844,-0.20372681261465636,1.0,-0.20372681261465636,1.0,C,1659621514256000
Raw,1678224808000,365323951000000,,,-1361894702049002196,0.0,14.094932522443774,233.0,1.0,1185,6,0.0,16384,250425929909258,1000000000,11.0,-254.8787153259351,299792458,16,-4603.3204835548995,340282346638528860000000000000000000000,1176450050,,,,0,,1,,7.0,1.9208527336454408,1.185040656686587,1.9208527336454408,1.0,Q,1659621514256000
Raw,1678224808000,365323951000000,,,-1361894702049002196,0.0,14.094932522443774,233.0,1.0,1185,11,0.0,16384,250425922555169,1000000000,11.0,-597.0461804647225,299792458,16,-7993.5439313291,340282346638528860000000000000000000000,1176450050,,,,1,,1,,7.0,0.0,1.185040656686587,0.0,1.0,Q,1659621514256000
Raw,1678224808000,365323951000000,,,-1361894702049002196,0.0,14.094932522443774,233.0,1.0,1185,14,0.0,16384,250425921405393,1000000000,12.654476165771484,547.2607433358751,299792458,16,543183.8784791006,340282346638528860000000000000000000000,1176450050,,,,1,,1,,8.654476165771484,0.0,1.185040656686587,0.0,1.0,Q,1659621514256000
Raw,1678224808000,365323951000000,,,-1361894702049002196,0.0,14.094932522443774,233.0,1.0,1185,24,0.0,16384,250425929311931,1000000000,11.0,-147.60629653269382,299792458,16,-1404.5826423894757,340282346638528860000000000000000000000,1176450050,,,,1,,1,,7.0,3.5215636101095664,1.185040656686587,3.5215636101095664,1.0,Q,1659621514256000
Raw,1678224808000,365323951000000,,,-1361894702049002196,0.0,14.094932522443774,233.0,1.0,1185,10,0.0,32867,2007925706916,46,36.14386749267578,-574.1208887443063,0.15,16,-12525.785634842168,340282346638528860000000000000000000000,1598062460,,,,0,,3,,32.04386901855469,55.87935447692871,2.0000000474974513,55.87935447692871,2.0000000474974513,C,1659621514256000
Raw,1678224808000,365323951000000,,,-1361894702049002196,0.0,14.094932522443774,233.0,1.0,1185,18,0.0,32995,2007927586067,33,42.59095764160156,753.6684966749062,0.15,17,334924.04453474924,0.09473101489600279,1600312450,,,,0,,3,,38.49095916748047,55.87935447692871,2.0000000474974513,55.87935447692871,2.0000000474974513,C,1659621514256000
Raw,1678224808000,365323951000000,,,-1361894702049002196,0.0,14.094932522443774,233.0,1.0,1185,16,0.0,32833,2007930708331,35,39.53935241699219,471.08761181091563,0.15,16,2735938.3089497085,340282346638528860000000000000000000000,1601437440,,,,0,,3,,35.439353942871094,55.87935447692871,2.0000000474974513,55.87935447692871,2.0000000474974513,C,1659621514256000
Raw,1678224808000,365323951000000,,,-1361894702049002196,0.0,14.094932522443774,233.0,1.0,1185,20,0.0,32768,2007928703774,1000000000,20.78847312927246,-638.8294998739489,299792458,16,1039544.8654133274,340282346638528860000000000000000000000,1603124990,,,,0,,3,,16.688472747802734,55.87935447692871,2.0000000474974513,55.87935447692871,2.0000000474974513,C,1659621514256000
Raw,1678224808000,365323951000000,,,-1361894702049002196,0.0,14.094932522443774,233.0,1.0,1185,19,0.0,32867,2007935431179,65,31.882055282592773,189.50827401430433,0.7020990703409793,16,1052043.508650285,340282346638528860000000000000000000000,1603687550,,,,0,,3,,27.782054901123047,55.87935447692871,2.0000000474974513,55.87935447692871,2.0000000474974513,C,1659621514256000
Raw,1678224808000,365323951000000,,,-1361894702049002196,0.0,14.094932522443774,233.0,1.0,1185,15,0.0,85026,250425920082858,69,22.585569381713867,-64.55391085948554,1.1181102668986798,16,-1349.304363975177,340282346638528860000000000000000000000,1575420030,,,,0,,6,,18.48556900024414,-4.394678398966788,1.5000000237487257,-4.394678398966788,1.5000000237487257,C,1659621514256000
Raw,1678224808000,365323951000000,,,-1361894702049002196,0.0,14.094932522443774,233.0,1.0,1185,18,0.0,84002,250425935430942,1000000000,16.07278823852539,0.6857978041629873,299792458,16,-524764.7511219963,340282346638528860000000000000000000000,1575420030,,,,0,,6,,11.97278881072998,-4.394678398966788,1.5000000237487257,-4.394678398966788,1.5000000237487257,C,1659621514256000
Raw,1678224808000,365323951000000,,,-1361894702049002196,0.0,14.094932522443774,233.0,1.0,1185,19,0.0,85026,250425906192594,85,20.05650520324707,235.9710465391995,1.232218997010028,16,2449.7136963620173,340282346638528860000000000000000000000,1575420030,,,,1,,6,,15.956504821777344,-4.394678398966788,1.5000000237487257,-4.394678398966788,1.5000000237487257,C,1659621514256000
Raw,1678224808000,365323951000000,,,-1361894702049002196,0.0,14.094932522443774,233.0,1.0,1185,21,0.0,84002,250425912988757,1000000000,15.360933303833008,-302.0469776596242,299792458,16,-4005.3648818782567,340282346638528860000000000000000000000,1575420030,,,,0,,6,,11.260932922363281,-4.394678398966788,1.5000000237487257,-4.394678398966788,1.5000000237487257,C,1659621514256000
Raw,1678224808000,365323951000000,,,-1361894702049002196,0.0,14.094932522443774,233.0,1.0,1185,27,0.0,83968,250425921000574,1000000000,33.0839958190918,9.98524486024116,299792458,16,-383.1539170107514,340282346638528860000000000000000000000,1575420030,,,,0,,6,,28.98399543762207,-4.394678398966788,1.5000000237487257,-4.394678398966788,1.5000000237487257,C,1659621514256000
Raw,1678224808000,365323951000000,,,-1361894702049002196,0.0,14.094932522443774,233.0,1.0,1185,30,0.0,84002,250425913216836,1000000000,18.674692153930664,376.6770259655134,299792458,16,3923.465906844771,340282346638528860000000000000000000000,1575420030,,,,0,,6,,14.574692726135254,-4.394678398966788,1.5000000237487257,-4.394678398966788,1.5000000237487257,C,1659621514256000
Raw,1678224808000,365323951000000,,,-1361894702049002196,0.0,14.094932522443774,233.0,1.0,1185,34,0.0,83968,250425912628274,1000000000,23.409194946289062,439.8759546834781,299792458,16,4785.247568754772,340282346638528860000000000000000000000,1575420030,,,,0,,6,,19.309194564819336,-4.394678398966788,1.5000000237487257,-4.394678398966788,1.5000000237487257,C,1659621514256000
Raw,1678224808000,365323951000000,,,-1361894702049002196,0.0,14.094932522443774,233.0,1.0,1185,15,0.0,16384,250425920082788,1000000000,11.0,-64.95236033807959,299792458,16,562.0955433442393,340282346638528860000000000000000000000,1176450050,,,,0,,6,,7.0,-9.566405788064,1.6850406804353126,-9.566405788064,1.5000000237487257,Q,1659621514256000
Raw,1678224808000,365323951000000,,,-1361894702049002196,0.0,14.094932522443774,233.0,1.0,1185,18,0.0,16384,250425935431968,1000000000,11.0,0.7502896668452963,299792458,16,-522883.7304725237,340282346638528860000000000000000000000,1176450050,,,,1,,6,,7.0,-4.025269299745559,1.6850406804353126,-4.025269299745559,1.5000000237487257,Q,1659621514256000
Raw,1678224808000,365323951000000,,,-1361894702049002196,0.0,14.094932522443774,233.0,1.0,1185,19,0.0,16384,250425906192383,1000000000,11.0,235.3394645373753,299792458,16,4367.106382729207,340282346638528860000000000000000000000,1176450050,,,,1,,6,,7.0,-1.2547010555863385,1.6850406804353126,-1.2547010555863385,1.5000000237487257,Q,1659621514256000
Raw,1678224808000,365323951000000,,,-1361894702049002196,0.0,14.094932522443774,233.0,1.0,1185,21,0.0,16384,250425912989756,1000000000,13.491294860839844,-302.71717508468873,299792458,16,-2088.494030282059,340282346638528860000000000000000000000,1176450050,,,,1,,6,,9.491294860839844,-6.42642844468355,1.6850406804353126,-6.42642844468355,1.5000000237487257,Q,1659621514256000
Raw,1678224808000,365323951000000,,,-1361894702049002196,0.0,14.094932522443774,233.0,1.0,1185,27,0.0,16384,250425921001100,1000000000,11.0,9.947009669406398,299792458,16,1503.3189080606949,340282346638528860000000000000000000000,1176450050,,,,1,,6,,7.0,-6.241723895072936,1.6850406804353126,-6.241723895072936,1.5000000237487257,Q,1659621514256000
Raw,1678224808000,365323951000000,,,-1361894702049002196,0.0,14.094932522443774,233.0,1.0,1185,30,0.0,16384,250425913217349,1000000000,11.0,376.4756327299201,299792458,16,5785.057908169895,340282346638528860000000000000000000000,1176450050,,,,1,,6,,7.0,-5.872314795851706,1.6850406804353126,-5.872314795851706,1.5000000237487257,Q,1659621514256000
Raw,1678224808000,365323951000000,,,-1361894702049002196,0.0,14.094932522443774,233.0,1.0,1185,34,0.0,16384,250425912628780,1000000000,11.0,439.2357157376971,299792458,16,6689.4371270098745,340282346638528860000000000000000000000,1176450050,,,,1,,6,,7.0,-7.904064841568468,1.6850406804353126,-7.904064841568468,1.5000000237487257,Q,1659621514256000
Status,1678224807000,21,0,3,19,1603687550,32.51,61.0,76.0,1,1,1,28.411821
Status,1678224807000,21,1,6,27,1575420030,33.08,10.0,70.0,0,1,1,28.983995
Status,1678224807000,21,2,1,19,1575420030,45.01,29.0,70.0,1,1,1,40.90605
Status,1678224807000,21,3,6,15,1575420030,23.66,106.0,59.0,0,1,1,19.555458
Status,1678224807000,21,4,6,18,1575420030,27.21,52.0,57.0,0,1,1,23.108414
Status,1678224807000,21,5,1,6,1575420030,38.88,132.0,52.0,1,1,1,34.782402
Status,1678224807000,21,6,1,24,1575420030,46.47,295.0,51.0,1,1,1,42.3657
Status,1678224807000,21,7,3,16,1601437440,39.54,110.0,42.0,1,1,1,35.439354
Status,1678224807000,21,8,1,17,1575420030,43.41,45.0,39.0,1,1,1,39.30574
Status,1678224807000,21,9,3,20,1603124990,22.48,198.0,34.0,0,1,1,18.376476
Status,1678224807000,21,10,6,30,1575420030,22.62,93.0,33.0,0,1,1,18.522028
Status,1678224807000,21,11,6,21,1575420030,25.92,302.0,30.0,0,1,1,21.819714
Status,1678224807000,21,12,3,18,1600312450,46.46,31.0,30.0,1,1,1,42.36144
Status,1678224807000,21,13,6,34,1575420030,23.41,44.0,27.0,0,1,1,19.309195
Status,1678224807000,21,14,1,11,1575420030,34.03,176.0,26.0,0,1,1,29.926493
Status,1678224807000,21,15,3,10,1598062460,36.58,322.0,24.0,1,1,1,32.482944
Status,1678224807000,21,16,1,14,1575420030,37.54,94.0,21.0,1,1,1,33.44297
Status,1678224807000,21,17,1,12,1575420030,42.35,295.0,21.0,1,1,1,38.245316
Status,1678224807000,21,18,6,19,1575420030,20.06,289.0,16.0,1,1,1,15.956505
Status,1678224807000,21,19,1,13,1575420030,22.25,206.0,12.0,0,1,1,18.149614
Status,1678224807000,21,20,1,15,1575420030,19.85,234.0,10.0,0,1,1,15.74542
Fix,GPS,37.4216849176,-122.1586701802,-9.96495175861083,1.473374,5.5405574,40.444946,1678224808000,0.2676686,25.0,1659621514256000,5.296096
Fix,FLP,37.4216755000,-122.1587165000,-8.5,1.2979501,12.914,72.29311,1678224809785,,,1659621793861346,2.156506
Fix,FLP,37.4216774000,-122.1587122000,-8.5,1.343883,13.03,72.55633,1678224810328,,,1659622336439593,2.156506
Raw,1678224809000,365324951000000,,,-1361894702049001963,0.0,13.599645625108991,233.0,1.0,1185,6,0.0,16431,250426929910262,33,31.820398330688477,-255.30495052720937,0.7038786139156361,16,-6782.718998805101,340282346638528860000000000000000000000,1575420030,,,,0,,1,,27.72039794921875,0.320142130558394,1.0,0.320142130558394,1.0,C,1659622514270000
Raw,1678224809000,365324951000000,,,-1361894702049001963,0.0,13.599645625108991,233.0,1.0,1185,11,0.0,16419,250426922557334,29,33.057151794433594,-597.2371103861633,0.6469404753620887,16,-10527.007766460909,340282346638528860000000000000000000000,1575420030,,,,0,,1,,28.9571533203125,-0.20372681261465636,1.0,-0.20372681261465636,1.0,C,1659622514270000
Raw,1678224809000,365324951000000,,,-1361894702049001963,0.0,13.599645625108991,233.0,1.0,1185,12,0.0,16419,250426921743679,13,43.41531753540039,-457.58727812257825,0.15,17,-8221.199163911555,0.09612994109102314,1575420030,,,,0,,1,,39.3153190612793,-0.6984919076624261,1.0,-0.6984919076624261,1.0,C,1659622514270000
Raw,1678224809000,365324951000000,,,-1361894702049001963,0.0,13.599645625108991,233.0,1.0,1185,13,0.0,16384,250426918442288,1000000000,20.63996696472168,691.2005344019863,299792458,16,10388.425909216883,340282346638528860000000000000000000000,1575420030,,,,0,,1,,16.539966583251953,0.0,1.0,0.0,1.0,C,1659622514270000
Raw,1678224809000,365324951000000,,,-1361894702049001963,0.0,13.599645625108991,233.0,1.0,1185,14,0.0,16423,250426921403768,29,33.42998123168945,546.7781357515121,0.6299672788791333,16,541028.5617090738,340282346638528860000000000000000000000,1575420030,,,,0,,1,,29.32998275756836,-0.2619344840127561,1.0,-0.2619344840127561,1.0,C,1659622514270000
Raw,1678224809000,365324951000000,,,-1361894702049001963,0.0,13.599645625108991,233.0,1.0,1185,15,0.0,16384,250426916946234,1000000000,19.465843200683594,592.6016236394089,299792458,16,9374.254664005937,340282346638528860000000000000000000000,1575420030,,,,0,,1,,15.365843772888184,-0.4074536252293127,1.0,-0.4074536252293127,1.0,C,1659622514270000
Raw,1678224809000,365324951000000,,,-1361894702049001963,0.0,13.599645625108991,233.0,1.0,1185,17,0.0,16431,250426925722016,16,40.39494323730469,557.6413052839405,0.15,16,1102866.7408228398,340282346638528860000000000000000000000,1575420030,,,,0,,1,,36.294944763183594,-0.7858034271858065,1.0,-0.7858034271858065,1.0,C,1659622514270000
Raw,1678224809000,365324951000000,,,-1361894702049001963,0.0,13.599645625108991,233.0,1.0,1185,19,0.0,16431,250426932344249,11,44.523475646972656,271.8639461112733,0.15,17,-520356.7236961536,0.09601218635271093,1575420030,,,,0,,1,,40.42347717285156,0.0,1.0,0.0,1.0,C,1659622514270000
Raw,1678224809000,365324951000000,,,-1361894702049001963,0.0,13.599645625108991,233.0,1.0,1185,24,0.0,16397,250426929312605,13,45.78676223754883,-147.869157478626,0.15,16,-3472.6768803653476,340282346638528860000000000000000000000,1575420030,,,,0,,1,,41.686763763427734,-0.20372681261465636,1.0,-0.20372681261465636,1.0,C,1659622514270000
Raw,1678224809000,365324951000000,,,-1361894702049001963,0.0,13.599645625108991,233.0,1.0,1185,6,0.0,16384,250426929910108,1000000000,11.0,-255.13605491391058,299792458,16,-4858.4589624102855,340282346638528860000000000000000000000,1176450050,,,,1,,1,,7.0,1.9208527336454408,1.185040656686587,1.9208527336454408,1.0,Q,1659622514270000
Raw,1678224809000,365324951000000,,,-1361894702049001963,0.0,13.599645625108991,233.0,1.0,1185,11,0.0,16384,250426922557150,1000000000,11.0,-597.5172000138678,299792458,16,-8589.638580575875,340282346638528860000000000000000000000,1176450050,,,,1,,1,,7.0,0.0,1.185040656686587,0.0,1.0,Q,1659622514270000
Raw,1678224809000,365324951000000,,,-1361894702049001963,0.0,13.599645625108991,233.0,1.0,1185,14,0.0,16384,250426921403567,1000000000,11.0,546.3964463209131,299792458,16,543730.6710008469,340282346638528860000000000000000000000,1176450050,,,,1,,1,,7.0,0.0,1.185040656686587,0.0,1.0,Q,1659622514270000
Raw,1678224809000,365324951000000,,,-1361894702049001963,0.0,13.599645625108991,233.0,1.0,1185,24,0.0,16384,250426929312404,1000000000,11.0,-147.43636140447109,299792458,16,-1552.2308513948235,340282346638528860000000000000000000000,1176450050,,,,0,,1,,7.0,3.5215636101095664,1.185040656686587,3.5215636101095664,1.0,Q,1659622514270000
Raw,1678224809000,365324951000000,,,-1361894702049001963,0.0,13.599645625108991,233.0,1.0,1185,10,0.0,32867,2008925708825,50,35.079612731933594,-574.3516951398788,0.5565597251531083,16,-13099.963524837665,340282346638528860000000000000000000000,1598062460,,,,0,,3,,30.979612350463867,55.87935447692871,2.0000000474974513,55.87935447692871,2.0000000474974513,C,1659622514270000
Raw,1678224809000,365324951000000,,,-1361894702049001963,0.0,13.599645625108991,233.0,1.0,1185,18,0.0,32995,2008927583552,33,43.622802734375,753.5645451825117,0.15,17,335677.71758055047,0.09461181672411524,1600312450,,,,0,,3,,39.522804260253906,55.87935447692871,2.0000000474974513,55.87935447692871,2.0000000474974513,C,1659622514270000
Raw,1678224809000,365324951000000,,,-1361894702049001963,0.0,13.599645625108991,233.0,1.0,1185,16,0.0,32833,2008930706776,38,38.65813446044922,471.2648065023777,0.15,16,2736409.6745043797,340282346638528860000000000000000000000,1601437440,,,,0,,3,,34.558135986328125,55.87935447692871,2.0000000474974513,55.87935447692871,2.0000000474974513,C,1659622514270000
Raw,1678224809000,365324951000000,,,-1361894702049001963,0.0,13.599645625108991,233.0,1.0,1185,20,0.0,32768,2008928705895,1000000000,24.659080505371094,-638.511510554591,299792458,21,1038906.176469737,0.10139592686834722,1603124990,,,,0,,3,,20.559080123901367,55.87935447692871,2.0000000474974513,55.87935447692871,2.0000000474974513,C,1659622514270000
Raw,1678224809000,365324951000000,,,-1361894702049001963,0.0,13.599645625108991,233.0,1.0,1185,19,0.0,32867,2008935430530,68,31.37984848022461,189.81007416681382,0.724682625257917,16,1052233.8759519472,340282346638528860000000000000000000000,1603687550,,,,0,,3,,27.279848098754883,55.87935447692871,2.0000000474974513,55.87935447692871,2.0000000474974513,C,1659622514270000
Raw,1678224809000,365324951000000,,,-1361894702049001963,0.0,13.599645625108991,233.0,1.0,1185,15,0.0,84002,250426920082090,1000000000,17.343965530395508,-64.48885597059763,299792458,16,-1416.5894316135368,340282346638528860000000000000000000000,1575420030,,,,0,,6,,13.243966102600098,-4.394678398966788,1.5000000237487257,-4.394678398966788,1.5000000237487257,C,1659622514270000
Raw,1678224809000,365324951000000,,,-1361894702049001963,0.0,13.599645625108991,233.0,1.0,1185,18,0.0,84002,250426935431438,1000000000,15.212583541870117,0.929556931127383,299792458,16,-524764.2287855176,340282346638528860000000000000000000000,1575420030,,,,0,,6,,11.11258316040039,-4.394678398966788,1.5000000237487257,-4.394678398966788,1.5000000237487257,C,1659622514270000
Raw,1678224809000,365324951000000,,,-1361894702049001963,0.0,13.599645625108991,233.0,1.0,1185,19,0.0,85026,250426906191093,87,20.696002960205078,235.96378697596015,299.79358196416206,16,2685.755811391689,340282346638528860000000000000000000000,1575420030,,,,1,,6,,16.59600257873535,-4.394678398966788,1.5000000237487257,-4.394678398966788,1.5000000237487257,C,1659622514270000
Raw,1678224809000,365324951000000,,,-1361894702049001963,0.0,13.599645625108991,233.0,1.0,1185,21,0.0,84002,250426912990252,1000000000,14.810155868530273,-302.237975745978,299792458,16,-4305.189971812866,340282346638528860000000000000000000000,1575420030,,,,0,,6,,10.710155487060547,-4.394678398966788,1.5000000237487257,-4.394678398966788,1.5000000237487257,C,1659622514270000
Raw,1678224809000,365324951000000,,,-1361894702049001963,0.0,13.599645625108991,233.0,1.0,1185,27,0.0,83968,250426921000597,1000000000,32.676231384277344,9.206249843495208,299792458,16,-373.56482533815336,340282346638528860000000000000000000000,1575420030,,,,1,,6,,28.576231002807617,-4.394678398966788,1.5000000237487257,-4.394678398966788,1.5000000237487257,C,1659622514270000
Raw,1678224809000,365324951000000,,,-1361894702049001963,0.0,13.599645625108991,233.0,1.0,1185,30,0.0,84002,250426913215579,1000000000,19.3952693939209,376.7015653342098,299792458,16,4299.663007402015,340282346638528860000000000000000000000,1575420030,,,,0,,6,,15.295269012451172,-4.394678398966788,1.5000000237487257,-4.394678398966788,1.5000000237487257,C,1659622514270000
Raw,1678224809000,365324951000000,,,-1361894702049001963,0.0,13.599645625108991,233.0,1.0,1185,34,0.0,83968,250426912627496,1000000000,26.31172752380371,438.9001398707735,299792458,16,5223.963579988129,340282346638528860000000000000000000000,1575420030,,,,1,,6,,22.211727142333984,-4.394678398966788,1.5000000237487257,-4.394678398966788,1.5000000237487257,C,1659622514270000
Raw,1678224809000,365324951000000,,,-1361894702049001963,0.0,13.599645625108991,233.0,1.0,1185,15,0.0,16384,250426920083009,1000000000,11.0,-65.42821959605106,299792458,16,497.31896435187616,340282346638528860000000000000000000000,1176450050,,,,1,,6,,7.0,-9.566405788064,1.6850406804353126,-9.566405788064,1.5000000237487257,Q,1659622514270000
Raw,1678224809000,365324951000000,,,-1361894702049001963,0.0,13.599645625108991,233.0,1.0,1185,18,0.0,16384,250426935431967,1000000000,11.0,0.35212123538296813,299792458,16,-522885.5168387152,340282346638528860000000000000000000000,1176450050,,,,1,,6,,7.0,-4.025269299745559,1.6850406804353126,-4.025269299745559,1.5000000237487257,Q,1659622514270000
Raw,1678224809000,365324951000000,,,-1361894702049001963,0.0,13.599645625108991,233.0,1.0,1185,19,0.0,16384,250426906191591,1000000000,11.0,237.08751964997373,299792458,16,4602.470789761674,340282346638528860000000000000000000000,1176450050,,,,0,,6,,7.0,-1.2547010555863385,1.6850406804353126,-1.2547010555863385,1.5000000237487257,Q,1659622514270000
Raw,1678224809000,365324951000000,,,-1361894702049001963,0.0,13.599645625108991,233.0,1.0,1185,21,0.0,16384,250426912990757,1000000000,14.135591506958008,-302.60064716583724,299792458,16,-2391.638753266902,340282346638528860000000000000000000000,1176450050,,,,0,,6,,10.135591506958008,-6.42642844468355,1.6850406804353126,-6.42642844468355,1.5000000237487257,Q,1659622514270000
Raw,1678224809000,365324951000000,,,-1361894702049001963,0.0,13.599645625108991,233.0,1.0,1185,27,0.0,16384,250426921001065,1000000000,11.0,9.947009669406398,299792458,16,1513.154430504733,340282346638528860000000000000000000000,1176450050,,,,1,,6,,7.0,-6.241723895072936,1.6850406804353126,-6.241723895072936,1.5000000237487257,Q,1659622514270000
Raw,1678224809000,365324951000000,,,-1361894702049001963,0.0,13.599645625108991,233.0,1.0,1185,30,0.0,16384,250426913216090,1000000000,11.0,376.2036888093246,299792458,16,6163.194826614826,340282346638528860000000000000000000000,1176450050,,,,0,,6,,7.0,-5.872314795851706,1.6850406804353126,-5.872314795851706,1.5000000237487257,Q,1659622514270000
Raw,1678224809000,365324951000000,,,-1361894702049001963,0.0,13.599645625108991,233.0,1.0,1185,34,0.0,16384,250426912627315,1000000000,11.0,439.0609068181916,299792458,16,7128.360748099999,340282346638528860000000000000000000000,1176450050,,,,0,,6,,7.0,-7.904064841568468,1.6850406804353126,-7.904064841568468,1.5000000237487257,Q,1659622514270000
Status,1678224808000,21,0,3,19,1603687550,32.40,61.0,76.0,1,1,1,28.298624
Status,1678224808000,21,1,6,27,1575420030,33.04,10.0,70.0,0,1,1,28.943218
Status,1678224808000,21,2,1,19,1575420030,44.96,29.0,70.0,1,1,1,40.857796
Status,1678224808000,21,3,6,15,1575420030,23.02,106.0,59.0,0,1,1,18.924309
Status,1678224808000,21,4,6,18,1575420030,26.01,52.0,57.0,0,1,1,21.90883
Status,1678224808000,21,5,1,6,1575420030,38.18,132.0,52.0,1,1,1,34.076202
Status,1678224808000,21,6,1,24,1575420030,46.40,295.0,51.0,1,1,1,42.297806
Status,1678224808000,21,7,3,16,1601437440,39.45,110.0,42.0,1,1,1,35.35123
Status,1678224808000,21,8,1,17,1575420030,43.10,45.0,39.0,1,1,1,39.00466
Status,1678224808000,21,9,3,20,1603124990,24.66,198.0,34.0,0,1,1,20.55908
Status,1678224808000,21,10,6,30,1575420030,22.30,93.0,33.0,0,1,1,18.199352
Status,1678224808000,21,11,6,21,1575420030,24.81,302.0,30.0,0,1,1,20.708757
Status,1678224808000,21,12,3,18,1600312450,46.18,31.0,30.0,1,1,1,42.077576
Status,1678224808000,21,13,6,34,1575420030,26.31,44.0,27.0,0,1,1,22.211727
Status,1678224808000,21,14,1,11,1575420030,33.93,176.0,26.0,0,1,1,29.82956
Status,1678224808000,21,15,3,10,1598062460,36.43,322.0,24.0,1,1,1,32.33261
Status,1678224808000,21,16,1,14,1575420030,37.13,94.0,21.0,1,1,1,33.03167
Status,1678224808000,21,17,1,12,1575420030,43.42,295.0,21.0,1,1,1,39.31532
Status,1678224808000,21,18,6,19,1575420030,20.70,289.0,16.0,0,1,1,16.596003
Status,1678224808000,21,19,1,13,1575420030,22.09,206.0,12.0,0,1,1,17.98865
Status,1678224808000,21,20,1,15,1575420030,19.81,234.0,10.0,0,1,1,15.707462
Fix,GPS,37.4216934054,-122.1586594402,-9.89223027116693,1.4882064,5.902602,32.876926,1678224809000,0.2520825,25.0,1659622514270000,5.0958676
Fix,FLP,37.4216795000,-122.1587092000,-8.5,1.4019632,13.19,71.67114,1678224810871,,,1659622879042681,2.0546482
Fix,FLP,37.4216820000,-122.1587025000,-8.5,1.4285475,12.634,70.396675,1678224811394,,,1659623402000000,2.0546482
Nav,18,769,1,2,15,120,92,-92,48,123,52,-64,94,-115,-108,24
Nav,16,769,1,-1,15,120,92,-92,48,123,52,-64,94,-115,-108,24
Raw,1678224810000,365325951000000,,,-1361894702049001731,0.0,13.327340581592743,232.0,1.0,1185,6,0.0,16431,250427929911102,31,32.42473220825195,-254.9562529145245,0.6767025145495476,16,-7039.046997993273,340282346638528860000000000000000000000,1575420030,,,,0,,1,,28.324731826782227,0.320142130558394,1.0,0.320142130558394,1.0,C,1659623514337000
Raw,1678224810000,365325951000000,,,-1361894702049001731,0.0,13.327340581592743,232.0,1.0,1185,11,0.0,16419,250427922559318,31,32.58708953857422,-596.9506814215456,0.6680791870781913,16,-11124.384350148539,340282346638528860000000000000000000000,1575420030,,,,0,,1,,28.487089157104492,-0.20372681261465636,1.0,-0.20372681261465636,1.0,C,1659623514337000
Raw,1678224810000,365325951000000,,,-1361894702049001731,0.0,13.327340581592743,232.0,1.0,1185,12,0.0,16419,250427921745211,13,45.483604431152344,-457.1941029041311,0.15,17,-8678.253856872796,0.09596353953293314,1575420030,,,,0,,1,,41.38360595703125,-0.6984919076624261,1.0,-0.6984919076624261,1.0,C,1659623514337000
Raw,1678224810000,365325951000000,,,-1361894702049001731,0.0,13.327340581592743,232.0,1.0,1185,13,0.0,16384,250427918440015,1000000000,20.4067440032959,692.0288062604036,299792458,16,11080.952548862815,340282346638528860000000000000000000000,1575420030,,,,0,,1,,16.306743621826172,0.0,1.0,0.0,1.0,C,1659623514337000
Raw,1678224810000,365325951000000,,,-1361894702049001731,0.0,13.327340581592743,232.0,1.0,1185,14,0.0,16423,250427921401945,34,31.430391311645508,546.7740799391859,0.7198863183099062,16,541575.7761913708,340282346638528860000000000000000000000,1575420030,,,,0,,1,,27.33039093017578,-0.2619344840127561,1.0,-0.2619344840127561,1.0,C,1659623514337000
Raw,1678224810000,365325951000000,,,-1361894702049001731,0.0,13.327340581592743,232.0,1.0,1185,15,0.0,16384,250427916944258,1000000000,19.90416145324707,592.6016236394089,299792458,16,9966.545057101182,340282346638528860000000000000000000000,1575420030,,,,0,,1,,15.80416202545166,-0.4074536252293127,1.0,-0.4074536252293127,1.0,C,1659623514337000
Raw,1678224810000,365325951000000,,,-1361894702049001731,0.0,13.327340581592743,232.0,1.0,1185,17,0.0,16431,250427925720183,16,40.17908477783203,558.0483520621924,0.15,17,1103424.668864569,0.09657379499458497,1575420030,,,,0,,1,,36.07908630371094,-0.7858034271858065,1.0,-0.7858034271858065,1.0,C,1659623514337000
Raw,1678224810000,365325951000000,,,-1361894702049001731,0.0,13.327340581592743,232.0,1.0,1185,19,0.0,16431,250427932343337,12,44.013328552246094,272.14890953026054,0.15,16,-520084.6817257327,340282346638528860000000000000000000000,1575420030,,,,0,,1,,39.913330078125,0.0,1.0,0.0,1.0,C,1659623514337000
Raw,1678224810000,365325951000000,,,-1361894702049001731,0.0,13.327340581592743,232.0,1.0,1185,24,0.0,16397,250427929313086,12,46.32461929321289,-147.3909635723827,0.15,17,-3620.2513348489765,0.09588816945961466,1575420030,,,,0,,1,,42.2246208190918,-0.20372681261465636,1.0,-0.20372681261465636,1.0,C,1659623514337000
Raw,1678224810000,365325951000000,,,-1361894702049001731,0.0,13.327340581592743,232.0,1.0,1185,6,0.0,16384,250427929910959,1000000000,12.032312393188477,-255.01950995383083,299792458,16,-5113.593779395465,340282346638528860000000000000000000000,1176450050,,,,1,,1,,8.032312393188477,1.9208527336454408,1.185040656686587,1.9208527336454408,1.0,Q,1659623514337000
Raw,1678224810000,365325951000000,,,-1361894702049001731,0.0,13.327340581592743,232.0,1.0,1185,11,0.0,16384,250427922559136,1000000000,11.0,-597.6240144326102,299792458,16,-9188.424361475156,340282346638528860000000000000000000000,1176450050,,,,1,,1,,7.0,0.0,1.185040656686587,0.0,1.0,Q,1659623514337000
Raw,1678224810000,365325951000000,,,-1361894702049001731,0.0,13.327340581592743,232.0,1.0,1185,14,0.0,16384,250427921401743,1000000000,11.0,546.9014460792116,299792458,16,544276.898023579,340282346638528860000000000000000000000,1176450050,,,,1,,1,,7.0,0.0,1.185040656686587,0.0,1.0,Q,1659623514337000
Raw,1678224810000,365325951000000,,,-1361894702049001731,0.0,13.327340581592743,232.0,1.0,1185,24,0.0,16384,250427929312894,1000000000,11.0,-147.03819310614335,299792458,16,-1700.2030769167957,340282346638528860000000000000000000000,1176450050,,,,1,,1,,7.0,3.5215636101095664,1.185040656686587,3.5215636101095664,1.0,Q,1659623514337000
Raw,1678224810000,365325951000000,,,-1361894702049001731,0.0,13.327340581592743,232.0,1.0,1185,10,0.0,32867,2009925710758,51,34.95146942138672,-574.2715332021371,0.562322389564677,16,-13674.170630027267,340282346638528860000000000000000000000,1598062460,,,,0,,3,,30.851470947265625,55.87935447692871,2.0000000474974513,55.87935447692871,2.0000000474974513,C,1659623514337000
Raw,1678224810000,365325951000000,,,-1361894702049001731,0.0,13.327340581592743,232.0,1.0,1185,18,0.0,32995,2009927581051,33,43.6569709777832,753.7743567848661,0.15,17,336431.4635088062,0.0946081067424316,1600312450,,,,0,,3,,39.55697250366211,55.87935447692871,2.0000000474974513,55.87935447692871,2.0000000474974513,C,1659623514337000
Raw,1678224810000,365325951000000,,,-1361894702049001731,0.0,13.327340581592743,232.0,1.0,1185,16,0.0,32833,2009930705168,43,36.993656158447266,471.5374320721037,0.15,16,2736881.995956329,340282346638528860000000000000000000000,1601437440,,,,0,,3,,32.89365768432617,55.87935447692871,2.0000000474974513,55.87935447692871,2.0000000474974513,C,1659623514337000
Raw,1678224810000,365325951000000,,,-1361894702049001731,0.0,13.327340581592743,232.0,1.0,1185,20,0.0,32769,2009928708115,111,25.321367263793945,-639.0154537567373,1.0662878917557466,16,1038267.8881416111,340282346638528860000000000000000000000,1603124990,,,,0,,3,,21.22136688232422,55.87935447692871,2.0000000474974513,55.87935447692871,2.0000000474974513,C,1659623514337000
Raw,1678224810000,365325951000000,,,-1361894702049001731,0.0,13.327340581592743,232.0,1.0,1185,19,0.0,32867,2009935429904,70,31.119773864746094,190.14616127058525,0.7363777672579874,16,1052424.6235090564,340282346638528860000000000000000000000,1603687550,,,,0,,3,,27.019773483276367,55.87935447692871,2.0000000474974513,55.87935447692871,2.0000000474974513,C,1659623514337000
Raw,1678224810000,365325951000000,,,-1361894702049001731,0.0,13.327340581592743,232.0,1.0,1185,15,0.0,84002,250427920082702,1000000000,16.4837589263916,-64.78846632527552,299792458,16,-1481.0252440319073,340282346638528860000000000000000000000,1575420030,,,,1,,6,,12.383759498596191,-4.394678398966788,1.5000000237487257,-4.394678398966788,1.5000000237487257,C,1659623514337000
Raw,1678224810000,365325951000000,,,-1361894702049001731,0.0,13.327340581592743,232.0,1.0,1185,18,0.0,85026,250427935432209,45,27.83658218383789,0.7510448728399277,0.882580588703989,16,-524770.7436909933,340282346638528860000000000000000000000,1575420030,,,,0,,6,,23.736581802368164,-4.394678398966788,1.5000000237487257,-4.394678398966788,1.5000000237487257,C,1659623514337000
Raw,1678224810000,365325951000000,,,-1361894702049001731,0.0,13.327340581592743,232.0,1.0,1185,19,0.0,85026,250427906190265,101,17.948333740234375,236.03527492851674,1.327020681174183,16,2921.6887094356525,340282346638528860000000000000000000000,1575420030,,,,1,,6,,13.848333358764648,-4.394678398966788,1.5000000237487257,-4.394678398966788,1.5000000237487257,C,1659623514337000
Raw,1678224810000,365325951000000,,,-1361894702049001731,0.0,13.327340581592743,232.0,1.0,1185,21,0.0,84002,250427912991262,1000000000,25.0408992767334,-302.24189522847814,299792458,16,-4614.302929786223,340282346638528860000000000000000000000,1575420030,,,,0,,6,,20.940898895263672,-4.394678398966788,1.5000000237487257,-4.394678398966788,1.5000000237487257,C,1659623514337000
Raw,1678224810000,365325951000000,,,-1361894702049001731,0.0,13.327340581592743,232.0,1.0,1185,27,0.0,83968,250427921000698,1000000000,34.439292907714844,10.131016591865986,299792458,16,-364.3936135370776,340282346638528860000000000000000000000,1575420030,,,,0,,6,,30.33929443359375,-4.394678398966788,1.5000000237487257,-4.394678398966788,1.5000000237487257,C,1659623514337000
Raw,1678224810000,365325951000000,,,-1361894702049001731,0.0,13.327340581592743,232.0,1.0,1185,30,0.0,84002,250427913214324,1000000000,22.274377822875977,376.68813684633983,299792458,16,4676.120835663895,340282346638528860000000000000000000000,1575420030,,,,0,,6,,18.17437744140625,-4.394678398966788,1.5000000237487257,-4.394678398966788,1.5000000237487257,C,1659623514337000
Raw,1678224810000,365325951000000,,,-1361894702049001731,0.0,13.327340581592743,232.0,1.0,1185,34,0.0,83968,250427912625193,1000000000,23.461023330688477,439.195941510935,299792458,16,5662.884928698619,340282346638528860000000000000000000000,1575420030,,,,1,,6,,19.36102294921875,-4.394678398966788,1.5000000237487257,-4.394678398966788,1.5000000237487257,C,1659623514337000
Raw,1678224810000,365325951000000,,,-1361894702049001731,0.0,13.327340581592743,232.0,1.0,1185,15,0.0,16384,250427920083221,1000000000,11.0,-64.17544222102799,299792458,16,432.33954609696684,340282346638528860000000000000000000000,1176450050,,,,0,,6,,7.0,-9.566405788064,1.6850406804353126,-9.566405788064,1.5000000237487257,Q,1659623514337000
Raw,1678224810000,365325951000000,,,-1361894702049001731,0.0,13.327340581592743,232.0,1.0,1185,18,0.0,16384,250427935431959,1000000000,11.0,0.06563418247694303,299792458,16,-522883.1148143062,340282346638528860000000000000000000000,1176450050,,,,1,,6,,7.0,-4.025269299745559,1.6850406804353126,-4.025269299745559,1.5000000237487257,Q,1659623514337000
Raw,1678224810000,365325951000000,,,-1361894702049001731,0.0,13.327340581592743,232.0,1.0,1185,19,0.0,16384,250427906190774,1000000000,11.0,236.32518030369977,299792458,16,4840.439431071322,340282346638528860000000000000000000000,1176450050,,,,1,,6,,7.0,-1.2547010555863385,1.6850406804353126,-1.2547010555863385,1.5000000237487257,Q,1659623514337000
Raw,1678224810000,365325951000000,,,-1361894702049001731,0.0,13.327340581592743,232.0,1.0,1185,21,0.0,16384,250427912991772,1000000000,11.0,-302.34813024545974,299792458,16,-2693.5671892866903,340282346638528860000000000000000000000,1176450050,,,,0,,6,,7.0,-6.42642844468355,1.6850406804353126,-6.42642844468355,1.5000000237487257,Q,1659623514337000
Raw,1678224810000,365325951000000,,,-1361894702049001731,0.0,13.327340581592743,232.0,1.0,1185,27,0.0,16384,250427921001027,1000000000,11.0,10.90844062038159,299792458,16,1523.6576571818214,340282346638528860000000000000000000000,1176450050,,,,1,,6,,7.0,-6.241723895072936,1.6850406804353126,-6.241723895072936,1.5000000237487257,Q,1659623514337000
Raw,1678224810000,365325951000000,,,-1361894702049001731,0.0,13.327340581592743,232.0,1.0,1185,30,0.0,16384,250427913214839,1000000000,11.0,376.6892956498616,299792458,16,6539.57014737449,340282346638528860000000000000000000000,1176450050,,,,0,,6,,7.0,-5.872314795851706,1.6850406804353126,-5.872314795851706,1.5000000237487257,Q,1659623514337000
Raw,1678224810000,365325951000000,,,-1361894702049001731,0.0,13.327340581592743,232.0,1.0,1185,34,0.0,16384,250427912625851,1000000000,11.0,438.8860978986861,299792458,16,7566.885499163971,340282346638528860000000000000000000000,1176450050,,,,1,,6,,7.0,-7.904064841568468,1.6850406804353126,-7.904064841568468,1.5000000237487257,Q,1659623514337000
Status,1678224809000,21,0,3,19,1603687550,32.27,61.0,76.0,1,1,1,28.170738
Status,1678224809000,21,1,6,27,1575420030,34.44,10.0,70.0,0,1,1,30.339294
Status,1678224809000,21,2,1,19,1575420030,44.86,29.0,70.0,1,1,1,40.763348
Status,1678224809000,21,3,6,15,1575420030,22.37,106.0,59.0,0,1,1,18.270254
Status,1678224809000,21,4,6,18,1575420030,27.84,52.0,57.0,1,1,1,23.736582
Status,1678224809000,21,5,1,6,1575420030,37.60,132.0,52.0,1,1,1,33.501057
Status,1678224809000,21,6,1,24,1575420030,46.39,295.0,51.0,1,1,1,42.29049
Status,1678224809000,21,7,3,16,1601437440,39.21,110.0,42.0,1,1,1,35.105473
Status,1678224809000,21,8,1,17,1575420030,42.81,45.0,39.0,1,1,1,38.712105
Status,1678224809000,21,9,3,20,1603124990,25.32,198.0,34.0,1,1,1,21.221367
Status,1678224809000,21,10,6,30,1575420030,22.30,93.0,33.0,0,1,1,18.196856
Status,1678224809000,21,11,6,21,1575420030,25.04,302.0,30.0,0,1,1,20.940899
Status,1678224809000,21,12,3,18,1600312450,45.93,31.0,30.0,1,1,1,41.825516
Status,1678224809000,21,13,6,34,1575420030,26.03,44.0,27.0,0,1,1,21.926657
Status,1678224809000,21,14,1,11,1575420030,33.80,176.0,26.0,0,1,1,29.695312
Status,1678224809000,21,15,3,10,1598062460,36.28,322.0,24.0,1,1,1,32.184498
Status,1678224809000,21,16,1,14,1575420030,36.56,94.0,21.0,1,1,1,32.46154
Status,1678224809000,21,17,1,12,1575420030,45.48,295.0,21.0,1,1,1,41.383606
Status,1678224809000,21,18,6,19,1575420030,20.42,289.0,16.0,0,1,1,16.321236
Status,1678224809000,21,19,1,13,1575420030,21.92,206.0,12.0,0,1,1,17.82046
Status,1678224809000,21,20,1,15,1575420030,19.90,234.0,10.0,0,1,1,15.804162
Fix,GPS,37.4217046693,-122.1586495325,-9.945703474998405,1.5022868,5.528423,39.952866,1678224810000,0.24399756,25.0,1659623514337000,4.9578657
Fix,FLP,37.4216854000,-122.1586949000,-8.5,1.462632,12.568,69.18653,1678224811925,,,1659623934000000,2.230869
Fix,NLP,37.4218043000,-122.1589390000,-8.600000381469727,,21.509,,1678224812320,,,1659624328000000,1.0
Nav,14,257,1,-1,3,34,-64,-52,54,20,97,75,108,0,2,-111,27,62,53,91,-87,0,5,73,-106,42,-37,-74,-42,9,-111,-96,-66,36,88,-124,-59,63,-24,120,42,21,65,26,107
Nav,17,257,1,-1,3,34,-64,-52,54,20,97,75,108,0,23,-36,14,53,-121,50,-102,0,13,9,-6,47,-83,-109,-125,5,-109,-79,-76,18,-116,-38,-46,63,-21,69,-11,22,58,-88,-48
Nav,19,257,1,-1,3,34,-64,-52,54,20,97,75,108,63,-17,-100,-122,41,-58,98,-43,63,-11,73,-41,45,47,91,15,5,-85,-106,-27,42,-124,55,67,63,-22,81,10,6,123,-58,-113
Nav,24,257,1,-1,3,34,-64,-52,54,20,97,75,108,63,-37,69,93,27,-4,-81,-80,0,8,73,-120,4,127,115,107,4,-96,9,19,8,104,116,54,63,-23,25,55,2,3,-18,56
Status,1678224810000,21,0,3,19,1603687550,32.25,61.0,76.0,1,1,1,28.152687
Status,1678224810000,21,1,6,27,1575420030,35.31,10.0,70.0,0,1,1,31.208942
Status,1678224810000,21,2,1,19,1575420030,44.75,29.0,70.0,1,1,1,40.653236
Status,1678224810000,21,3,6,15,1575420030,22.05,106.0,59.0,0,1,1,17.94904
Status,1678224810000,21,4,6,18,1575420030,29.38,52.0,57.0,0,1,1,25.276024
Status,1678224810000,21,5,1,6,1575420030,37.41,132.0,52.0,1,1,1,33.30686
Status,1678224810000,21,6,1,24,1575420030,46.63,295.0,51.0,1,1,1,42.53173
Status,1678224810000,21,7,3,16,1601437440,38.82,110.0,42.0,1,1,1,34.717342
Status,1678224810000,21,8,1,17,1575420030,42.64,45.0,39.0,1,1,1,38.536617
Status,1678224810000,21,9,3,20,1603124990,25.30,198.0,34.0,0,1,1,21.195112
Status,1678224810000,21,10,6,30,1575420030,22.27,94.0,33.0,0,1,1,18.17029
Status,1678224810000,21,11,6,21,1575420030,25.88,302.0,30.0,0,1,1,21.777338
Status,1678224810000,21,12,3,18,1600312450,45.65,31.0,30.0,1,1,1,41.5541
Status,1678224810000,21,13,6,34,1575420030,25.71,44.0,27.0,0,1,1,21.61003
Status,1678224810000,21,14,1,11,1575420030,33.60,176.0,26.0,0,1,1,29.504045
Status,1678224810000,21,15,3,10,1598062460,36.34,322.0,24.0,1,1,1,32.24154
Status,1678224810000,21,16,1,14,1575420030,35.96,94.0,21.0,1,1,1,31.856594
Status,1678224810000,21,17,1,12,1575420030,46.88,295.0,21.0,1,1,1,42.780575
Status,1678224810000,21,18,6,19,1575420030,20.11,289.0,16.0,0,1,1,16.01412
Status,1678224810000,21,19,1,13,1575420030,21.90,206.0,12.0,0,1,1,17.800957
Status,1678224810000,21,20,1,15,1575420030,20.22,234.0,10.0,0,1,1,16.124783
Raw,1678224811000,365326951000000,,,-1361894702049001498,0.0,13.086085607334281,232.0,1.0,1185,6,0.0,16431,250428929911978,24,35.65912628173828,-254.12873087015066,0.5312555647711563,16,-7292.503058145014,340282346638528860000000000000000000000,1575420030,,,,0,,1,,31.559127807617188,0.320142130558394,1.0,0.320142130558394,1.0,C,1659624514429000
Raw,1678224811000,365326951000000,,,-1361894702049001498,0.0,13.086085607334281,232.0,1.0,1185,11,0.0,16431,250428922561349,32,31.88265037536621,-596.4938401743138,0.6997573659355898,16,-11720.795815205234,340282346638528860000000000000000000000,1575420030,,,,0,,1,,27.782649993896484,-0.20372681261465636,1.0,-0.20372681261465636,1.0,C,1659624514429000
Raw,1678224811000,365326951000000,,,-1361894702049001498,0.0,13.086085607334281,232.0,1.0,1185,12,0.0,16431,250428921746733,12,46.88057327270508,-457.24897565913284,0.15,25,-9135.18297495922,0.0006953695556148887,1575420030,,,,0,,1,,42.780574798583984,-0.6984919076624261,1.0,-0.6984919076624261,1.0,C,1659624514429000
Raw,1678224811000,365326951000000,,,-1361894702049001498,0.0,13.086085607334281,232.0,1.0,1185,13,0.0,16384,250428918437670,1000000000,21.725433349609375,689.179990049488,299792458,16,11773.481520391202,340282346638528860000000000000000000000,1575420030,,,,0,,1,,17.62543296813965,0.0,1.0,0.0,1.0,C,1659624514429000
Raw,1678224811000,365326951000000,,,-1361894702049001498,0.0,13.086085607334281,232.0,1.0,1185,14,0.0,16431,250428921400096,36,30.512069702148438,547.4039578181839,0.7611818740981438,16,542122.8528914494,340282346638528860000000000000000000000,1575420030,,,,0,,1,,26.41206932067871,-0.2619344840127561,1.0,-0.2619344840127561,1.0,C,1659624514429000
Raw,1678224811000,365326951000000,,,-1361894702049001498,0.0,13.086085607334281,232.0,1.0,1185,15,0.0,16384,250428916942279,1000000000,20.224782943725586,592.2303293580494,299792458,16,10559.115679756133,340282346638528860000000000000000000000,1575420030,,,,0,,1,,16.12478256225586,-0.4074536252293127,1.0,-0.4074536252293127,1.0,C,1659624514429000
Raw,1678224811000,365326951000000,,,-1361894702049001498,0.0,13.086085607334281,232.0,1.0,1185,17,0.0,16431,250428925718320,15,41.05724334716797,558.013315296887,0.15,25,1103982.8904303617,0.0012897439301013947,1575420030,,,,0,,1,,36.957244873046875,-0.7858034271858065,1.0,-0.7858034271858065,1.0,C,1659624514429000
Raw,1678224811000,365326951000000,,,-1361894702049001498,0.0,13.086085607334281,232.0,1.0,1185,19,0.0,16431,250428932342434,12,43.76224899291992,272.6042852318618,0.15,16,-519812.49766926776,340282346638528860000000000000000000000,1575420030,,,,0,,1,,39.66225051879883,0.0,1.0,0.0,1.0,C,1659624514429000
Raw,1678224811000,365326951000000,,,-1361894702049001498,0.0,13.086085607334281,232.0,1.0,1185,24,0.0,16397,250428929313579,12,46.63172912597656,-147.67135994219586,0.15,25,-3767.5804737813287,0.0007155797793529928,1575420030,,,,0,,1,,42.53173065185547,-0.20372681261465636,1.0,-0.20372681261465636,1.0,C,1659624514429000
