Fix,Provider,LatitudeDegrees,LongitudeDegrees,AltitudeMeters,SpeedMps,AccuracyMeters,BearingDegrees,UnixTimeMillis,SpeedAccuracyMps,BearingAccuracyDegrees,elapsedRealtimeNanos,VerticalAccuracyMeters,TransitType
Fix,GPS,37.803741041,-122.4144300003,-9.11914560242427,0.0,23.920948,,1677284231040,0.70544016,,719030388156563,15.4892235,Car
Fix,FLP,37.8037387,-122.414462,-24.0,0.24122089,23.921,302.64456,1677284232096,0.70544016,,719030388156563,1.2621819,Car
Fix,NLP,37.8038838,-122.4143401,,,600.0,,1677284232604,,,719030897000000,,Car
Fix,FLP,37.80374,-122.4144492,-24.0,0.19053715,27.228,37.796616,1677284232605,0.70544016,,719030897000000,1.2621819,Car
Fix,GPS,37.8035210284,-122.4145207137,-10.306184361770931,0.0,14.570277,,1677284232040,0.564996,,719031411683744,18.719465,Car
Fix,FLP,37.8035796,-122.4145015,-24.0,7.2881823,23.008,193.95448,1677284233119,0.564996,,719031411683744,1.2696406,Car
Fix,GPS,37.8035451178,-122.4145151717,-7.875444067870741,0.0,14.409798,,1677284233040,0.5233515,,719032479151518,21.843235,Car
Fix,FLP,37.8035293,-122.4145189,-24.0,6.2564783,19.601,194.59615,1677284234186,0.5233515,,719032479151518,1.2730219,Car
Fix,GPS,37.8035646207,-122.4145153221,-0.6412277195502512,0.0,13.606449,,1677284234040,20.0,,719033451458729,15.31818,Car
Fix,FLP,37.8035359,-122.4145211,-24.0,2.6034038,18.003,199.3865,1677284235158,20.0,,719033451458729,1.2578788,Car
Fix,FLP,37.8035766,-122.4144958,-24.0,1.336991,16.656,35.359825,1677284236180,0.33520144,,719034472814198,1.2613862,Car
Fix,GPS,37.8035964441,-122.4144805966,-3.5200064528274044,0.0,10.275615,,1677284235040,0.33520144,,719034472814198,10.82605,Car
Fix,GPS,37.8036111012,-122.4144652393,-4.8144928975983206,0.0,8.628313,,1677284235999,0.31705987,,719035409028920,8.999986,Car
Fix,FLP,37.8036053,-122.4144703,-24.0,2.6152894,14.956,35.102062,1677284237117,0.31705987,,719035409028920,1.2816235,Car
Fix,NLP,37.8038838,-122.4143401,,,600.0,,1677284237624,,,719035916000000,,Car
Fix,FLP,37.8036137,-122.4144629,-24.0,2.5057335,13.254,35.08492,1677284237624,0.31705987,,719035916000000,1.2816235,Car
Fix,GPS,37.8036182524,-122.4144588491,-5.672138742633208,0.0,7.752116,,1677284236999,0.3969962,,719036430254873,7.772452,Car
Fix,FLP,37.8036195,-122.4144577,-24.0,2.2317433,12.497,35.057755,1677284238138,0.3969962,,719036430254873,1.3153821,Car
Fix,GPS,37.8036243567,-122.4144626133,-6.302750853020675,1.1344023,6.942463,271.9449,1677284237999,0.30923185,14.287671,719037418332510,6.862162,Car
Fix,FLP,37.8036238,-122.4144635,-24.0,1.130069,11.941,271.1433,1677284239126,0.30923185,14.287671,719037418332510,1.3235897,Car
Fix,GPS,37.8036206849,-122.4144783513,-7.156852364748262,2.1651278,6.442169,265.9289,1677284238999,0.32331008,10.0,719038361544000,6.3616395,Car
Fix,FLP,37.8036227,-122.4144733,-24.0,2.1284118,9.934,265.1811,1677284240068,0.32331008,10.0,719038361544000,1.3295847,Car
Fix,GPS,37.8036142627,-122.4145093782,-8.14758074275733,2.813374,6.067148,259.83554,1677284239999,0.25922304,10.0,719039361566000,5.923456,Car
Fix,FLP,37.8036175,-122.4145013,-24.0,2.8069067,8.301,259.15707,1677284241068,0.25922304,10.0,719039361566000,1.3329861,Car
Fix,GPS,37.8036006539,-122.4145543962,-8.77994398155701,3.1019318,5.806262,256.50748,1677284240999,0.29393718,10.0,719040361911000,5.634782,Car
Fix,FLP,37.8036071,-122.4145387,-24.0,3.0955586,7.488,256.15424,1677284242069,0.29393718,10.0,719040361911000,1.3253253,Car
Fix,GPS,37.8035922644,-122.414602324,-9.27629253955352,3.5891912,5.45513,261.36078,1677284241999,0.31567487,10.0,719041361876000,5.372604,Car
Fix,FLP,37.8035967,-122.4145817,-24.0,3.4609318,6.299,259.0757,1677284243069,0.31567487,10.0,719041361876000,1.3357053,Car
Fix,GPS,37.8035859406,-122.4146524099,-9.928641312288974,4.3158965,5.794769,262.32126,1677284242999,0.34777766,10.0,719042361735000,5.1871543,Car
Fix,FLP,37.8035893,-122.4146297,-24.0,4.103395,6.039,261.71854,1677284244068,0.34777766,10.0,719042361735000,1.3435277,Car
Fix,NLP,37.8035772,-122.4146057,-22.0,,12.961,,1677284243445,,,719041737000000,1.0,Car
Fix,GPS,37.8035810816,-122.4147081274,-10.276485502733518,5.055684,5.794315,262.40067,1677284243999,0.32818925,10.0,719043361692000,5.0580306,Car
Fix,FLP,37.8035809,-122.4147037,-22.0,4.8381133,5.826,262.3659,1677284245068,0.32818925,10.0,719043361692000,1.0237588,Car
Fix,GPS,37.8035757258,-122.4147711091,-10.710223811882823,5.731809,5.064825,261.6425,1677284244999,0.29788545,10.0,719044361692000,4.9022193,Car
Fix,FLP,37.8035765,-122.4147514,-22.0,5.4734244,5.721,262.09665,1677284246068,0.29788545,10.0,719044361692000,1.0330305,Car
Fix,GPS,37.8035701327,-122.4148419379,-10.48856642481925,6.424891,4.7316465,262.8971,1677284245999,0.25072414,10.0,719045361653000,4.7157016,Car
Fix,FLP,37.8035698,-122.4148253,-22.0,6.33119,5.609,262.5684,1677284247069,0.25072414,10.0,719045361653000,1.0334429,Car
Fix,GPS,37.8035640656,-122.4149208071,-10.075934038704638,7.015824,4.4614315,262.68228,1677284246999,0.2351909,10.0,719046361779000,4.5577636,Car
Fix,FLP,37.803563,-122.4149077,-22.0,6.947191,5.475,262.63226,1677284248069,0.2351909,10.0,719046361779000,1.0376059,Car
Fix,GPS,37.8035553052,-122.4150032034,-9.81524113350253,7.866687,4.325273,261.19882,1677284247999,0.22641826,10.0,719047361692000,4.4376225,Car
Fix,FLP,37.8035547,-122.4149942,-22.0,7.752756,5.335,262.28946,1677284249069,0.22641826,10.0,719047361692000,1.0381371,Car
Fix,GPS,37.8035408752,-122.4150952216,-9.006024212980495,8.190898,4.0155296,260.7012,1677284248999,0.023119507,10.0,719048361701000,4.150362,Car
Fix,FLP,37.8035427,-122.415088,-22.0,8.133742,4.883,261.3607,1677284250068,0.023119507,10.0,719048361701000,1.0515729,Car
Fix,GPS,37.8035321435,-122.4151817338,-8.918029962044542,8.454398,4.1762586,260.74945,1677284249999,0.022221787,10.0,719049361700000,3.9385364,Car
Fix,FLP,37.8035315,-122.4151807,-22.0,8.410712,4.342,260.92612,1677284251069,0.022221787,10.0,719049361700000,1.061973,Car
Fix,GPS,37.8035200416,-122.4152747806,-8.059117235222674,8.373462,4.586727,260.6455,1677284250999,0.021919988,10.0,719050361734000,3.7517183,Car
Fix,FLP,37.8035196,-122.415275,-22.0,8.365234,4.313,260.49643,1677284252068,0.021919988,10.0,719050361734000,1.0862008,Car
Fix,GPS,37.8035072879,-122.4153669416,-6.752775356429518,8.103016,4.0166774,259.98346,1677284251999,0.03533696,10.0,719051361734000,3.592182,Car
Fix,FLP,37.803507,-122.4153679,-19.596899217105246,8.1096115,4.263,259.65457,1677284253069,0.03533696,10.0,719051361734000,1.0960784,Car
Fix,FLP,37.8034951,-122.4154584,-18.17411698768288,8.170818,4.217,259.9084,1677284254068,0.028094163,10.0,719052361780000,1.1035228,Car
Fix,GPS,37.803496156,-122.4154579226,-5.995020676665904,8.173412,4.29322,260.45285,1677284252999,0.028094163,10.0,719052361780000,3.4352677,Car
Fix,GPS,37.8034836199,-122.4155531106,-6.143022107184245,7.8991165,5.086909,260.47772,1677284253999,0.34664068,10.0,719053361824000,3.5296955,Car
Fix,FLP,37.803483,-122.4155513,-16.7485310292034,7.9484057,4.432,259.86172,1677284255069,0.34664068,10.0,719053361824000,1.1138928,Car
Fix,GPS,37.8034714169,-122.4156503758,-6.473813823944681,7.745566,4.629924,260.74927,1677284254999,0.36900213,2.526792,719054361986000,3.5834768,Car
Fix,FLP,37.803471,-122.4156448,-16.223362514694287,7.7714357,4.522,260.00897,1677284256069,0.36900213,2.526792,719054361986000,1.1181737,Car
Fix,FLP,37.8034595,-122.4157331,-14.921583482776292,7.406765,4.559,259.0105,1677284257068,0.04604287,1.0,719055361792000,1.1136271,Car
Fix,GPS,37.8034603286,-122.4157351858,-5.452515006475327,7.405887,4.7707596,259.95557,1677284255999,0.04604287,1.0,719055361792000,3.5145483,Car
Fix,GPS,37.8034506642,-122.4158147445,-4.463478785685873,6.770175,4.491305,260.27646,1677284256999,0.027684543,1.0,719056361819000,3.4538429,Car
Fix,FLP,37.8034486,-122.4158153,-13.96435563908728,6.771722,4.654,259.96884,1677284258069,0.027684543,1.0,719056361819000,1.1232271,Car
Fix,GPS,37.8034431644,-122.4158895377,-3.662316340086588,6.1918287,5.0570846,260.5161,1677284257999,0.027264584,1.0,719057361844000,3.3963046,Car
Fix,FLP,37.8034403,-122.4158905,-13.413874890673938,6.1928387,4.807,259.98807,1677284259069,0.027264584,1.0,719057361844000,1.133627,Car
Fix,GPS,37.803434635,-122.4159539525,-2.785645931888619,5.704675,4.293247,259.81644,1677284258999,0.055130955,1.0,719058361830000,3.3540936,Car
Fix,FLP,37.8034324,-122.4159573,-12.642731139857204,5.7066693,4.648,259.00537,1677284260068,0.055130955,1.0,719058361830000,1.1572225,Car
Fix,GPS,37.8034281812,-122.4160119601,-1.9381541846226944,5.2017384,3.9535112,260.68903,1677284259999,0.053546682,10.0,719059362064000,3.3238711,Car
Fix,FLP,37.8034263,-122.4160152,-11.85663596541376,5.2035565,4.513,259.92703,1677284261069,0.053546682,10.0,719059362064000,1.166343,Car
Fix,GPS,37.8034221819,-122.4160630107,-1.6197345161236707,4.6028476,3.9535081,260.7648,1677284260999,0.052629452,10.0,719060362029000,3.2143688,Car
Fix,FLP,37.8034209,-122.4160664,-11.228528275233316,4.6039586,4.349,259.96652,1677284262069,0.052629452,10.0,719060362029000,1.1815256,Car
Fix,GPS,37.8034171809,-122.416106731,-1.2789875937093071,3.989746,3.953505,261.38058,1677284261999,0.02312777,1.0,719061361885000,3.104751,Car
Fix,FLP,37.8034174,-122.4161006,-10.670171145635637,3.9898205,4.194,260.9985,1677284263068,0.02312777,1.0,719061361885000,1.1907706,Car
Fix,GPS,37.803411667,-122.416146681,-0.5110230214349909,3.5476735,3.9535022,260.45465,1677284262999,0.030545602,1.0,719062361888000,3.0476055,Car
Fix,FLP,37.8034119,-122.4161458,-9.682691966571412,3.5477006,4.002,260.00006,1677284264068,0.030545602,1.0,719062361888000,1.2015855,Car
Fix,GPS,37.8034058108,-122.4161817778,0.2091146417440925,3.2128615,3.9534996,260.50305,1677284263999,0.026020214,1.0,719063362015000,3.0,Car
Fix,FLP,37.8034074,-122.4161744,-9.3541909948937,3.2129166,3.953,259.9995,1677284265070,0.026020214,1.0,719063362015000,1.2234063,Car
Fix,GPS,37.8034009998,-122.4162138264,0.8615219722272567,2.880421,3.953497,261.3001,1677284264999,0.042968594,1.0,719064361938000,3.0,Car
Fix,FLP,37.8034017,-122.4162107,-8.909667793074675,2.8804731,3.953,260.99973,1677284266069,0.042968594,1.0,719064361938000,1.2162879,Car
Fix,GPS,37.8033984306,-122.4162383199,1.405802862804719,2.4748092,3.953494,260.0976,1677284265999,0.028965207,1.0,719065361933000,3.0,Car
Fix,FLP,37.8033981,-122.4162399,-8.047760020393923,2.4748263,3.953,260.00003,1677284267069,0.028965207,1.0,719065361933000,1.2266878,Car
Fix,GPS,37.8033954871,-122.4162638787,2.0570348007058707,2.5597517,3.9534922,260.5681,1677284266999,0.028055675,1.0,719066361954000,3.0,Car
Fix,FLP,37.8033951,-122.4162651,-7.901447712696068,2.5597482,3.953,260.00003,1677284268069,0.028055675,1.0,719066361954000,1.2515762,Car
Fix,GPS,37.8033926329,-122.4162897994,2.469626894317324,2.3666253,3.9534898,260.64227,1677284267999,0.02471556,1.0,719067361993000,3.0,Car
Fix,FLP,37.8033921,-122.4162911,-7.587252725533517,2.3666315,3.953,259.99997,1677284269069,0.02471556,1.0,719067361993000,1.2553626,Car
Fix,NLP,37.803379,-122.4163141,-6.200000286102295,,11.998,,1677284269177,,,719067469000000,1.2761753,Car
Fix,FLP,37.8033921,-122.4162922,-6.200000286102295,2.3666303,4.107,259.99997,1677284269177,0.02471556,1.0,719067469000000,1.0046787,Car
Fix,GPS,37.8033900219,-122.4163152399,2.7294827137564712,1.6572374,3.9534876,264.3267,1677284268999,0.33725902,11.706886,719068361969000,3.0,Car
Fix,FLP,37.8033897,-122.4163152,-6.200000286102295,1.6610643,4.126,263.97,1677284270069,0.33725902,11.706886,719068361969000,1.0069817,Car
Fix,GPS,37.803391315,-122.4163263615,3.128846179504076,0.9429438,4.1570215,264.3267,1677284269999,0.31026593,7.690315,719069362184000,3.1390045,Car
Fix,FLP,37.8033903,-122.4163288,-6.200000286102295,0.94616467,4.218,264.0168,1677284271070,0.31026593,7.690315,719069362184000,1.0177733,Car
Fix,GPS,37.8033902743,-122.4163340287,3.516679013454622,0.4529389,4.599099,264.3267,1677284270999,0.299925,20.041107,719070362003000,3.2985036,Car
Fix,FLP,37.80339,-122.4163358,-6.200000286102295,0.45501578,4.326,264.01944,1677284272070,0.299925,20.041107,719070362003000,1.0226504,Car
Fix,GPS,37.8033874116,-122.4163337348,3.225826513883469,0.354937,4.9156747,264.3267,1677284271999,0.28525537,19.3207,719071362008000,3.4610147,Car
Fix,FLP,37.8033881,-122.416336,-6.200000286102295,0.3553123,4.487,264.00513,1677284273070,0.28525537,19.3207,719071362008000,1.0286099,Car
Fix,GPS,37.8033822718,-122.416336604,3.18238063091996,0.9161478,5.075401,264.3267,1677284272999,0.27771193,11.794816,719072362061000,3.5878592,Car
Fix,FLP,37.8033841,-122.4163377,-6.200000286102295,0.9141048,4.674,263.9929,1677284274070,0.27771193,11.794816,719072362061000,1.0255536,Car
Fix,FLP,37.8033793,-122.4163555,-6.200000286102295,1.6278653,4.762,255.012,1677284275070,0.26140586,8.528888,719073362134000,1.056519,Car
Fix,GPS,37.8033773885,-122.4163589794,2.7965449228861496,1.6301773,5.0657153,255.17314,1677284273999,0.26140586,8.528888,719073362134000,3.7308452,Car
Fix,GPS,37.8033724658,-122.4163887439,2.7667123352491663,1.9899685,5.0929146,258.25128,1677284274999,0.28976217,7.6786985,719074362046000,3.8629332,Car
Fix,FLP,37.8033735,-122.4163837,-6.200000286102295,1.9885274,4.817,257.9904,1677284276070,0.28976217,7.6786985,719074362046000,1.0727087,Car
Fix,GPS,37.8033756341,-122.416436862,3.360749581180038,2.0144904,4.7207904,259.39966,1677284275999,0.27060664,6.862213,719075362163000,3.968239,Car
Fix,FLP,37.8033737,-122.416427,-6.200000286102295,2.0144172,4.974,258.9973,1677284277069,0.27060664,6.862213,719075362163000,1.0831187,Car
Fix,GPS,37.8033771748,-122.416468566,3.831571776328668,1.3274674,4.647293,259.8851,1677284276999,0.25399047,8.814155,719076362089000,4.061825,Car
Fix,FLP,37.803375,-122.4164625,-6.200000286102295,1.3295426,4.92,259.00577,1677284278070,0.25399047,8.814155,719076362089000,1.0927087,Car
Fix,GPS,37.8033807818,-122.416490817,4.16609068211965,1.3137248,4.435506,261.74567,1677284277999,0.2589857,9.801004,719077362125000,4.084631,Car
Fix,FLP,37.8033782,-122.4164865,-6.200000286102295,1.3137735,4.792,260.9953,1677284279070,0.2589857,9.801004,719077362125000,1.1000761,Car
Fix,NLP,37.8032846,-122.4164103,-5.900000095367432,,18.438,,1677284279073,,,719077366000000,1.1585273,Car
Fix,GPS,37.803381886,-122.416504908,3.881332648510239,1.3388703,4.4698725,252.23227,1677284278999,0.26069114,9.741132,719078362102000,4.1336665,Car
Fix,FLP,37.8033805,-122.4164991,-5.900000095367432,1.3387752,4.619,252.02112,1677284280069,0.26069114,9.741132,719078362102000,1.0119427,Car
Fix,GPS,37.803381543,-122.4165122065,3.4606774594386263,1.1606575,4.3293867,253.13943,1677284279999,0.24212812,9.99779,719079362159000,4.15491,Car
Fix,FLP,37.8033803,-122.4165115,-5.900000095367432,1.1623263,4.505,252.99748,1677284281070,0.24212812,9.99779,719079362159000,1.023546,Car
Fix,GPS,37.8033834698,-122.416513874,3.2436137930522446,0.46533567,4.090701,253.13943,1677284280999,0.23596425,28.867495,719080362129000,4.1078887,Car
Fix,FLP,37.8033814,-122.4165173,-5.900000095367432,0.46838996,4.446,253.00111,1677284282069,0.23596425,28.867495,719080362129000,1.039484,Car
Fix,GPS,37.8033855222,-122.4165122221,3.2675485169220586,0.0,3.9886558,253.13943,1677284281999,0.20997071,82.705696,719081362343000,4.0852637,Car
Fix,FLP,37.8033837,-122.4165156,-5.900000095367432,0.0008618411,4.342,,1677284283070,0.20997071,,719081362343000,1.0489998,Car
Fix,GPS,37.8033855222,-122.4165122221,2.9908591171631915,0.0,3.7874856,253.13943,1677284282999,0.2212377,180.0,719082362206000,3.9916952,Car
Fix,FLP,37.8033849,-122.4165133,-5.900000095367432,1.094425e-06,4.283,,1677284284070,0.2212377,,719082362206000,1.0585798,Car
Fix,GPS,37.8033878846,-122.4165179635,2.32349616434382,1.9439571,3.7874408,261.6682,1677284283999,0.24006094,5.8326488,719083362186000,3.9220898,Car
Fix,FLP,37.8033869,-122.4165165,-5.900000095367432,1.9386789,4.186,260.99258,1677284285070,0.24006094,5.8326488,719083362186000,1.0689797,Car
Fix,GPS,37.8033820807,-122.4165548875,1.5759336706204514,3.7021995,3.829772,263.43402,1677284284999,0.30108094,3.8274298,719084362188000,3.9781811,Car
Fix,FLP,37.8033832,-122.4165482,-5.900000095367432,3.6928449,4.001,262.99057,1677284286070,0.30108094,3.8274298,719084362188000,1.0785898,Car
Fix,NLP,37.8033145,-122.416582,-5.199999809265137,,21.101,,1677284286024,,,719084317000000,1.3708558,Car
Fix,GPS,37.8033749163,-122.4166055735,1.1781461244282248,5.0113635,4.286286,264.472,1677284285999,0.4426386,4.347617,719085362206000,4.115588,Car
Fix,FLP,37.8033774,-122.4165921,-5.199999809265137,4.9662604,3.952,263.96713,1677284287070,0.4426386,4.347617,719085362206000,1.0432898,Car
Fix,GPS,37.8033642917,-122.4166822775,1.288944472369853,5.9066195,4.5608034,261.56955,1677284286999,0.43181401,3.8635187,719086362270000,4.2550745,Car
Fix,FLP,37.8033696,-122.4166504,-5.199999809265137,5.8395257,4.059,261.1604,1677284288070,0.43181401,3.8635187,719086362270000,1.0389377,Car
Fix,GPS,37.8033549651,-122.4167599286,2.062160641449131,6.112851,4.7097416,259.2352,1677284287999,0.42240432,3.5406833,719087362392000,4.407011,Car
Fix,FLP,37.8033573,-122.4167446,-5.199999809265137,6.1107845,4.139,259.01355,1677284289069,0.42240432,3.5406833,719087362392000,1.0435196,Car
Fix,GPS,37.8033427778,-122.4168377576,2.516936675806193,6.373725,4.720988,260.38754,1677284288999,0.38722163,3.230665,719088362368000,4.502467,Car
Fix,FLP,37.8033441,-122.4168298,-1.958514689576248,6.371931,4.213,259.9938,1677284290070,0.38722163,3.230665,719088362368000,1.0501148,Car
Fix,GPS,37.8033275616,-122.4169206254,2.636620008680752,6.5845246,4.4058332,261.05185,1677284289999,0.3467109,2.652048,719089362278000,4.5886602,Car
Fix,FLP,37.8033297,-122.4169144,-0.672006803977311,6.5833406,4.339,260.99524,1677284291069,0.3467109,2.652048,719089362278000,1.0604582,Car
Fix,NLP,37.8033119,-122.4168681,-2.900000095367432,,11.505,,1677284291049,,,719089341000000,2.1442995,Car
Fix,GPS,37.8033125833,-122.4170011866,2.881610958835428,6.602681,4.499036,257.5235,1677284290999,0.4061032,3.3113542,719090362285000,4.6865587,Car
Fix,FLP,37.803315,-122.4169982,-0.4017330567963881,6.602511,4.484,257.0273,1677284292069,0.4061032,3.3113542,719090362285000,1.0244932,Car
Fix,GPS,37.803298596,-122.417072679,3.2585194817283303,6.6523857,4.7781672,258.05548,1677284291999,0.40572208,3.3777363,719091362327000,4.7851615,Car
Fix,FLP,37.8032996,-122.4170723,0.2950581316443248,6.6519876,4.586,257.9928,1677284293070,0.40572208,3.3777363,719091362327000,1.0467308,Car
Fix,GPS,37.8032881867,-122.4171521911,3.656608464673624,6.7687535,4.7900476,259.29153,1677284292999,0.39810333,3.35351,719092362334000,4.910383,Car
Fix,FLP,37.8032879,-122.4171503,2.273209788651556,6.7678857,4.615,258.99268,1677284294069,0.39810333,3.35351,719092362334000,1.0532925,Car
Fix,GPS,37.8032764542,-122.4172280403,4.185372743499662,6.5544233,4.859711,259.68698,1677284293999,0.39119205,3.3535206,719093362326000,4.960189,Car
Fix,FLP,37.8032764,-122.4172274,3.04270169333438,6.5559726,4.637,259.00006,1677284295070,0.39119205,3.3535206,719093362326000,1.0568901,Car
Fix,GPS,37.8032638585,-122.4173018396,5.05722872240597,6.5070896,4.9161863,256.71317,1677284294999,0.40979788,3.5664618,719094362372000,5.0037355,Car
Fix,FLP,37.8032643,-122.4173014,3.960323685670673,6.507424,4.768,256.02353,1677284296070,0.40979788,3.5664618,719094362372000,1.0772619,Car
Fix,FLP,37.803248,-122.4173747,5.112504444481488,6.3132753,4.876,255.0091,1677284297069,0.43529063,3.8475041,719095362359000,1.0808674,Car
Fix,GPS,37.8032469199,-122.4173754414,6.011547599345334,6.3115177,5.037826,255.62325,1677284295999,0.43529063,3.8475041,719095362359000,5.055336,Car
Fix,GPS,37.8032287981,-122.4174468711,7.084922587221548,6.087243,5.0616465,255.50386,1677284296999,0.41669026,3.7064326,719096362375000,5.0732474,Car
Fix,FLP,37.8032302,-122.417446,5.631834040562197,6.089089,4.933,255.00032,1677284298070,0.41669026,3.7064326,719096362375000,1.0870867,Car
Fix,GPS,37.8032056763,-122.4175262674,7.2485321190777885,5.978104,4.835751,257.22583,1677284297999,0.38282412,3.2517,719097362388000,5.0743594,Car
Fix,FLP,37.803209,-122.4175221,6.598591925725415,5.9788175,4.942,256.9887,1677284299069,0.38282412,3.2517,719097362388000,1.0762166,Car
Fix,GPS,37.8031937017,-122.4175993235,7.67653283869916,5.970449,4.7417517,257.3619,1677284298999,0.37227806,3.0920522,719098362405000,5.096147,Car
Fix,FLP,37.8031947,-122.4175958,7.682726421140202,5.970529,4.918,256.99997,1677284300070,0.37227806,3.0920522,719098362405000,1.0813498,Car
Fix,GPS,37.8031863001,-122.4176729653,8.128561810059567,5.9561505,4.549367,258.5651,1677284299999,0.34441316,2.9822934,719099362416000,5.126198,Car
Fix,FLP,37.8031851,-122.4176695,8.471630498299234,5.9562244,4.845,257.99545,1677284301069,0.34441316,2.9822934,719099362416000,1.1980549,Car
Fix,GPS,37.8031770728,-122.4177390055,8.754740421426341,5.8195696,4.57123,259.4869,1677284300999,0.36331087,3.2286046,719100362436000,5.167147,Car
Fix,FLP,37.8031761,-122.417738,9.075032054208563,5.820394,4.752,258.99496,1677284302070,0.36331087,3.2286046,719100362436000,1.1786076,Car
Fix,GPS,37.8031704408,-122.4178033003,9.757273074916618,5.914323,4.598241,258.35724,1677284301999,0.36895338,3.401523,719101362436000,5.1991897,Car
Fix,FLP,37.803169,-122.4178032,9.916676831741356,5.913725,4.659,258.00577,1677284303070,0.36895338,3.401523,719101362436000,1.1882845,Car
Fix,GPS,37.8031638914,-122.4178664927,10.352046898672048,5.917157,4.7482886,258.17087,1677284302999,0.38311815,3.55568,719102362474000,5.231151,Car
Fix,FLP,37.803162,-122.4178673,10.830487171720094,5.9171243,4.641,258.00015,1677284304069,0.38311815,3.55568,719102362474000,1.1525313,Car
Fix,GPS,37.8031559815,-122.4179328786,11.35680162638924,5.6886578,5.0269356,259.87,1677284303999,0.40856305,3.8326156,719103362485000,5.273457,Car
Fix,FLP,37.8031544,-122.417933,11.968167087081042,5.6904187,4.698,258.99335,1677284305070,0.40856305,3.8326156,719103362485000,1.1596763,Car
Fix,GPS,37.8031478441,-122.4180003794,12.562875304852197,4.9478474,5.0959606,259.2592,1677284304999,0.4114892,4.3557224,719104362908000,5.3071656,Car
Fix,FLP,37.8031467,-122.4179992,13.041668086509503,4.9537387,4.808,259.00204,1677284306069,0.4114892,4.3557224,719104362908000,1.1692764,Car
Fix,GPS,37.8031431833,-122.4180599438,13.010316054282749,3.56312,5.0766582,261.15152,1677284305999,0.40239453,5.9645667,719105362528000,5.3038135,Car
Fix,FLP,37.8031416,-122.4180581,13.35201041145764,3.573672,4.909,260.98575,1677284307070,0.40239453,5.9645667,719105362528000,1.1645164,Car
Fix,GPS,37.8031401824,-122.4180959666,13.565676820585075,1.6178068,5.138059,255.10065,1677284306999,0.31647626,10.056677,719106362505000,5.2957134,Car
Fix,FLP,37.8031394,-122.4180949,13.629423891592822,1.6302179,5.027,255.08992,1677284308070,0.31647626,10.056677,719106362505000,1.1699075,Car
Fix,GPS,37.8031410215,-122.4181107845,13.884061300756043,0.51902205,5.2287416,255.10065,1677284307999,0.30301023,91.39341,719107362595000,5.227369,Car
Fix,FLP,37.8031391,-122.4181115,13.784861769099464,0.5277539,5.107,254.29623,1677284309070,0.30301023,91.39341,719107362595000,1.1795274,Car
Fix,GPS,37.8031411839,-122.4181175975,13.904247176178943,0.34693244,5.3752337,255.10065,1677284308999,0.28452447,32.725506,719108362551000,5.153598,Car
Fix,FLP,37.8031401,-122.4181175,13.951626113821275,0.34757826,5.165,255.0129,1677284310069,0.28452447,32.725506,719108362551000,1.2021229,Car
Fix,GPS,37.8031395276,-122.4181269256,14.401930114202637,1.0390776,5.7311764,251.3095,1677284309999,0.29782197,15.077543,719109362620000,5.1175613,Car
Fix,FLP,37.8031394,-122.4181248,13.839970509889111,1.0362421,5.246,250.99898,1677284311070,0.29782197,15.077543,719109362620000,1.2755741,Car
Fix,GPS,37.8031376779,-122.4181495187,15.601344183500965,1.6540308,5.8569946,264.00348,1677284310999,0.33686298,9.02865,719110362575000,5.0811687,Car
Fix,FLP,37.8031382,-122.4181369,13.966591899493563,1.5414921,5.483,262.8453,1677284312070,0.33686298,9.02865,719110362575000,1.2851741,Car
Fix,GPS,37.8031351012,-122.4181768263,16.199305160193667,2.0602956,5.7567554,279.71487,1677284311999,0.400368,8.555263,719111362584000,5.039665,Car
Fix,FLP,37.8031361,-122.418165,14.516796415877494,2.0497031,5.658,278.83447,1677284313070,0.400368,8.555263,719111362584000,1.2431806,Car
Fix,GPS,37.8031353224,-122.418209305,16.891288467093197,2.9245045,5.7638335,264.01877,1677284312999,0.49030718,8.554919,719112362600000,5.034232,Car
Fix,FLP,37.8031361,-122.4181922,14.7798348242128,2.3829288,5.731,272.71945,1677284314070,0.49030718,8.554919,719112362600000,1.262175,Car
Fix,NLP,37.8031164,-122.4182612,14.699999809265137,,11.491,,1677284314078,,,719112371000000,1.2000939,Car
Fix,GPS,37.8031285731,-122.4182505283,18.773020120264505,4.000636,6.015688,258.51074,1677284313999,0.4862684,6.2862134,719113362614000,5.1684966,Car
Fix,FLP,37.8031326,-122.4182315,14.699999809265137,3.9848337,5.808,258.0712,1677284315070,0.4862684,6.2862134,719113362614000,1.0371469,Car
Fix,GPS,37.8031214628,-122.4183087662,21.15048395623738,4.7959065,6.112447,264.75937,1677284314999,0.4571209,4.802722,719114362648000,5.2443213,Car
Fix,FLP,37.803123,-122.4182939,14.699999809265137,4.784314,5.853,263.94086,1677284316070,0.4571209,4.802722,719114362648000,1.0453875,Car
Fix,GPS,37.8031146074,-122.4183766043,21.790949887991538,5.7717543,6.3139186,265.55753,1677284315999,0.43232998,4.236055,719115362677000,5.3121185,Car
Fix,FLP,37.8031168,-122.4183591,16.35566289795196,5.755579,5.934,264.986,1677284317070,0.43232998,4.236055,719115362677000,1.0517595,Car
Fix,GPS,37.8031108396,-122.4184562589,22.530655729490803,5.854465,6.515955,266.84216,1677284316999,0.44852695,4.3362865,719116362655000,5.382716,Car
Fix,FLP,37.8031114,-122.4184424,17.569266176141838,5.8536305,6.01,265.99075,1677284318070,0.44852695,4.3362865,719116362655000,1.0682317,Car
Fix,FLP,37.8031094,-122.4185269,19.127588479734683,5.9691763,6.11,265.0094,1677284319070,0.4655974,4.303829,719117362702000,1.0786117,Car
Fix,GPS,37.8031106177,-122.418539573,23.50661259014253,5.970249,6.5124993,265.55664,1677284317999,0.4655974,4.303829,719117362702000,5.435753,Car
Fix,GPS,37.8031182607,-122.4186474474,23.50031545953877,5.949995,6.3273354,263.96692,1677284318999,0.49327084,4.648189,719118362672000,5.4797835,Car
Fix,FLP,37.8031129,-122.4186265,20.40597743310656,5.9504304,6.272,263.02316,1677284320069,0.49327084,4.648189,719118362672000,1.078746,Car
Fix,GPS,37.8031148557,-122.418742128,24.29351293414937,6.0355234,6.268737,262.17355,1677284319999,0.43400005,3.943478,719119362715000,5.518035,Car
Fix,FLP,37.8031116,-122.4187231,21.689448675632264,6.034972,6.341,262.00882,1677284321069,0.43400005,3.943478,719119362715000,1.1474102,Car
Fix,GPS,37.8030995362,-122.4188413477,25.324412986890803,6.4684234,6.3069506,259.0787,1677284320999,0.4087362,3.539169,719120362894000,5.559838,Car
Fix,FLP,37.8031013,-122.4188213,24.02360612548952,6.465112,6.386,259.02118,1677284322070,0.4087362,3.539169,719120362894000,1.1537375,Car
Fix,GPS,37.8030638655,-122.4189363758,24.9697163071269,6.8350954,5.481375,261.1643,1677284321999,0.40489668,3.2978313,719121362788000,5.5002413,Car
Fix,FLP,37.8030727,-122.4189221,25.014658596476693,6.8323216,6.179,260.98547,1677284323070,0.40489668,3.2978313,719121362788000,1.1610141,Car
Fix,GPS,37.8030550987,-122.4190129159,25.89126717286484,6.686861,5.2931833,262.88452,1677284322999,0.3937343,3.2273815,719122362745000,5.3995166,Car
Fix,FLP,37.8030577,-122.4190083,26.50905986400029,6.6879506,5.935,261.99295,1677284324070,0.3937343,3.2273815,719122362745000,1.123468,Car
Fix,GPS,37.8030457794,-122.4190841233,26.42722940880881,6.1861763,5.3497853,260.08002,1677284323999,0.40030318,3.4669452,719123362805000,5.360002,Car
Fix,FLP,37.803047,-122.4190839,27.85352561810588,6.1899657,5.74,260.01505,1677284325069,0.40030318,3.4669452,719123362805000,1.1222239,Car
Fix,GPS,37.8030320333,-122.4191487853,26.66429843794116,5.805795,5.524311,258.66122,1677284324999,0.3987504,3.6074178,719124362793000,5.343824,Car
Fix,FLP,37.8030339,-122.4191504,28.68670680129749,5.8086615,5.591,258.0145,1677284326070,0.3987504,3.6074178,719124362793000,1.131616,Car
Fix,GPS,37.8030188719,-122.4192091983,27.025072318427227,5.501766,5.664582,257.45047,1677284325999,0.4201625,4.0044665,719125362800000,5.350966,Car
Fix,FLP,37.8030204,-122.4192114,30.00573452016262,5.5042963,5.603,257.00833,1677284327070,0.4201625,4.0044665,719125362800000,1.142026,Car
Fix,GPS,37.8030081605,-122.4192651356,27.910427764452947,5.01274,5.7506814,257.40726,1677284326999,0.42621383,4.567593,719126362841000,5.355484,Car
Fix,FLP,37.8030086,-122.4192678,31.450816604706915,5.016891,5.516,257.0011,1677284328070,0.42621383,4.567593,719126362841000,1.1640356,Car
Fix,GPS,37.8029895659,-122.4193346381,27.64531660922036,4.141683,5.657394,257.1748,1677284327999,0.43018275,5.530818,719127362819000,5.3023686,Car
Fix,FLP,37.8029928,-122.4193306,32.210073633400526,4.1492844,5.589,257.0025,1677284329070,0.43018275,5.530818,719127362819000,1.1744355,Car
Fix,GPS,37.8029829002,-122.4193855855,29.12541829008776,3.6186438,5.4421306,260.57416,1677284328999,0.41916633,6.6074085,719128362835000,5.2077646,Car
Fix,FLP,37.8029842,-122.419373,32.8549215915458,3.6322129,5.621,259.91183,1677284330070,0.41916633,6.6074085,719128362835000,1.2152754,Car
Fix,GPS,37.8029792143,-122.4194266848,29.870663686862407,3.1577296,5.5089717,262.0882,1677284329999,0.37759888,6.6100802,719129362854000,5.163223,Car
Fix,FLP,37.8029805,-122.4194073,33.6958418731583,3.3650064,5.58,261.07623,1677284331069,0.37759888,6.6100802,719129362854000,1.2256855,Car
Fix,GPS,37.8029749422,-122.4194690747,29.826593832007813,3.185408,5.5188875,257.7366,1677284330999,0.3635557,6.4136376,719130362864000,5.143777,Car
Fix,FLP,37.8029758,-122.4194566,34.762750113382495,3.185014,5.558,257.06396,1677284332069,0.3635557,6.4136376,719130362864000,1.1959288,Car
Fix,GPS,37.8029710744,-122.4195182573,30.21394240543846,2.7816784,5.408675,259.52255,1677284331999,0.34958658,7.069917,719131362907000,5.153244,Car
Fix,FLP,37.8029705,-122.4195088,35.261827406968266,2.784048,5.524,258.98813,1677284333070,0.34958658,7.069917,719131362907000,1.2621406,Car
Fix,GPS,37.8029707641,-122.4195621792,31.13966770916337,2.4998648,5.2509427,266.23706,1677284332999,0.34667876,7.694944,719132362906000,5.135942,Car
Fix,FLP,37.8029698,-122.4195415,35.96519637145124,2.6348703,5.471,262.386,1677284334069,0.34667876,7.694944,719132362906000,1.2582331,Car
Fix,GPS,37.8029721175,-122.4195957953,31.73984467768985,2.8152084,5.14905,262.92618,1677284333999,0.3091823,6.2808504,719133362900000,5.1129746,Car
Fix,FLP,37.8029701,-122.4195869,36.84668339525136,2.814403,5.404,262.0018,1677284335069,0.3091823,6.2808504,719133362900000,1.2851453,Car
Fix,GPS,37.8029676284,-122.4196285362,31.295253887652443,2.185465,5.2018623,261.5633,1677284334999,0.27891588,7.4476137,719134362913000,5.111934,Car
Fix,FLP,37.8029693,-122.4196145,37.26423479933919,2.260992,5.327,261.14456,1677284336070,0.27891588,7.4476137,719134362913000,1.2947552,Car
Fix,NLP,37.8029539,-122.4195951,37.60000228881836,,15.387,,1677284336059,,,719134352000000,3.6347413,Car
Fix,GPS,37.802965539,-122.4196461864,31.601981918766903,1.4127651,5.0669537,263.79193,1677284335999,0.24490698,9.401066,719135362980000,5.0264187,Car
Fix,FLP,37.8029663,-122.4196394,37.60000228881836,1.748322,5.236,262.1012,1677284337069,0.24490698,9.401066,719135362980000,1.3439066,Car
Fix,GPS,37.802963888,-122.4196632191,32.49110740878791,1.3851631,5.064562,257.18134,1677284336999,0.25589573,9.681055,719136362950000,4.9364967,Car
Fix,FLP,37.802964,-122.4196617,37.60000228881836,1.386279,5.204,257.01865,1677284338070,0.25589573,9.681055,719136362950000,1.174903,Car
Fix,FLP,37.8029619,-122.4196808,37.60000228881836,1.4522755,5.176,252.01376,1677284339070,0.2629245,9.632007,719137362959000,1.2376739,Car
Fix,GPS,37.8029622293,-122.4196826901,33.24909424404232,1.4524904,5.1670523,252.69514,1677284337999,0.2629245,9.632007,719137362959000,4.870257,Car
Fix,GPS,37.8029580442,-122.4197016724,33.78290080787241,1.3041989,5.3509407,254.34343,1677284338999,0.33856383,14.368119,719138362983000,4.8456445,Car
Fix,FLP,37.8029594,-122.4196939,39.27795826239861,1.3131547,5.172,253.8763,1677284340070,0.33856383,14.368119,719138362983000,1.2269809,Car
Fix,GPS,37.8029533109,-122.4197253051,34.45208250192037,1.1214664,5.232338,251.20851,1677284339999,0.30909684,14.998867,719139362987000,4.794155,Car
Fix,FLP,37.8029545,-122.4197182,39.7937262063528,1.1228482,5.2,251.02608,1677284341070,0.30909684,14.998867,719139362987000,1.2373809,Car
Fix,GPS,37.8029474837,-122.4197403251,34.82593074283013,0.83411205,5.2306356,251.20851,1677284340999,0.28208008,37.065342,719140363004000,4.7949843,Car
Fix,FLP,37.8029491,-122.4197366,40.16057695854643,0.8366536,5.222,250.92628,1677284342070,0.28208008,37.065342,719140363004000,1.1689141,Car
Fix,GPS,37.802940331,-122.4197521903,35.372454092463336,0.5940578,5.1943145,251.20851,1677284341999,0.25325412,31.614418,719141363033000,4.7047343,Car
Fix,FLP,37.8029425,-122.4197499,39.990955099032206,0.59490806,5.24,250.98593,1677284343071,0.25325412,31.614418,719141363033000,1.2270697,Car
Fix,GPS,37.8029374047,-122.4197609785,36.42551633916826,0.33586988,5.340079,251.20851,1677284342999,0.24463406,13.264758,719142363030000,4.682381,Car
Fix,FLP,37.8029386,-122.4197594,39.990955099032206,0.33648682,5.262,251.02751,1677284344071,0.24463406,13.264758,719142363030000,1.254397,Car
Fix,GPS,37.8029360068,-122.4197680137,37.710515115504585,0.0,5.2870626,251.20851,1677284343999,0.23584452,180.0,719143363068000,4.5990143,Car
Fix,FLP,37.8029365,-122.4197663,39.95326440523715,0.00075938454,5.266,,1677284345070,0.23584452,,719143363068000,1.2647871,Car
Fix,NLP,37.8029345,-122.4198674,37.30000305175781,,25.229,,1677284345027,,,719143320000000,3.5637472,Car
Fix,GPS,37.8029360068,-122.4197680137,38.45312592844743,0.0,4.8676667,251.20851,1677284344999,0.22568308,57.506695,719144363048000,4.4121532,Car
Fix,FLP,37.8029361,-122.4197677,39.95326440523715,9.4536324e-07,5.205,,1677284346070,0.22568308,,719144363048000,1.226655,Car
Fix,GPS,37.8029360068,-122.4197680137,39.0015576247322,0.0,4.634447,251.20851,1677284345999,0.24475479,109.59944,719145363074000,4.2753816,Car
Fix,FLP,37.802936,-122.4197679,39.95481333454714,1.0672639e-07,5.101,,1677284347071,0.24475479,,719145363074000,1.237166,Car
Fix,GPS,37.8029360068,-122.4197680137,39.9856796485493,0.0,4.402205,251.20851,1677284346999,0.25716758,30.98495,719146363109000,4.107031,Car
Fix,FLP,37.802936,-122.419768,39.9692700217979,4.379866e-08,4.969,,1677284348071,0.25716758,,719146363109000,1.2469896,Car
Fix,GPS,37.802931703,-122.4197764045,41.10401930559054,0.5285403,4.2208505,249.7827,1677284347999,0.2596724,26.739004,719147363111000,3.9310553,Car
Fix,FLP,37.8029343,-122.4197714,39.98940616309949,0.33649993,4.728,252.38832,1677284349071,0.2596724,26.739004,719147363111000,1.2168761,Car
Fix,GPS,37.8029253732,-122.4197833592,41.817493842202616,1.1138659,4.509634,231.94426,1677284348999,0.22607298,11.223467,719148363120000,3.8885536,Car
Fix,FLP,37.8029292,-122.4197795,40.0332927910992,1.1010936,4.465,231.17314,1677284350071,0.22607298,11.223467,719148363120000,1.2186153,Car
Fix,NLP,37.8029032,-122.4198302,38.30000305175781,,24.745,,1677284350078,,,719148370000000,2.9988816,Car
Fix,GPS,37.8029156916,-122.4198052907,41.67552121746101,2.515198,4.6450386,249.04288,1677284349999,0.36414465,7.2762766,719149363143000,3.8742518,Car
Fix,FLP,37.8029207,-122.4197944,40.34411990129337,2.5067766,4.483,248.9488,1677284351071,0.36414465,7.2762766,719149363143000,1.1966056,Car
Fix,GPS,37.802903215,-122.4198531897,41.386529709615225,4.108772,4.899466,251.79309,1677284350999,0.4236148,5.430217,719150363146000,3.9330602,Car
Fix,FLP,37.8029089,-122.4198321,42.02207276939493,4.033557,4.522,250.9089,1677284352071,0.4236148,5.430217,719150363146000,1.1319804,Car
Fix,GPS,37.8028914306,-122.4199248199,41.02779213083727,5.5275373,5.1232224,252.32803,1677284351999,0.4118236,4.1019683,719151363350000,4.019158,Car
Fix,FLP,37.8028936,-122.4199042,42.61629306615546,5.508725,4.613,251.98743,1677284353071,0.4118236,4.1019683,719151363350000,1.2193055,Car
Fix,GPS,37.8028751868,-122.4200046118,41.11557033561535,6.6507497,5.43274,260.0197,1677284352999,0.45304954,3.6651056,719152363187000,4.2355604,Car
Fix,FLP,37.802877,-122.419988,42.911720441468674,6.6352053,4.774,259.91898,1677284354071,0.45304954,3.6651056,719152363187000,1.2286102,Car
Fix,NLP,37.8029279,-122.4201461,36.10000228881836,,18.752,,1677284355071,,,719153363000000,1.5333614,Car
Fix,FLP,37.8028677,-122.4200546,43.11455453236447,6.629158,5.958,259.91855,1677284355071,0.45304954,3.6651056,719153363000000,1.2429333,Car
Fix,GPS,37.8028677084,-122.4201072045,41.17027786393218,7.102893,5.654654,265.87195,1677284353999,0.449837,3.3357408,719153363208000,4.4293404,Car
Fix,GPS,37.8028718757,-122.4202176325,40.87781236261652,7.5409226,5.7659593,264.89844,1677284354999,0.40346798,2.8005571,719154363200000,4.6597266,Car
Fix,FLP,37.8028682,-122.4201982,44.72427974293424,7.537712,6.457,264.0058,1677284356070,0.40346798,2.8005571,719154363200000,1.2698731,Car
Fix,GPS,37.802873707,-122.4203326066,40.429159800278526,7.783944,5.6925077,262.27274,1677284355999,0.47582054,3.257293,719155363227000,4.8718615,Car
Fix,FLP,37.8028691,-122.4203148,44.69689992323623,7.7815075,7.015,262.01828,1677284357071,0.47582054,3.257293,719155363227000,1.2793765,Car
Fix,GPS,37.8028786191,-122.4204548518,40.597081664516445,7.67399,5.234567,261.8458,1677284356999,0.43761307,3.188018,719156363256000,4.9638743,Car
Fix,FLP,37.8028723,-122.4204379,43.66273091621858,7.6751885,7.057,261.00998,1677284358071,0.43761307,3.188018,719156363256000,1.2917582,Car
Fix,GPS,37.8028737254,-122.4205586742,40.63444809804332,7.551378,5.120198,260.50784,1677284357999,0.4494525,3.353046,719157363270000,5.0618715,Car
Fix,FLP,37.8028698,-122.4205475,43.23593685973684,7.552693,7.649,260.01022,1677284359070,0.4494525,3.353046,719157363270000,1.2976664,Car
Fix,GPS,37.802866165,-122.4206513666,40.35142423251951,7.502924,5.2585893,261.89117,1677284358999,0.4310554,3.2334158,719158363270000,5.177066,Car
Fix,FLP,37.8028634,-122.4206449,43.52674501481383,7.5034194,5.414,260.99197,1677284360071,0.4310554,3.2334158,719158363270000,1.3072565,Car
Fix,GPS,37.8028586638,-122.4207513514,41.09246548377473,7.8523593,5.503067,261.80008,1677284359999,0.47657204,3.3864079,719159363580000,5.3460436,Car
Fix,FLP,37.8028566,-122.4207435,45.911624028985486,7.8487287,5.362,261.00006,1677284361071,0.47657204,3.3864079,719159363580000,1.1918625,Car
Fix,GPS,37.8028503414,-122.4208504429,40.95578690579325,8.531232,5.5617146,262.15628,1677284360999,0.4879732,3.1553519,719160363290000,5.481372,Car
Fix,FLP,37.8028486,-122.4208438,46.08212339197438,8.52368,5.335,261.9902,1677284362071,0.4879732,3.1553519,719160363290000,1.2238699,Car
Fix,GPS,37.8028383839,-122.4209620893,41.106689792261776,8.654748,5.3345013,261.97894,1677284361999,0.48907787,3.2325246,719161363321000,5.46021,Car
Fix,FLP,37.8028382,-122.4209546,46.011856571250505,8.653398,5.355,261.0111,1677284363071,0.48907787,3.2325246,719161363321000,1.2325515,Car
Fix,GPS,37.8028311884,-122.4210645133,41.82573142031177,8.792672,5.273609,262.0807,1677284362999,0.49817944,3.2802062,719162363335000,5.4105554,Car
Fix,FLP,37.8028295,-122.4210603,45.477124534493655,8.791113,5.386,261.9888,1677284364071,0.49817944,3.2802062,719162363335000,1.2290741,Car
Fix,GPS,37.802822952,-122.4211670765,42.79984721095522,8.355893,5.336933,260.49225,1677284363999,0.43795106,2.9372694,719163363344000,5.370628,Car
Fix,FLP,37.8028214,-122.4211645,45.307153996057934,8.359822,5.402,260.01855,1677284365071,0.43795106,2.9372694,719163363344000,1.2394441,Car
Fix,GPS,37.802809231,-122.4212574769,43.25609434365497,7.199967,5.3650465,261.80988,1677284364999,0.44127584,3.6288009,719164363354000,5.3503304,Car
Fix,FLP,37.8028089,-122.4212577,44.88907713473024,7.2106643,5.396,260.98807,1677284366071,0.44127584,3.6288009,719164363354000,1.2750754,Car
Fix,GPS,37.8027944519,-122.4213347536,43.7191214108242,5.5245466,5.417932,262.25848,1677284365999,0.46167222,4.4495873,719165363369000,5.440905,Car
Fix,FLP,37.802796,-122.4213361,44.32185698056725,5.541363,5.345,261.99136,1677284367071,0.46167222,4.4495873,719165363369000,1.3090537,Car
Fix,GPS,37.8027904058,-122.4213937091,45.027298861619656,4.0096493,5.284027,258.5879,1677284366999,0.3788287,4.9940166,719166363377000,5.508348,Car
Fix,FLP,37.8027899,-122.4213953,43.20819115884426,4.019882,5.335,258.0363,1677284368071,0.3788287,4.9940166,719166363377000,1.3483268,Car
Fix,GPS,37.8027858578,-122.4214330547,46.04517687946685,2.7667506,5.166096,255.17294,1677284367999,0.3686773,6.882595,719167363402000,5.461774,Car
Fix,FLP,37.8027848,-122.4214354,41.116369889744746,2.7746494,5.314,255.03049,1677284369071,0.3686773,6.882595,719167363402000,1.3863138,Car
Fix,GPS,37.8027867154,-122.4214596964,47.77369980232114,1.6593863,5.0841484,262.942,1677284368999,0.31044632,9.960888,719168363424000,5.2525673,Car
Fix,FLP,37.802784,-122.4214617,38.30000305175781,1.664341,5.263,261.9572,1677284370070,0.31044632,9.960888,719168363424000,1.3958938,Car
Fix,FLP,37.8027868,-122.421466,38.30000305175781,1.1420556,5.193,256.0266,1677284371070,0.25878036,11.979577,719169363414000,1.3751304,Car
Fix,GPS,37.8027891136,-122.4214591641,47.06875474292482,1.1404374,5.0134897,256.29175,1677284369999,0.25878036,11.979577,719169363414000,5.062227,Car
Fix,GPS,37.8027901254,-122.4214685807,47.42738796904655,1.2734404,5.030769,256.95352,1677284370999,0.24667506,10.842563,719170363438000,4.938513,Car
Fix,FLP,37.8027882,-122.4214718,38.30000305175781,1.2730546,5.115,255.99998,1677284372071,0.24667506,10.842563,719170363438000,1.4075172,Car
Fix,GPS,37.8027857939,-122.4214794095,47.357060372440365,1.7690878,5.0812063,230.68835,1677284371999,0.29507142,9.130773,719171363447000,4.856412,Car
Fix,FLP,37.8027857,-122.4214815,38.30000305175781,1.7666142,5.075,230.0712,1677284373071,0.29507142,9.130773,719171363447000,1.4170971,Car
Fix,GPS,37.802776357,-122.4214873484,46.44580052190629,2.916415,5.3251066,216.56416,1677284372999,0.38175145,7.146089,719172363459000,4.842906,Car
Fix,FLP,37.8027761,-122.4214907,37.30000305175781,2.908374,5.106,216.05774,1677284374071,0.38175145,7.146089,719172363459000,1.4160082,Car
Fix,NLP,37.8026844,-122.4214405,38.60000228881836,,11.497,,1677284374057,,,719172349000000,1.0,Car
Fix,GPS,37.8027537574,-122.4214967615,46.52856079631003,3.5496378,5.5137873,205.4807,1677284373999,0.4644683,6.621359,719173363477000,4.7744966,Car
Fix,FLP,37.8027541,-122.4215016,38.60000228881836,3.5428069,5.214,205.08269,1677284375071,0.4644683,6.621359,719173363477000,1.148645,Car
Fix,GPS,37.8027051126,-122.4214885773,45.109603854014,3.7418337,5.64867,186.68445,1677284374999,0.50174993,6.1557627,719174363493000,4.722385,Car
Fix,FLP,37.8027173,-122.4214996,38.60000228881836,3.7335696,5.348,186.23587,1677284376070,0.50174993,6.1557627,719174363493000,1.157503,Car
Fix,GPS,37.8026661672,-122.4214802548,45.79481714779191,4.4869556,6.117086,164.14261,1677284375999,0.58442724,7.0667243,719175363678000,4.875571,Car
Fix,FLP,37.8026784,-122.4214885,38.60000228881836,4.444254,5.535,164.73012,1677284377071,0.58442724,7.0667243,719175363678000,1.172421,Car
Fix,GPS,37.8026148687,-122.4214604855,46.57227400913417,5.902468,6.5979977,161.01631,1677284376999,0.533045,5.03809,719176363524000,5.0520277,Car
Fix,FLP,37.8026283,-122.4214672,38.60000228881836,5.8735914,5.745,161.0427,1677284378071,0.533045,5.03809,719176363524000,1.1954861,Car
Fix,GPS,37.8025522399,-122.421443194,47.15938103649296,6.38104,7.037786,171.33434,1677284377999,0.526988,4.7593465,719177363564000,5.3100376,Car
Fix,FLP,37.8025643,-122.4214443,38.60000228881836,6.3735456,5.982,170.88017,1677284379071,0.526988,4.7593465,719177363564000,1.205886,Car
Fix,NLP,37.8023693,-122.4213999,40.0,,12.857,,1677284379099,,,719177391000000,1.6199284,Car
Fix,GPS,37.802470777,-122.4214350271,47.75807717249146,7.1066384,7.1865234,169.31209,1677284378999,0.50769067,4.077108,719178363555000,5.5538917,Car
Fix,FLP,37.8024869,-122.4214337,40.0,7.0985126,6.291,169.02176,1677284380071,0.50769067,4.077108,719178363555000,1.2971649,Car
Fix,GPS,37.8023649566,-122.4214024985,46.96079521587063,7.136609,6.6518917,168.7663,1677284379999,0.49461603,3.9780576,719179363569000,5.6542153,Car
Fix,FLP,37.8023894,-122.421409,40.0,7.1365833,6.489,168.01172,1677284381071,0.49461603,3.9780576,719179363569000,1.3159864,Car
Fix,GPS,37.802267791,-122.4213694507,47.54464505120387,6.765257,6.266783,168.79874,1677284380999,0.42677942,3.6715124,719180363577000,5.7332563,Car
Fix,FLP,37.8022906,-122.4213783,40.0,6.7687726,6.671,167.9997,1677284382070,0.42677942,3.6715124,719180363577000,1.3199354,Car
Fix,GPS,37.8021900979,-122.4213385207,48.096524129667095,6.3575172,6.181574,165.77039,1677284381999,0.42063013,3.745786,719181363585000,5.8307467,Car
Fix,FLP,37.802206,-122.4213477,40.0,6.361059,6.786,165.02602,1677284383071,0.42063013,3.745786,719181363585000,1.2333393,Car
Fix,GPS,37.8021230094,-122.4213130232,49.27608687965786,5.6335,6.1034336,164.90968,1677284382999,0.41719586,3.9669175,719182363608000,5.8694105,Car
Fix,FLP,37.8021337,-122.4213192,40.0,5.639514,6.63,164.0101,1677284384071,0.41719586,3.9669175,719182363608000,1.2429492,Car
Fix,GPS,37.8020660744,-122.4213012227,49.83127025803957,5.119041,6.082754,169.44128,1677284383999,0.42987853,4.43111,719183363643000,5.9204907,Car
Fix,FLP,37.8020734,-122.4213013,41.96899781936311,5.123318,6.257,168.96017,1677284385071,0.42987853,4.43111,719183363643000,1.254181,Car
Fix,GPS,37.8020219012,-122.4213072382,48.84055014443742,5.447851,5.620615,170.43013,1677284384999,0.40249547,3.9472277,719184363657000,5.867447,Car
Fix,FLP,37.8020241,-122.4213012,42.222060559917296,5.4453783,6.051,169.99332,1677284386071,0.40249547,3.9472277,719184363657000,1.2637683,Car
Fix,GPS,37.8019829482,-122.4212989181,47.72063780519149,5.460308,5.447752,170.81427,1677284385999,0.3715173,3.8075087,719185363658000,5.826946,Car
Fix,FLP,37.8019805,-122.421296,42.317090157826144,5.460186,5.887,170.00009,1677284387070,0.3715173,3.8075087,719185363658000,1.2742727,Car
Fix,GPS,37.8019470371,-122.4212962106,47.465668075718106,5.030844,5.3900714,174.1118,1677284386999,0.37813386,4.1841483,719186363675000,5.8035154,Car
Fix,FLP,37.8019419,-122.4212924,42.72714638836811,5.033606,5.729,173.97256,1677284388071,0.37813386,4.1841483,719186363675000,1.2713616,Car
Fix,GPS,37.8019126394,-122.421297453,46.73951288275784,4.1045685,5.2659454,173.98889,1677284387999,0.35853755,4.7677927,719187363688000,5.780532,Car
Fix,FLP,37.8019073,-122.4212938,43.01948435947962,4.1101804,5.561,173.00768,1677284389071,0.35853755,4.7677927,719187363688000,1.2818527,Car
Fix,GPS,37.8018880912,-122.421297522,45.86154238116934,2.6983848,5.007619,169.7221,1677284388999,0.32343352,6.7107844,719188363700000,5.731612,Car
Fix,FLP,37.8018902,-122.4212955,43.29289898790667,2.7283924,5.323,169.12912,1677284390071,0.32343352,6.7107844,719188363700000,1.3272048,Car
Fix,GPS,37.8018703542,-122.4212994564,45.02019558395112,1.8825852,4.7754416,166.19495,1677284389999,0.261303,7.497401,719189363733000,5.620325,Car
Fix,FLP,37.801871,-122.4212963,43.42925971527488,1.8878039,5.178,166.02893,1677284391070,0.261303,7.497401,719189363733000,1.3418664,Car
Fix,GPS,37.8018555319,-122.4212997654,44.6764628374616,1.5573304,4.686761,159.05342,1677284390999,0.26022437,9.356373,719190363737000,5.5401316,Car
Fix,FLP,37.8018552,-122.4212969,43.44475539165913,1.5583497,5.083,159.02708,1677284392071,0.26022437,9.356373,719190363737000,1.374415,Car
Fix,GPS,37.8018475764,-122.4213015823,44.43287877613865,1.5998971,4.451788,155.51404,1677284391999,0.25329223,8.698221,719191363727000,5.4584107,Car
Fix,FLP,37.8018458,-122.421298,43.32736214645699,1.5997623,4.966,155.01135,1677284393071,0.25329223,8.698221,719191363727000,1.3409066,Car
Fix,GPS,37.8018327615,-122.421295976,45.24701698210263,1.9101577,4.4945235,144.40839,1677284392999,0.25060907,7.2244406,719192363812000,5.386734,Car
Fix,FLP,37.8018328,-122.4212942,43.599713717787935,1.9091815,4.869,144.02611,1677284394071,0.25060907,7.2244406,719192363812000,1.3184956,Car
Fix,NLP,37.8018224,-122.421387,42.20000076293945,,18.244,,1677284395026,,,719193318000000,2.2249286,Car
Fix,FLP,37.8018215,-122.4212841,42.20000076293945,1.908433,6.474,144.02734,1677284395026,0.25060907,7.2244406,719193318000000,1.1988508,Car
Fix,GPS,37.8018197908,-122.4212843968,45.44041988043621,2.0729115,4.419947,137.73102,1677284393999,0.26493448,7.088978,719193363776000,5.2818193,Car
Fix,GPS,37.8018122611,-122.4212549586,44.80449139470773,3.070709,4.501129,120.4409,1677284394999,0.27656844,4.93363,719194363805000,5.104822,Car
Fix,FLP,37.8018104,-122.4212592,42.20000076293945,3.0668225,6.575,120.04041,1677284396071,0.27656844,4.93363,719194363805000,1.2276082,Car
Fix,GPS,37.8018052791,-122.4212166621,44.85056596071863,3.9475677,4.556821,109.44903,1677284395999,0.3552815,4.587656,719195363806000,4.997973,Car
Fix,FLP,37.8018056,-122.4212315,42.20000076293945,3.9028754,6.26,109.380844,1677284397070,0.3552815,4.587656,719195363806000,1.2495332,Car
Fix,GPS,37.8017995273,-122.4211583497,45.381315170736286,4.743183,4.7206225,99.61259,1677284396999,0.40514767,4.489412,719196363815000,4.962038,Car
Fix,FLP,37.8017997,-122.4211821,42.20000076293945,4.7034264,6.081,99.34241,1677284398071,0.40514767,4.489412,719196363815000,1.2585516,Car
Fix,GPS,37.8018017681,-122.4210758503,46.15194076187865,5.64194,4.928293,86.52659,1677284397999,0.49046427,4.7602077,719197363864000,4.9939423,Car
Fix,FLP,37.8017988,-122.4211119,42.20000076293945,5.5780215,5.852,86.643936,1677284399071,0.49046427,4.7602077,719197363864000,1.3344542,Car
Fix,NLP,37.8018596,-122.4209103,46.70000076293945,,23.651,,1677284400035,,,719198327000000,3.4353876,Car
Fix,FLP,37.8018017,-122.4210541,43.86611993432589,5.5749016,5.907,86.64183,1677284400035,0.49046427,4.7602077,719198327000000,1.2768838,Car
Fix,GPS,37.8018189249,-122.4209836177,47.047630991306,6.9880686,4.77971,76.818085,1677284398999,0.39641666,3.2572527,719198363828000,4.822007,Car
Fix,GPS,37.8018416035,-122.4208892704,47.50817828785962,6.83543,4.7385526,74.523125,1677284399999,0.44143444,3.7500923,719199363898000,4.7675357,Car
Fix,FLP,37.8018371,-122.4209032,44.33465534022552,6.8368726,5.967,74.0196,1677284401071,0.44143444,3.7500923,719199363898000,1.2915728,Car
Fix,GPS,37.8018619503,-122.4208070411,48.50733095879657,6.707823,4.705578,77.69684,1677284400999,0.41555324,3.5713766,719200363872000,4.71354,Car
Fix,FLP,37.8018594,-122.4208139,46.70000076293945,6.7089033,6.146,76.97475,1677284402071,0.41555324,3.5713766,719200363872000,1.1819208,Car
Fix,GPS,37.801886201,-122.4207444849,48.4644902264006,5.9697104,4.7151613,80.26934,1677284401999,0.3938167,3.9561336,719201363893000,4.8509088,Car
Fix,FLP,37.801882,-122.4207429,46.70000076293945,5.975134,6.344,79.97147,1677284403071,0.3938167,3.9561336,719201363893000,1.2976646,Car
Fix,GPS,37.8018999543,-122.4206769607,48.976821373359776,5.449347,4.7630544,82.16094,1677284402999,0.38866666,4.2911973,719202363916000,4.995559,Car
Fix,FLP,37.8018972,-122.4206767,46.70000076293945,5.4531217,6.858,81.98162,1677284404070,0.38866666,4.2911973,719202363916000,1.3800951,Car
Fix,GPS,37.8019131607,-122.4206182391,49.39358627492787,4.9011345,4.929536,82.635475,1677284403999,0.3760792,4.5891023,719203363904000,5.1354866,Car
Fix,FLP,37.8019103,-122.4206172,48.48441919435683,4.904847,4.77,81.998924,1677284405070,0.3760792,4.5891023,719203363904000,1.3896452,Car
Fix,GPS,37.8019208657,-122.4205676678,49.63260215951852,4.0768075,5.0119567,84.6235,1677284404999,0.37672895,5.440521,719204363940000,5.257899,Car
Fix,FLP,37.8019195,-122.4205659,49.30159071306778,4.082364,4.825,83.98227,1677284406071,0.37672895,5.440521,719204363940000,1.4000852,Car
Fix,GPS,37.8019189961,-122.4205190296,51.45852786137439,3.5034165,5.1214695,86.11411,1677284405999,0.37324467,6.2838845,719205363974000,5.101615,Car
Fix,FLP,37.8019208,-122.4205226,49.78438444298092,3.5087967,4.925,85.97694,1677284407071,0.37324467,6.2838845,719205363974000,1.3610176,Car
Fix,GPS,37.8019251396,-122.4204866264,52.2470491531809,2.9232342,4.806242,86.160324,1677284406999,0.32825318,6.7472944,719206363946000,5.0555043,Car
Fix,FLP,37.8019244,-122.4204854,50.201035887284505,2.9262295,4.94,85.99932,1677284408070,0.32825318,6.7472944,719206363946000,1.3706076,Car
Fix,GPS,37.8019276043,-122.4204559289,52.40757451301621,2.578761,4.9348516,85.52096,1677284407999,0.32214424,7.507936,719207363968000,5.076756,Car
Fix,FLP,37.8019272,-122.4204547,50.63476807736845,2.580471,4.969,85.00575,1677284409071,0.32214424,7.507936,719207363968000,1.3688643,Car
Fix,GPS,37.8019282029,-122.4204244807,54.02194077516954,2.6132815,5.131727,79.20573,1677284408999,0.35173947,8.1872,719208364021000,4.962416,Car
Fix,FLP,37.8019285,-122.4204248,51.56059970788591,2.6129694,5.003,79.0391,1677284410072,0.35173947,8.1872,719208364021000,1.4661665,Car
Fix,GPS,37.8019305859,-122.420397179,55.39152072523262,2.4178088,5.256763,80.32275,1677284409999,0.3637257,9.01502,719209363984000,4.830789,Car
Fix,FLP,37.8019314,-122.4203967,51.84966278747476,2.4190395,5.043,79.99263,1677284411071,0.3637257,9.01502,719209363984000,1.5025918,Car
Fix,GPS,37.8019333739,-122.4203709442,56.48572314828694,2.2658105,5.2980924,79.07885,1677284410999,0.33119997,8.867378,719210364022000,4.7237964,Car
Fix,FLP,37.801934,-122.4203704,51.88482136573481,2.2666066,5.085,79.00582,1677284412071,0.33119997,8.867378,719210364022000,1.5129919,Car
Fix,GPS,37.8019327704,-122.4203497877,57.23546759855111,1.7057799,5.164422,79.41506,1677284411999,0.2807392,9.309897,719211364087000,4.721116,Car
Fix,FLP,37.8019345,-122.4203483,51.90757111194114,1.7078766,5.157,79.00055,1677284413071,0.2807392,9.309897,719211364087000,1.5234119,Car
Fix,GPS,37.8019327325,-122.4203327523,58.3057188410674,1.4079174,4.9934225,74.89896,1677284412999,0.3009394,12.6268635,719212364131000,4.6953588,Car
Fix,FLP,37.8019342,-122.4203317,52.00736049471024,1.4091829,5.168,74.02701,1677284414072,0.3009394,12.6268635,719212364131000,1.4067302,Car
Fix,GPS,37.8019325689,-122.4203171179,58.796761001598135,1.3726968,4.897394,78.46141,1677284413999,0.24648194,10.0526705,719213364082000,4.704136,Car
Fix,FLP,37.8019342,-122.4203168,51.81769316528221,1.3727885,5.121,77.98888,1677284415071,0.24648194,10.0526705,719213364082000,1.4659821,Car
Fix,GPS,37.801934882,-122.4202984663,59.44215027040958,1.2933453,4.858211,81.16752,1677284414999,0.24258582,10.22973,719214364107000,4.671197,Car
Fix,FLP,37.8019355,-122.4202995,51.9092113140992,1.293561,5.042,80.992,1677284416071,0.24258582,10.22973,719214364107000,1.468234,Car
Fix,GPS,37.8019367552,-122.420287094,59.72204413069163,1.3218687,4.7869906,77.83981,1677284415999,0.26528296,11.809151,719215364109000,4.627605,Car
Fix,FLP,37.801937,-122.4202864,51.98987219891873,1.3217579,4.939,77.01383,1677284417072,0.26528296,11.809151,719215364109000,1.4958801,Car
Fix,GPS,37.8019388546,-122.4202718342,59.81411225170387,1.4585061,4.6629276,81.81689,1677284416999,0.23891576,9.262113,719216364177000,4.5865765,Car
Fix,FLP,37.8019391,-122.4202718,52.0555390004202,1.4581237,4.839,80.99036,1677284418072,0.23891576,9.262113,719216364177000,1.5062901,Car
Fix,GPS,37.8019397063,-122.4202525911,60.168382574134654,1.3756878,4.6777334,87.75186,1677284417999,0.24126127,9.931654,719217364151000,4.5548377,Car
Fix,FLP,37.8019402,-122.4202535,52.08759699433142,1.3758956,4.776,86.98275,1677284419072,0.24126127,9.931654,719217364151000,1.5205964,Car
Fix,GPS,37.801937846,-122.4202409056,60.49217160203688,0.7818926,4.7587423,87.75186,1677284418999,0.26703015,16.06857,719218364250000,4.49125,Car
Fix,FLP,37.8019388,-122.4202399,52.09018232171727,0.7839115,4.749,87.00252,1677284420072,0.26703015,16.06857,719218364250000,1.5301964,Car
Fix,GPS,37.8019412591,-122.4202364414,61.00883768887974,0.0,4.8710537,87.75186,1677284419999,0.26870415,28.61374,719219364322000,4.4392285,Car
Fix,FLP,37.80194,-122.4202358,52.369817851816975,0.007000071,4.752,,1677284421072,0.26870415,,719219364322000,1.6074706,Car
Fix,GPS,37.8019412591,-122.4202364414,60.8236653742081,0.0,4.554655,87.75186,1677284420999,0.28039297,180.0,719220364202000,4.3081317,Car
Fix,FLP,37.8019408,-122.4202362,52.200733864815646,2.5690682e-05,4.714,,1677284422071,0.28039297,,719220364202000,1.5751961,Car
Fix,GPS,37.8019412591,-122.4202364414,60.20831629561616,0.0,4.373898,87.75186,1677284421999,0.28962833,180.0,719221364234000,4.206083,Car
Fix,FLP,37.8019412,-122.4202363,52.2762261887419,9.276966e-08,4.666,,1677284423072,0.28962833,,719221364234000,1.5847961,Car
Fix,GPS,37.8019412591,-122.4202364414,60.29136493034463,0.0,4.2636566,87.75186,1677284422999,0.30119735,169.56146,719222364407000,3.6926284,Car
Fix,FLP,37.8019413,-122.4202364,52.34344594869313,7.270535e-08,4.597,,1677284424071,0.30119735,,719222364407000,1.5953062,Car
Fix,GPS,37.8019412591,-122.4202364414,60.09361879574983,0.0,4.167929,87.75186,1677284423999,0.2992895,180.0,719223364241000,3.3365483,Car
Fix,FLP,37.8019413,-122.4202364,52.36671445167576,2.5071591e-08,4.535,,1677284425072,0.2992895,,719223364241000,1.630825,Car
Fix,GPS,37.8019412591,-122.4202364414,59.95315494210192,0.0,4.1010723,87.75186,1677284424999,0.28463742,72.6033,719224364267000,3.080138,Car
Fix,FLP,37.8019413,-122.4202364,52.381192663633584,7.1960686e-09,4.388,,1677284426072,0.28463742,,719224364267000,1.5298207,Car
Fix,GPS,37.8019440064,-122.4202435223,59.94290903832589,0.5424355,4.0593095,75.86903,1677284425999,0.2924778,19.587925,719225364240000,3.0,Car
Fix,FLP,37.8019431,-122.4202412,52.26184982955132,0.54038084,4.193,74.9696,1677284427072,0.2924778,19.587925,719225364240000,1.5001739,Car
Fix,GPS,37.8019497219,-122.4202352559,59.9859216042141,1.406767,4.557823,69.31944,1677284426999,0.3020817,12.728933,719226364263000,3.0,Car
Fix,FLP,37.801948,-122.4202353,52.31717714871266,1.4029198,4.23,69.013245,1677284428072,0.3020817,12.728933,719226364263000,1.5661346,Car
Fix,NLP,37.8019654,-122.4202598,53.20000076293945,,19.487,,1677284428866,,,719227158000000,3.0863504,Car
Fix,FLP,37.8019513,-122.4202255,53.20000076293945,1.4022653,6.004,69.00898,1677284428866,0.3020817,12.728933,719227158000000,1.4066787,Car
Fix,GPS,37.8019567901,-122.4202147337,60.00820346249281,1.7612197,4.863249,75.529625,1677284427999,0.32763854,10.874291,719227364495000,3.0,Car
Fix,FLP,37.8019551,-122.4202172,53.20000076293945,1.7597636,6.104,74.96849,1677284429072,0.32763854,10.874291,719227364495000,1.4160949,Car
Fix,GPS,37.8019656335,-122.4201864222,60.1235730608968,2.1048863,4.9195766,74.378494,1677284428999,0.33461937,9.43229,719228364479000,3.0,Car
Fix,FLP,37.8019635,-122.4201901,53.20000076293945,2.103046,6.229,74.005165,1677284430072,0.33461937,9.43229,719228364479000,1.4337986,Car
Fix,GPS,37.8019801071,-122.4201604405,60.30873585221706,2.206552,4.906257,82.87005,1677284429999,0.3126202,7.868997,719229364424000,3.0,Car
Fix,FLP,37.8019765,-122.4201625,53.20000076293945,2.2059777,6.363,81.96612,1677284431072,0.3126202,7.868997,719229364424000,1.4806094,Car
Fix,GPS,37.8019918729,-122.420134932,60.92078885711201,1.9535887,4.840288,92.39521,1677284430999,0.27467817,7.753353,719230364358000,3.0,Car
Fix,FLP,37.8019878,-122.4201358,53.20000076293945,1.9543815,6.493,91.96198,1677284432072,0.27467817,7.753353,719230364358000,1.4818318,Car
Fix,GPS,37.8019965717,-122.420112054,61.1764198751744,1.5169603,4.799805,96.67575,1677284431999,0.27071646,9.645397,719231364337000,3.0,Car
Fix,FLP,37.8019936,-122.4201126,53.20000076293945,1.5184762,6.534,95.98289,1677284433072,0.27071646,9.645397,719231364337000,1.6231692,Car
Fix,NLP,37.8020536,-122.4198377,53.60000228881836,,21.971,,1677284433965,,,719232258000000,2.2940009,Car
Fix,FLP,37.801993,-122.4200995,53.60000228881836,1.517848,6.791,95.977844,1677284433965,0.27071646,9.645397,719232258000000,1.4800662,Car
Fix,GPS,37.8019988852,-122.4200889604,61.22095810429709,1.2956387,4.8151855,95.458244,1677284432999,0.28847852,12.796479,719232364341000,3.0,Car
