Fix,Provider,LatitudeDegrees,LongitudeDegrees,AltitudeMeters,SpeedMps,AccuracyMeters,BearingDegrees,UnixTimeMillis,SpeedAccuracyMps,BearingAccuracyDegrees,elapsedRealtimeNanos,VerticalAccuracyMeters,TransitType
Fix,FLP,37.3885628,-122.0856117,-5.9007150549126095,0.3853427,11.357,293.7732,1677640593358,,,1075396581728102,1.0509863,Car
Fix,FLP,37.3885634,-122.0856122,-5.9007150549126095,0.3470226,11.12,295.20218,1677640593900,,,1075397124245192,1.0509863,Car
Fix,NLP,37.3886017,-122.0856651,-2.799999713897705,,16.728,,1677640594251,,,1075397475000000,1.0,Car
Fix,FLP,37.3885633,-122.0856117,-5.249795253212326,0.33782607,11.242,295.70322,1677640594442,,,1075397666743727,1.0147961,Car
Fix,GPS,37.3883254297,-122.0857706405,5.31863700171282,2.3896158,27.980244,19.982967,1677640595079,0.71059567,180.0,1075399822273614,35.156246,Car
Fix,FLP,37.3885689,-122.0856205,-5.218481734985261,0.3757103,11.356,302.36923,1677640596613,,,1075399836753005,1.0356045,Car
Fix,GPS,37.3883386809,-122.0857663361,1.4893435594522058,2.9868255,28.413607,24.98128,1677640596063,0.6471365,180.0,1075400828199437,38.2587,Car
Fix,FLP,37.3885972,-122.085621,-5.179981348673763,1.8644363,12.629,9.787687,1677640597604,,,1075400828199437,1.044554,Car
Fix,NLP,37.3887351,-122.0855345,-2.5999999046325684,,14.554,,1677640599273,,,1075402497000000,1.0,Car
Fix,FLP,37.3886574,-122.0855863,-2.5999999046325684,2.618935,13.953,19.139639,1677640599274,,,1075402497000000,0.9831612,Car
Fix,GPS,37.388828837,-122.0854542711,3.4347872024845496,4.9513764,22.308022,28.883692,1677640599061,0.4165977,10.0,1075403860537247,14.47019,Car
Fix,FLP,37.38871,-122.0855542,-2.5999999046325684,3.4288,14.942,21.514458,1677640600637,,,1075403860537247,0.9994664,Car
Fix,GPS,37.3888713665,-122.0854448771,3.3103074994599817,4.8932643,12.938129,28.94767,1677640600061,0.36865285,10.0,1075404869979427,11.531765,Car
Fix,FLP,37.3887494,-122.0855292,-2.5999999046325684,3.9083164,15.702,23.004404,1677640601646,,,1075404869979427,1.0112053,Car
Fix,GPS,37.3889044416,-122.0854248043,2.485471346114159,4.816549,10.006629,35.267605,1677640601000,0.4589018,10.0,1075405782312883,10.174264,Car
Fix,FLP,37.3887817,-122.0855061,-2.5999999046325684,4.1302123,15.234,26.263868,1677640602558,,,1075405782312883,1.0201379,Car
Fix,FLP,37.3887175,-122.0855216,-2.5999999046325684,3.7839935,13.409,49.18366,1677640603123,,,1075406346799880,1.0201379,Car
Fix,GPS,37.3889344905,-122.0853864544,2.583498738011357,4.6859074,8.385294,40.440277,1677640602000,0.3812811,10.0,1075406783337135,9.3012495,Car
Fix,FLP,37.3886865,-122.0855347,-2.5999999046325684,3.9646742,12.619,59.815884,1677640603666,,,1075406889305068,1.0303953,Car
Fix,FLP,37.3887414,-122.0854815,-2.5999999046325684,4.4548197,12.437,52.41184,1677640604207,,,1075407431794081,1.0303953,Car
Fix,GPS,37.3889624217,-122.08534996,1.5922714027852176,4.747313,7.6870384,54.050518,1677640603000,0.38180387,10.0,1075407793782041,8.861801,Car
Fix,NLP,37.3888328,-122.0855087,-2.5999999046325684,,14.464,,1677640604271,,,1075407494000000,1.0,Car
Fix,GPS,37.3889866172,-122.085309101,0.8232590907191274,4.841352,7.450818,60.608776,1677640604000,0.3997902,10.0,1075408728212000,8.245158,Car
Fix,FLP,37.3888492,-122.0854066,-2.5999999046325684,5.0891023,12.848,44.927803,1677640605293,,,1075408516820448,0.990095,Car
Fix,GPS,37.3890075804,-122.0852603371,0.3890545843461147,5.0585384,7.2710524,67.99935,1677640605000,0.44557846,10.0,1075409728225000,7.94394,Car
Fix,FLP,37.3889059,-122.0853482,-2.5999999046325684,5.469676,12.571,47.114323,1677640606378,,,1075409601831191,0.9995397,Car
Fix,GPS,37.3890234847,-122.0852088843,-0.0394161057270124,5.379291,7.0404778,73.943665,1677640606000,0.3561377,10.0,1075410728264000,7.7921124,Car
Fix,FLP,37.3889718,-122.085248,-2.5999999046325684,5.5888877,11.771,65.8483,1677640607504,0.3561377,10.0,1075410728264000,1.0090928,Car
Fix,GPS,37.3890355741,-122.0851464355,-0.0792725870247167,5.8230977,6.859848,78.70065,1677640607000,0.39124772,10.0,1075411728293000,7.6418447,Car
Fix,FLP,37.389009,-122.0851707,-2.5999999046325684,5.8606253,11.355,72.93646,1677640608505,0.39124772,10.0,1075411728293000,1.0189017,Car
Fix,NLP,37.388818,-122.0849902,-2.0,,14.407,,1677640609306,,,1075412529000000,1.0,Car
Fix,FLP,37.3890227,-122.0851221,-2.0,5.8604903,12.142,72.85593,1677640609306,0.39124772,10.0,1075412529000000,0.9514184,Car
Fix,GPS,37.3890442887,-122.0850791427,0.1646324755622949,5.9543304,6.7484875,81.17558,1677640608000,0.3500029,10.0,1075412728291000,7.5663834,Car
Fix,FLP,37.3890314,-122.0850976,-2.0,5.991107,11.042,77.40504,1677640609505,0.3500029,10.0,1075412728291000,0.9546299,Car
Fix,GPS,37.3890484817,-122.0850143018,0.2710673802810724,6.1541185,14.787624,78.49545,1677640609000,0.54701096,10.0,1075413728343000,7.5781035,Car
Fix,FLP,37.3890437,-122.0850293,-2.0,6.1123824,10.92,77.7819,1677640610504,0.54701096,10.0,1075413728343000,0.9653223,Car
Fix,GPS,37.3890587989,-122.0849415097,1.0920162612250852,6.1600966,6.6679792,75.63631,1677640610000,0.32580587,10.0,1075414728299000,7.4960985,Car
Fix,FLP,37.3890575,-122.0849531,-2.0,6.1337056,9.895,76.16641,1677640611505,0.32580587,10.0,1075414728299000,0.9749223,Car
Fix,GPS,37.3890687258,-122.0848743358,0.6812332310532776,6.081512,7.7482386,73.19198,1677640611000,0.49464634,10.0,1075415728309000,7.2936587,Car
Fix,FLP,37.3890706,-122.0848821,-2.0,6.078297,10.013,74.33114,1677640612504,0.49464634,10.0,1075415728309000,0.98459876,Car
Fix,GPS,37.3890866844,-122.0848131871,0.8991764453670895,5.8053064,6.5306787,65.98427,1677640612000,0.47839284,10.0,1075416728329000,7.117277,Car
Fix,FLP,37.3890875,-122.0848155,-2.0,5.8245573,9.958,68.48415,1677640613504,0.47839284,10.0,1075416728329000,0.99499875,Car
Fix,GPS,37.389110204,-122.0847547835,1.7350086002763818,5.640385,6.475707,53.173775,1677640613000,0.37739336,10.0,1075417728341000,6.936771,Car
Fix,FLP,37.3891106,-122.0847557,-2.0,5.6228995,8.442,58.087864,1677640614505,0.37739336,10.0,1075417728341000,1.0053988,Car
Fix,GPS,37.3891390506,-122.084714309,2.827524167401661,5.460062,6.103293,44.26161,1677640614000,0.042685147,10.0,1075418728356000,6.594098,Car
Fix,FLP,37.3891398,-122.0847084,-2.0,5.493793,6.705,47.995426,1677640615505,0.042685147,10.0,1075418728356000,1.0149988,Car
Fix,GPS,37.3891741466,-122.0846693415,2.644106645609842,4.7555604,5.551896,35.21476,1677640615000,0.051635932,10.0,1075419728368000,6.158947,Car
Fix,FLP,37.3891738,-122.0846675,-2.0,4.9634504,6.482,38.97914,1677640616505,0.051635932,10.0,1075419728368000,1.0253987,Car
Fix,GPS,37.3892079866,-122.0846298599,3.006340576209189,3.563366,5.3797283,31.10996,1677640616000,0.3813944,10.0,1075420728381000,5.846714,Car
Fix,FLP,37.3892075,-122.0846333,-2.0,3.8381686,6.008,33.6242,1677640617505,0.3813944,10.0,1075420728381000,1.0345263,Car
Fix,GPS,37.3892293744,-122.0846066393,3.2076038692866007,2.190902,5.2530637,29.621704,1677640617000,0.29623282,10.0,1075421728607000,5.551594,Car
Fix,FLP,37.389232,-122.0846097,-2.0,2.3559973,5.752,30.135069,1677640618505,0.29623282,10.0,1075421728607000,1.0445987,Car
Fix,GPS,37.3892422419,-122.0845948198,3.385995458377278,1.4698336,5.20374,33.4366,1677640618000,0.31508467,11.644845,1075422728426000,5.3276453,Car
Fix,FLP,37.3892438,-122.0845974,-2.0,1.5970372,5.457,32.010475,1677640619505,0.31508467,11.644845,1075422728426000,1.0549988,Car
Fix,GPS,37.3892510524,-122.0845797014,3.779756811979321,1.366018,5.0832114,32.991207,1677640619000,0.28238156,11.139896,1075423728425000,5.176689,Car
Fix,FLP,37.3892538,-122.0845844,-2.0,1.3845313,5.287,31.997276,1677640620505,0.28238156,11.139896,1075423728425000,1.0899141,Car
Fix,GPS,37.3892661274,-122.0845682286,4.47009622163957,1.8759866,4.7604437,27.876415,1677640620000,0.07596208,10.0,1075424728450000,4.928108,Car
Fix,FLP,37.3892615,-122.0845742,-2.0,1.7197317,5.145,26.995188,1677640621504,0.07596208,10.0,1075424728450000,1.0745163,Car
Fix,GPS,37.3892906397,-122.0845482057,4.157873875664299,2.9771366,4.425597,27.931492,1677640621000,0.02431965,10.0,1075425728464000,4.6979237,Car
Fix,FLP,37.3892799,-122.0845591,-2.0,2.77029,4.977,24.97857,1677640622504,0.02431965,10.0,1075425728464000,1.0926026,Car
Fix,GPS,37.3893150879,-122.0845335972,4.170515077307247,3.8986657,4.388748,28.342268,1677640622000,0.34644502,10.0,1075426728468000,4.5005407,Car
Fix,FLP,37.3893071,-122.0845399,-2.0,3.571011,4.863,26.767017,1677640623505,0.34644502,10.0,1075426728468000,1.1019324,Car
Fix,GPS,37.3893481686,-122.0845119354,4.049539667108993,4.4983816,4.388903,25.463757,1677640623000,0.35339403,10.0,1075427728489000,4.3375683,Car
Fix,FLP,37.3893415,-122.0845172,-2.0,4.3087416,4.664,24.758476,1677640624505,0.35339403,10.0,1075427728489000,1.1507989,Car
Fix,GPS,37.3893875192,-122.0844876205,4.067437739365329,5.0422845,4.591915,25.609118,1677640624000,0.39716768,10.0,1075428728506000,4.3253856,Car
Fix,FLP,37.389382,-122.0844922,-2.0,4.866596,4.603,24.473886,1677640625505,0.39716768,10.0,1075428728506000,1.1237425,Car
Fix,GPS,37.3894302499,-122.0844601857,4.050455128286262,5.3310585,4.6710134,28.23031,1677640625000,0.35341358,10.0,1075429728519000,4.3427367,Car
Fix,FLP,37.3894259,-122.0844644,-2.0,5.1987567,4.592,26.630203,1677640626504,0.35341358,10.0,1075429728519000,1.1315727,Car
Fix,GPS,37.3894818199,-122.0844286809,3.4667796851503243,6.3685894,4.421956,26.001574,1677640626000,0.045035448,10.0,1075430728533000,4.1791477,Car
Fix,FLP,37.3894752,-122.084433,-2.0,6.1009507,4.481,25.159958,1677640627505,0.045035448,10.0,1075430728533000,1.153583,Car
Fix,GPS,37.3895346846,-122.0843928165,3.487552892829068,6.5546656,4.272644,26.73523,1677640627000,0.040813547,10.0,1075431728559000,4.0916185,Car
Fix,FLP,37.3895297,-122.084398,-2.0,6.4408255,4.469,25.400675,1677640628505,0.040813547,10.0,1075431728559000,1.1646391,Car
Fix,GPS,37.3895909953,-122.0843562478,3.377731716710916,6.890897,4.566242,26.466621,1677640628000,0.03580369,10.0,1075432728576000,4.02649,Car
Fix,FLP,37.3895865,-122.0843613,-2.0,6.7735105,4.504,25.504004,1677640629505,0.03580369,10.0,1075432728576000,1.1238761,Car
Fix,GPS,37.3896511659,-122.0843194088,3.1992212987138684,7.145745,4.1749706,25.873129,1677640629000,0.06281738,10.0,1075433728585000,3.9569085,Car
Fix,FLP,37.3896463,-122.0843239,-2.0,7.0616894,4.421,25.002657,1677640630504,0.06281738,10.0,1075433728585000,1.2167389,Car
Fix,GPS,37.3897136007,-122.0842831448,3.018653417657742,7.4083033,4.1817846,25.970753,1677640630000,0.06111383,10.0,1075434728593000,3.8884213,Car
Fix,FLP,37.3897086,-122.0842865,-2.0,7.3204055,4.323,24.807135,1677640631505,0.06111383,10.0,1075434728593000,1.2151484,Car
Fix,GPS,37.389775328,-122.0842472963,2.8557084036657416,7.5453844,4.2714324,25.54696,1677640631000,0.063937396,1.0,1075435728621000,3.8213663,Car
Fix,FLP,37.3897718,-122.0842492,-2.0,7.5439043,4.293,24.99662,1677640632504,0.063937396,1.0,1075435728621000,1.2015816,Car
Fix,GPS,37.3898387271,-122.0842095408,2.5213089571233462,7.5436597,3.8116918,25.60808,1677640632000,0.027903324,1.0,1075436728610000,3.7455542,Car
Fix,FLP,37.3898357,-122.0842115,-2.0,7.5436625,4.218,24.999992,1677640633504,0.027903324,1.0,1075436728610000,1.2458489,Car
Fix,GPS,37.3899003024,-122.0841742819,2.516865943211775,7.2698274,4.3893156,25.142124,1677640633000,0.4314721,2.9479089,1075437728736000,3.814631,Car
Fix,FLP,37.3898986,-122.0841749,-2.0,7.3185263,4.183,24.97749,1677640634505,0.4314721,2.9479089,1075437728736000,1.2547613,Car
Fix,GPS,37.3899587086,-122.0841410186,2.473308904763629,6.9089427,4.941724,25.702044,1677640634000,0.4371878,3.2020226,1075438728642000,3.9455533,Car
Fix,FLP,37.3899583,-122.0841405,-2.0,6.9748034,4.336,24.972422,1677640635505,0.4371878,3.2020226,1075438728642000,1.2025678,Car
Fix,GPS,37.3900154716,-122.0841069368,1.7640537164135637,7.125373,4.65074,25.122154,1677640635000,0.061222907,1.0,1075439728666000,3.8277786,Car
Fix,FLP,37.3900154,-122.084107,-2.0,7.124222,4.43,24.995905,1677640636505,0.061222907,1.0,1075439728666000,1.2399603,Car
Fix,GPS,37.3900712131,-122.0840721291,1.815119443755828,6.6133175,5.0410576,27.433525,1677640636000,0.44307935,3.4141304,1075440728926000,3.8782203,Car
Fix,FLP,37.3900725,-122.0840725,-2.0,6.7099133,4.584,26.593462,1677640637504,0.44307935,3.4141304,1075440728926000,1.2967142,Car
Fix,GPS,37.3901238851,-122.0840377622,2.064145836847062,6.457103,5.2058353,27.397821,1677640637000,0.4282977,3.423812,1075441728683000,3.979583,Car
Fix,FLP,37.3901252,-122.0840383,-2.0,6.496203,4.845,26.927952,1677640638504,0.4282977,3.423812,1075441728683000,1.2856828,Car
Fix,GPS,37.3901801272,-122.0840050721,2.042774079825167,6.3608875,5.3503695,26.465342,1677640638000,0.4260805,3.4375715,1075442728716000,4.1049204,Car
Fix,FLP,37.3901784,-122.0840051,-2.0,6.381281,4.929,26.12778,1677640639505,0.4260805,3.4375715,1075442728716000,1.3030794,Car
Fix,GPS,37.3902305986,-122.0839718853,1.527425599039125,5.6077976,5.4832,28.38852,1677640639000,0.40981674,3.8061388,1075443728932000,4.2280326,Car
Fix,FLP,37.3902297,-122.0839729,-2.0,5.7201824,5.146,27.67697,1677640640505,0.40981674,3.8061388,1075443728932000,1.3134693,Car
Fix,GPS,37.3902746177,-122.0839411829,1.3278998833715911,5.0039496,5.545509,27.933405,1677640640000,0.40812266,4.2227154,1075444728729000,4.342759,Car
Fix,FLP,37.3902745,-122.0839425,-2.0,5.1070557,5.325,27.063852,1677640641505,0.40812266,4.2227154,1075444728729000,1.2726042,Car
Fix,GPS,37.3903121913,-122.0839167013,1.3927445423504914,4.4943323,5.5572834,27.016022,1677640641000,0.4192743,4.6412907,1075445728747000,4.4600115,Car
Fix,FLP,37.3903137,-122.0839166,-2.0,4.585028,5.363,26.954138,1677640642505,0.4192743,4.6412907,1075445728747000,1.2829943,Car
Fix,NLP,37.3903974,-122.0840572,-5.0,,19.154,,1677640643146,,,1075446369000000,1.0,Car
Fix,FLP,37.390335,-122.0839029,-5.0,4.581674,6.837,26.957493,1677640643145,0.4192743,4.6412907,1075446369000000,0.93300897,Car
Fix,GPS,37.3903463475,-122.0838967413,1.8390518824977429,3.6138027,5.5538216,27.06477,1677640642000,0.38604093,5.413596,1075446728800000,4.5671544,Car
Fix,FLP,37.390346,-122.0838962,-5.0,3.7392185,6.895,26.910263,1677640643505,0.38604093,5.413596,1075446728800000,0.9839267,Car
Fix,GPS,37.3903732251,-122.0838820897,2.495485862390492,3.2519338,5.4694066,28.068619,1677640643000,0.37047535,5.8759503,1075447728777000,4.6433716,Car
Fix,FLP,37.3903745,-122.0838793,-5.0,3.3119292,6.914,27.815847,1677640644505,0.37047535,5.8759503,1075447728777000,1.0014484,Car
Fix,GPS,37.3904015675,-122.0838639604,2.566636063808025,2.9995687,5.2774677,29.55036,1677640644000,0.3463042,5.9406724,1075448728801000,4.6863685,Car
Fix,FLP,37.390401,-122.0838628,-5.0,3.0340977,6.68,28.838327,1677640645504,0.3463042,5.9406724,1075448728801000,1.0343454,Car
Fix,GPS,37.3904272636,-122.0838466237,1.8391090874884612,2.952433,5.1432405,25.892471,1677640645000,0.3329359,5.7291665,1075449728901000,4.699025,Car
Fix,FLP,37.390426,-122.0838466,-5.0,2.9594297,6.813,25.369112,1677640646505,0.3329359,5.7291665,1075449728901000,1.0367978,Car
Fix,GPS,37.3904531031,-122.0838290226,1.1430055187319197,3.2753808,5.1623335,24.921146,1677640646000,0.33664188,5.2072954,1075450728974000,4.7292395,Car
Fix,FLP,37.3904516,-122.0838307,-5.0,3.2412226,6.747,24.151957,1677640647505,0.33664188,5.2072954,1075450728974000,1.0226938,Car
Fix,FLP,37.3904761,-122.0838168,-5.0,3.2392666,7.413,24.154613,1677640648484,0.33664188,5.2072954,1075451707000000,0.9620045,Car
Fix,NLP,37.3904586,-122.0840416,-5.0,,26.549,,1677640648484,,,1075451707000000,1.427051,Car
Fix,GPS,37.3904815906,-122.0838123508,1.4308163850776192,3.8013992,5.2936544,25.664543,1677640647000,0.37444592,5.0385637,1075451728836000,4.7622647,Car
Fix,GPS,37.390513464,-122.0837922986,1.5266499081527114,4.4362526,5.355347,27.062164,1677640648000,0.38326982,4.60058,1075452728854000,4.8333735,Car
Fix,FLP,37.3905115,-122.0837946,-5.0,4.342003,7.351,26.804602,1677640649505,0.38326982,4.60058,1075452728854000,1.1530579,Car
Fix,GPS,37.3905549782,-122.0837638509,1.1951131672115147,5.259096,5.346493,29.58328,1677640649000,0.4161094,4.271194,1075453728871000,4.890464,Car
Fix,FLP,37.3905505,-122.0837683,-5.0,5.118992,7.362,28.751234,1677640650505,0.4161094,4.271194,1075453728871000,1.1675745,Car
Fix,GPS,37.390602061,-122.0837275397,1.3202528329091272,5.3472033,5.345565,27.718916,1677640650000,0.41080654,4.1134725,1075454728896000,4.9089346,Car
Fix,FLP,37.390596,-122.0837349,-5.0,5.3142247,7.074,27.253372,1677640651505,0.41080654,4.1134725,1075454728896000,1.0632035,Car
Fix,GPS,37.3906532535,-122.0836880124,1.6060193324998262,5.4344897,5.328416,29.904009,1677640651000,0.42643824,4.1979275,1075455729037000,4.969868,Car
Fix,FLP,37.3906449,-122.0836988,-5.0,5.4181914,7.424,28.748487,1677640652505,0.42643824,4.1979275,1075455729037000,1.0643011,Car
Fix,GPS,37.3907017193,-122.0836481107,1.554797471626746,5.142378,5.3248444,31.910927,1677640652000,0.4228269,4.4162264,1075456728903000,5.0130086,Car
Fix,FLP,37.3906935,-122.08366,-5.0,5.1873994,5.34,30.644825,1677640653505,0.4228269,4.4162264,1075456728903000,1.0739295,Car
Fix,NLP,37.3907316,-122.0840676,-5.599999904632568,,23.853,,1677640653475,,,1075456698000000,2.0069547,Car
Fix,GPS,37.390744322,-122.0836118883,1.1777011080423767,4.416907,5.2599955,32.902016,1677640653000,0.3931089,4.815395,1075457728926000,5.027262,Car
Fix,FLP,37.3907397,-122.0836203,-5.599999904632568,4.524232,5.321,31.790854,1677640654504,0.3931089,4.815395,1075457728926000,1.4234737,Car
Fix,GPS,37.3907817263,-122.0835887903,0.2321656427294548,3.3491154,5.307606,30.949495,1677640654000,0.39179718,6.3675437,1075458728946000,5.059369,Car
Fix,FLP,37.3907768,-122.083592,-5.599999904632568,3.5123115,5.315,30.267782,1677640655505,0.39179718,6.3675437,1075458728946000,1.18545,Car
Fix,GPS,37.3908104334,-122.0835693376,-0.3697412657834686,1.9896361,5.3555646,28.897573,1677640655000,0.35435635,9.556767,1075459728956000,5.0186543,Car
Fix,FLP,37.3908059,-122.0835715,-5.599999904632568,2.1657135,5.317,28.295792,1677640656505,0.35435635,9.556767,1075459728956000,1.170345,Car
Fix,GPS,37.3908299545,-122.0835599831,-0.2460296381352597,1.108619,5.308779,31.418211,1677640656000,0.28643394,13.596323,1075460728958000,4.897116,Car
Fix,FLP,37.3908255,-122.0835603,-5.599999904632568,1.192543,5.315,30.499676,1677640657504,0.28643394,13.596323,1075460728958000,1.1737874,Car
Fix,GPS,37.3908403638,-122.0835565034,0.1360678692310861,2.1236203,5.287541,25.077162,1677640657000,0.29653648,7.0071545,1075461728972000,4.803426,Car
Fix,FLP,37.3908376,-122.0835546,-5.599999904632568,2.0421267,5.304,25.37301,1677640658505,0.29653648,7.0071545,1075461728972000,1.168925,Car
Fix,GPS,37.3908621287,-122.0835417541,0.2064506803790265,3.392611,5.3862686,27.927141,1677640658000,0.378154,5.6098866,1075462729032000,4.7848263,Car
Fix,FLP,37.3908579,-122.0835439,-5.599999904632568,3.197195,5.322,26.991568,1677640659506,0.378154,5.6098866,1075462729032000,1.1789451,Car
Fix,GPS,37.3909019252,-122.0835225727,0.3581168216504106,4.4906797,5.6524005,25.10998,1677640659000,0.42435074,4.7700586,1075463729020000,4.893951,Car
Fix,FLP,37.3908834,-122.0835298,-5.599999904632568,3.9235592,5.38,25.960848,1677640660505,0.42435074,4.7700586,1075463729020000,1.188925,Car
Fix,NLP,37.3909095,-122.0835203,-6.099999904632568,,29.133,,1677640660454,,,1075463678000000,1.4567497,Car
Fix,GPS,37.3909661358,-122.0834956687,-0.644558213541718,5.8385057,5.4929714,23.94872,1677640660000,0.41221717,3.4532826,1075464729054000,4.9727187,Car
Fix,FLP,37.3909296,-122.0835078,-6.099999904632568,5.073526,5.475,24.096483,1677640661506,0.41221717,3.4532826,1075464729054000,1.3513091,Car
Fix,GPS,37.3910379434,-122.0834660842,-2.970307167416665,6.6708236,5.313625,23.78663,1677640661000,0.3895955,3.008622,1075465729081000,5.031637,Car
Fix,FLP,37.3909965,-122.0834773,-6.099999904632568,6.445332,5.476,23.186707,1677640662506,0.3895955,3.008622,1075465729081000,1.3613697,Car
Fix,GPS,37.3911050678,-122.0834328726,-3.4709105033511314,7.4385257,5.4168453,24.494751,1677640662000,0.41072318,2.902931,1075466729139000,5.1035895,Car
Fix,FLP,37.3910727,-122.0834419,-6.099999904632568,7.29566,5.489,23.92284,1677640663506,0.41072318,2.902931,1075466729139000,1.3714246,Car
Fix,GPS,37.3911712855,-122.0833932421,-4.003147320724145,7.795946,5.479086,25.103176,1677640663000,0.42285183,2.8792274,1075467729102000,5.1477184,Car
Fix,FLP,37.391149,-122.0834018,-6.099999904632568,7.722999,5.521,24.857685,1677640664505,0.42285183,2.8792274,1075467729102000,1.3814034,Car
Fix,NLP,37.3912165,-122.0833406,-6.299999713897705,,16.87,,1677640665485,,,1075468709000000,1.0,Car
Fix,GPS,37.391240334,-122.083357766,-4.660983047901556,7.9919047,5.4421005,26.422504,1677640664000,0.4536949,3.126072,1075468729166000,5.1637416,Car
Fix,FLP,37.3912084,-122.0833675,-6.299999713897705,7.718008,7.109,24.856512,1677640665486,0.42285183,2.8792274,1075468709000000,1.2191006,Car
Fix,GPS,37.391305197,-122.083318453,-5.500484612945916,7.6358156,5.4990616,28.116837,1677640665000,0.465165,3.3367915,1075469729176000,5.172178,Car
Fix,FLP,37.3912941,-122.0833214,-6.299999713897705,7.694947,7.288,27.586971,1677640666505,0.465165,3.3367915,1075469729176000,1.2215421,Car
Fix,GPS,37.3913684449,-122.0832771704,-6.179008872317136,7.7550015,5.517621,26.368774,1677640666000,0.4320309,3.0294373,1075470729135000,5.087385,Car
Fix,FLP,37.391361,-122.0832796,-6.299999713897705,7.74638,7.595,26.239897,1677640667505,0.4320309,3.0294373,1075470729135000,1.230926,Car
Fix,GPS,37.3914295465,-122.0832348989,-6.154891876541725,7.728565,5.593752,25.02402,1677640667000,0.44354102,3.1679766,1075471729216000,5.089137,Car
Fix,FLP,37.3914261,-122.0832385,-6.299999713897705,7.731969,7.624,25.207361,1677640668505,0.44354102,3.1679766,1075471729216000,1.2431772,Car
Fix,GPS,37.3914923537,-122.0831958471,-6.823091167628155,7.75436,5.5802603,24.358885,1677640668000,0.42384753,2.9586217,1075472729215000,5.0498147,Car
Fix,FLP,37.3914905,-122.0831991,-6.299999713897705,7.7507343,7.641,24.182064,1677640669505,0.42384753,2.9586217,1075472729215000,1.2519547,Car
Fix,GPS,37.391559849,-122.0831607734,-7.50526376200401,7.787459,5.5371747,23.857483,1677640669000,0.40320516,2.693651,1075473729457000,5.0348687,Car
Fix,FLP,37.3915566,-122.0831623,-6.299999713897705,7.7818584,5.545,23.155855,1677640670506,0.40320516,2.693651,1075473729457000,1.2614672,Car
Fix,GPS,37.3916234052,-122.0831264596,-7.732537173387438,7.6331525,5.5877485,23.471468,1677640670000,0.4033059,2.697524,1075474729240000,5.030754,Car
Fix,FLP,37.3916219,-122.0831272,-6.299999713897705,7.6545,5.563,23.013723,1677640671506,0.4033059,2.697524,1075474729240000,1.2715279,Car
Fix,GPS,37.3916890374,-122.083092098,-7.456102313252192,7.2300572,5.674102,23.613144,1677640671000,0.41776067,2.8687322,1075475729223000,5.1007166,Car
Fix,FLP,37.3916865,-122.083093,-6.299999713897705,7.294162,5.594,22.97505,1677640672506,0.41776067,2.8687322,1075475729223000,1.2815479,Car
Fix,GPS,37.391746098,-122.083056582,-7.22759291237157,6.9298077,5.6532593,24.529835,1677640672000,0.4183554,3.1093633,1075476729271000,5.2027965,Car
Fix,FLP,37.3917463,-122.083059,-6.299999713897705,6.9855013,5.606,23.834745,1677640673506,0.4183554,3.1093633,1075476729271000,1.2916325,Car
Fix,GPS,37.391797327,-122.0830185925,-7.228410050050781,6.732497,5.69955,27.95264,1677640673000,0.4040883,3.2580795,1075477729283000,5.321325,Car
Fix,FLP,37.3918008,-122.0830234,-6.299999713897705,6.7683616,5.63,26.540058,1677640674506,0.4040883,3.2580795,1075477729283000,1.300451,Car
Fix,GPS,37.3918523123,-122.0829807546,-7.527506028497226,6.765628,5.863187,28.484028,1677640674000,0.4123913,3.297129,1075478729275000,5.395324,Car
Fix,FLP,37.3918541,-122.0829857,-6.299999713897705,6.7662697,5.669,27.792107,1677640675505,0.4123913,3.297129,1075478729275000,1.4205171,Car
Fix,GPS,37.3919064269,-122.0829443187,-7.305457939144239,6.3744464,5.9471188,27.217924,1677640675000,0.41691267,3.4755094,1075479729280000,5.416123,Car
Fix,FLP,37.3919071,-122.082948,-6.299999713897705,6.433289,5.767,27.110603,1677640676506,0.41691267,3.4755094,1075479729280000,1.4305271,Car
Fix,GPS,37.3919547599,-122.0829157545,-7.194447975412447,5.600948,5.9622583,27.945213,1677640676000,0.4199169,4.0651007,1075480729545000,5.3610454,Car
Fix,FLP,37.3919565,-122.0829155,-6.299999713897705,5.7290773,5.825,26.996494,1677640677506,0.4199169,4.0651007,1075480729545000,1.4409921,Car
Fix,GPS,37.391995693,-122.0828924884,-7.637175446848713,4.5348744,5.9107223,29.979038,1677640677000,0.38410127,4.5763636,1075481729323000,5.2864747,Car
Fix,FLP,37.3919988,-122.082889,-6.299999713897705,4.6914144,5.876,28.647736,1677640678505,0.38410127,4.5763636,1075481729323000,1.3449581,Car
Fix,GPS,37.3920243366,-122.0828699312,-8.303047786855876,3.2182326,5.63999,34.088036,1677640678000,0.3635065,6.152972,1075482729328000,5.201623,Car
Fix,FLP,37.39203,-122.0828666,-6.299999713897705,3.3952482,5.864,33.076405,1677640679506,0.3635065,6.152972,1075482729328000,1.3549781,Car
Fix,GPS,37.3920392787,-122.0828577472,-8.354310349747545,1.8391879,5.449681,38.867275,1677640679000,0.30445004,9.112179,1075483729367000,5.1254244,Car
Fix,FLP,37.3920419,-122.0828559,-6.299999713897705,2.2472427,5.758,36.250904,1677640680505,0.30445004,9.112179,1075483729367000,1.3649601,Car
Fix,GPS,37.3920467805,-122.0828486848,-7.919062131332829,1.1178154,5.272108,38.361107,1677640680000,0.26051313,12.808046,1075484729356000,5.0152807,Car
Fix,FLP,37.3920532,-122.0828443,-6.299999713897705,1.1976017,5.645,37.73863,1677640681506,0.26051313,12.808046,1075484729356000,1.3749701,Car
Fix,GPS,37.3920575084,-122.0828345342,-8.124522877867463,1.6601028,5.1467953,39.08137,1677640681000,0.26609343,8.848887,1075485729356000,4.9040117,Car
Fix,FLP,37.39206,-122.0828352,-6.299999713897705,1.6256874,5.574,38.94218,1677640682505,0.26609343,8.848887,1075485729356000,1.38495,Car
Fix,GPS,37.3920704046,-122.0828201917,-8.043081499340952,2.5607865,5.0683203,44.657734,1677640682000,0.30554217,6.6673183,1075486729379000,4.79284,Car
Fix,FLP,37.3920712,-122.0828218,-6.299999713897705,2.470249,5.369,43.6828,1677640683506,0.30554217,6.6673183,1075486729379000,1.3857788,Car
Fix,GPS,37.3920907328,-122.0827933804,-7.4551504571337475,3.5150898,5.26932,54.610012,1677640683000,0.3421245,5.5577397,1075487729508000,4.806419,Car
Fix,FLP,37.3920888,-122.0827979,-6.299999713897705,3.3880997,5.307,53.118614,1677640684505,0.3421245,5.5577397,1075487729508000,1.3957888,Car
Fix,GPS,37.392110135,-122.0827567473,-7.275421499066192,4.02856,5.3907776,70.241165,1677640684000,0.3324576,4.753367,1075488729414000,4.8195653,Car
Fix,FLP,37.392108,-122.082762,-6.299999713897705,3.9441938,5.229,68.41903,1677640685505,0.3324576,4.753367,1075488729414000,1.4057888,Car
Fix,GPS,37.3921214578,-122.0827069525,-7.344639603647666,4.6493874,5.5126123,90.26678,1677640685000,0.37951487,5.098082,1075489729462000,4.9078298,Car
Fix,FLP,37.3921205,-122.0827142,-6.299999713897705,4.519483,5.277,87.03431,1677640686505,0.37951487,5.098082,1075489729462000,1.414541,Car
Fix,NLP,37.3920162,-122.0827355,-7.599999904632568,,25.985,,1677640686517,,,1075489741000000,1.0,Car
Fix,GPS,37.392119692,-122.0826470374,-7.653662285112251,5.0722857,5.6719704,101.37988,1677640686000,0.39396498,4.783627,1075490729486000,5.0163803,Car
Fix,FLP,37.3921207,-122.0826556,-7.599999904632568,4.973276,5.429,98.97156,1677640687506,0.39396498,4.783627,1075490729486000,1.1849487,Car
Fix,GPS,37.3920987344,-122.0825836218,-5.69580489954804,5.7012863,5.7313995,108.4408,1677640687000,0.4120904,4.4329686,1075491729492000,5.089909,Car
Fix,FLP,37.3921071,-122.0825931,-7.599999904632568,5.5769906,5.539,106.63414,1677640688506,0.4120904,4.4329686,1075491729492000,1.1953697,Car
Fix,GPS,37.3920579147,-122.0825043826,-4.57484654931031,6.5052156,5.505045,112.10736,1677640688000,0.40151384,3.7140903,1075492729523000,5.126118,Car
Fix,FLP,37.3920772,-122.08252,-7.599999904632568,6.3658724,5.579,111.28153,1677640689505,0.40151384,3.7140903,1075492729523000,1.2065868,Car
Fix,GPS,37.3920217648,-122.0824207626,-4.568684649606578,6.9932723,5.38669,112.577354,1677640689000,0.37078944,3.085323,1075493729483000,5.1191587,Car
Fix,FLP,37.3920411,-122.0824384,-7.599999904632568,6.9156117,5.578,111.93145,1677640690506,0.37078944,3.085323,1075493729483000,1.2219063,Car
Fix,GPS,37.3919917136,-122.0823418731,-5.013441256154033,6.9930763,5.286178,112.502625,1677640690000,0.37169024,3.1306865,1075494729549000,5.0868263,Car
Fix,FLP,37.3920063,-122.0823552,-7.599999904632568,6.9852157,5.54,112.00328,1677640691505,0.37169024,3.1306865,1075494729549000,1.2319063,Car
Fix,GPS,37.3919637277,-122.0822660327,-4.963636066559462,6.9850607,5.219222,114.17924,1677640691000,0.36599493,3.093222,1075495729911000,5.0205283,Car
Fix,FLP,37.3919742,-122.0822749,-7.599999904632568,6.9859567,5.425,113.74509,1677640692505,0.36599493,3.093222,1075495729911000,1.2423729,Car
Fix,GPS,37.3919287566,-122.0821892957,-4.104331624392206,6.9592137,5.147646,116.97459,1677640692000,0.364183,3.1288724,1075496729755000,5.02129,Car
Fix,FLP,37.3919397,-122.0821967,-7.599999904632568,6.9631276,5.309,115.70875,1677640693505,0.364183,3.1288724,1075496729755000,1.2523729,Car
Fix,GPS,37.3918931771,-122.0821124096,-3.5596650522515216,6.9722157,5.1704993,117.50805,1677640693000,0.3678261,3.1605844,1075497729808000,5.032008,Car
Fix,FLP,37.3919039,-122.0821198,-7.599999904632568,6.972125,5.242,116.83456,1677640694506,0.3678261,3.1605844,1075497729808000,1.262448,Car
Fix,GPS,37.3918598031,-122.0820414945,-2.7104890502166525,6.404083,5.1908045,118.44895,1677640694000,0.37345093,3.5043166,1075498729797000,5.078292,Car
Fix,FLP,37.3918687,-122.0820463,-7.599999904632568,6.48238,5.202,117.84655,1677640695506,0.37345093,3.5043166,1075498729797000,1.2724379,Car
Fix,GPS,37.3918327149,-122.0819833003,-2.050720290539369,5.0661106,5.2365093,121.82117,1677640695000,0.39480847,4.5322847,1075499729716000,5.1872697,Car
Fix,FLP,37.3918379,-122.0819833,-7.599999904632568,5.2731457,5.193,120.4452,1677640696505,0.39480847,4.5322847,1075499729716000,1.2804718,Car
Fix,GPS,37.3918153851,-122.0819488672,-2.452050285960106,3.9213762,5.354653,124.930756,1677640696000,0.4447323,6.515704,1075500729616000,5.29583,Car
Fix,FLP,37.3918148,-122.0819402,-7.599999904632568,4.1568437,5.22,123.21644,1677640697505,0.4447323,6.515704,1075500729616000,1.2904618,Car
Fix,GPS,37.3918049517,-122.0819283496,-2.619502783672172,1.8640143,5.427656,119.73804,1677640697000,0.35688215,11.46603,1075501729635000,5.414037,Car
Fix,FLP,37.3918,-122.0819145,-7.599999904632568,2.1390915,5.254,120.1462,1677640698505,0.35688215,11.46603,1075501729635000,1.3005624,Car
Fix,GPS,37.3918009049,-122.0819211976,-1.4043859470176665,1.2423998,5.4145746,119.60098,1677640698000,0.26831025,12.381646,1075502729886000,5.484047,Car
Fix,FLP,37.3917952,-122.081906,-7.599999904632568,1.3071874,5.325,119.13471,1677640699506,0.26831025,12.381646,1075502729886000,1.3100821,Car
Fix,GPS,37.3917964942,-122.0819148363,-0.7297179021650425,1.6939073,5.460663,113.77694,1677640699000,0.26312512,8.906106,1075503729708000,5.5553937,Car
Fix,FLP,37.3917924,-122.081902,-7.599999904632568,1.6640214,5.347,113.35923,1677640700506,0.26312512,8.906106,1075503729708000,1.3191121,Car
Fix,GPS,37.3917915518,-122.0819026049,-0.6006377588852937,2.0304003,5.25124,117.2234,1677640700000,0.25816193,7.360077,1075504729685000,5.492264,Car
Fix,FLP,37.3917887,-122.0818925,-7.599999904632568,2.00313,5.357,116.77671,1677640701505,0.25816193,7.360077,1075504729685000,1.329112,Car
Fix,GPS,37.3917872682,-122.0818831661,-1.1486829132894392,1.8392359,5.1360264,109.79389,1677640701000,0.2683693,8.73531,1075505729675000,5.3815923,Car
Fix,FLP,37.3917837,-122.0818772,-7.599999904632568,1.8510077,5.338,109.70026,1677640702506,0.2683693,8.73531,1075505729675000,1.3391122,Car
Fix,GPS,37.3917853697,-122.0818641072,-1.5400729776732447,1.8609056,5.001207,112.15905,1677640702000,0.26554134,8.556254,1075506730088000,5.238928,Car
Fix,FLP,37.3917814,-122.0818605,-7.599999904632568,1.8596855,5.252,111.809975,1677640703506,0.26554134,8.556254,1075506730088000,1.3491122,Car
Fix,GPS,37.3917838588,-122.0818467625,-1.9532666206721676,1.4980419,4.9438114,108.88065,1677640703000,0.2629957,10.724094,1075507729704000,5.1177497,Car
Fix,FLP,37.3917792,-122.0818437,-7.599999904632568,1.5253757,5.201,108.40032,1677640704506,0.2629957,10.724094,1075507729704000,1.3591222,Car
Fix,GPS,37.3917846405,-122.0818332279,-2.0391935723473384,1.0577649,4.999409,102.73078,1677640704000,0.24538185,14.197228,1075508729847000,5.009268,Car
Fix,FLP,37.3917794,-122.0818302,-7.599999904632568,1.0883162,5.066,102.67576,1677640705506,0.24538185,14.197228,1075508729847000,1.3765235,Car
Fix,GPS,37.3917868263,-122.0818264001,-1.8294477781855285,0.35726562,4.982748,102.73078,1677640705000,0.22366272,7.2771354,1075509729718000,4.8745894,Car
Fix,FLP,37.3917816,-122.0818222,-7.599999904632568,0.3946531,5.012,100.96313,1677640706505,0.22366272,7.2771354,1075509729718000,1.3865434,Car
Fix,GPS,37.3917873046,-122.0818260236,-1.7447700895158331,0.0,4.924653,102.73078,1677640706000,0.20759162,31.780159,1075510729740000,4.763899,Car
Fix,FLP,37.3917838,-122.0818216,-7.599999904632568,0.018102434,4.97,,1677640707505,0.20759162,,1075510729740000,1.3965435,Car
Fix,GPS,37.3917897728,-122.0818296459,-2.0684419276566346,0.34383354,4.5052075,102.73078,1677640707000,0.21481068,180.0,1075511729749000,4.6103415,Car
Fix,FLP,37.3917865,-122.081825,-7.599999904632568,0.30511558,4.892,95.5947,1677640708506,0.21481068,180.0,1075511729749000,1.4065335,Car
Fix,GPS,37.3917947524,-122.0818325754,-2.2514630654855274,0.34949866,4.685132,102.73078,1677640708000,0.21748182,71.95871,1075512729773000,4.574713,Car
Fix,FLP,37.3917901,-122.0818265,-7.599999904632568,0.34544337,4.819,100.71848,1677640709506,0.21748182,71.95871,1075512729773000,1.4165335,Car
Fix,NLP,37.3917886,-122.0817385,-7.200000286102295,,16.042,,1677640710335,,,1075513559000000,1.0,Car
Fix,FLP,37.39179,-122.081824,-7.200000286102295,0.34496915,6.593,100.589485,1677640710336,0.21748182,71.95871,1075513559000000,1.1187001,Car
Fix,GPS,37.3917980211,-122.0818318724,-2.385468086227279,0.0,4.8710732,102.73078,1677640709000,0.21406782,16.667225,1075513729781000,4.51908,Car
Fix,FLP,37.3917935,-122.0818275,-7.200000286102295,0.016485691,6.347,,1677640710506,0.21406782,,1075513729781000,1.1187001,Car
Fix,GPS,37.3917980211,-122.0818318724,-2.6281961090955144,0.0,4.4981627,102.73078,1677640710000,0.21557407,180.0,1075514729785000,4.3637123,Car
Fix,FLP,37.3917955,-122.0818293,-7.200000286102295,0.0007863566,6.491,,1677640711506,0.21557407,,1075514729785000,1.1288528,Car
Fix,GPS,37.3917980211,-122.0818318724,-2.8620906350206554,0.0,4.196722,102.73078,1677640711000,0.20981887,180.0,1075515729959000,4.224943,Car
Fix,FLP,37.3917966,-122.0818305,-7.200000286102295,1.392412e-05,6.37,,1677640712506,0.20981887,,1075515729959000,1.1380433,Car
Fix,GPS,37.3917980211,-122.0818318724,-2.92055961823155,0.0,4.015811,102.73078,1677640712000,0.21961857,29.23698,1075516729958000,4.101454,Car
Fix,FLP,37.3917972,-122.0818311,-7.200000286102295,1.288103e-05,6.288,,1677640713506,0.21961857,,1075516729958000,1.146643,Car
Fix,GPS,37.3918017172,-122.0818280846,-2.944846909031892,0.69022256,3.8912408,104.08569,1677640713000,0.23055984,24.118153,1075517729873000,3.9945974,Car
Fix,FLP,37.3917992,-122.0818296,-7.200000286102295,0.6463531,6.157,103.53257,1677640714505,0.23055984,24.118153,1075517729873000,1.158829,Car
Fix,FLP,37.3917983,-122.0818235,-7.200000286102295,0.6461203,6.18,103.51571,1677640715406,0.23055984,24.118153,1075518630000000,1.0734566,Car
Fix,NLP,37.3917997,-122.0817509,-7.200000286102295,,16.084,,1677640715407,,,1075518630000000,1.0,Car
Fix,GPS,37.3918012381,-122.0818140565,-3.372673243898998,2.3146043,4.4524508,105.86422,1677640714000,0.27637884,7.078203,1075518729868000,4.018581,Car
Fix,FLP,37.3917991,-122.0818177,-7.200000286102295,2.1753967,6.11,104.926735,1677640715505,0.27637884,7.078203,1075518729868000,1.0751345,Car
Fix,GPS,37.391794044,-122.0817812902,-3.607754371368953,3.4654167,4.822734,106.66529,1677640715000,0.3188844,5.7464166,1075519730017000,4.078487,Car
Fix,FLP,37.3917939,-122.0817877,-7.200000286102295,3.32646,6.164,105.82977,1677640716507,0.3188844,5.7464166,1075519730017000,1.087538,Car
Fix,GPS,37.3917803336,-122.0817315748,-3.961298415145353,3.8039312,4.958845,108.98375,1677640716000,0.3273818,5.2790065,1075520729926000,4.169685,Car
Fix,FLP,37.3917831,-122.0817422,-7.200000286102295,3.7516158,5.992,107.75284,1677640717506,0.3273818,5.2790065,1075520729926000,1.1031412,Car
Fix,GPS,37.3917608995,-122.0816820752,-3.838760816374311,4.2392488,5.051029,113.72625,1677640717000,0.3573617,5.0785017,1075521729932000,4.3230476,Car
Fix,FLP,37.3917711,-122.0817039,-7.200000286102295,3.984677,6.249,110.31442,1677640718505,0.3573617,5.0785017,1075521729932000,1.1111975,Car
Fix,GPS,37.3917345473,-122.0816264513,-2.98620320464114,4.460732,5.036274,119.6681,1677640718000,0.36126512,4.804356,1075522729944000,4.4916325,Car
Fix,FLP,37.3917486,-122.0816474,-7.200000286102295,4.3912625,6.411,117.91067,1677640719505,0.36126512,4.804356,1075522729944000,1.1202662,Car
Fix,GPS,37.3917127922,-122.0815795488,-2.951644439619125,4.3702307,5.1036696,119.29077,1677640719000,0.36411875,4.889782,1075523729935000,4.6928906,Car
Fix,FLP,37.3917246,-122.0815998,-7.200000286102295,4.3984685,4.995,118.95059,1677640720505,0.36411875,4.889782,1075523729935000,1.1302662,Car
Fix,NLP,37.3917571,-122.0816746,-7.099999904632568,,27.274,,1677640720384,,,1075523607000000,1.0,Car
Fix,GPS,37.3916907343,-122.0815369494,-2.4076520532886465,3.8740718,5.252258,116.3718,1677640720000,0.30908456,4.674288,1075524729971000,4.9167705,Car
Fix,FLP,37.3916968,-122.0815428,-7.099999904632568,3.9220042,5.036,116.32346,1677640721506,0.30908456,4.674288,1075524729971000,1.0518204,Car
Fix,GPS,37.3916696756,-122.0814837069,-3.602001888974358,3.6003103,5.245223,112.44697,1677640721000,0.35026807,5.7957454,1075525729999000,5.0639677,Car
Fix,FLP,37.3916768,-122.0814969,-7.099999904632568,3.6454096,5.115,112.716286,1677640722506,0.35026807,5.7957454,1075525729999000,1.0654747,Car
Fix,GPS,37.3916444525,-122.0814270503,-4.182947317714872,4.158435,5.046034,116.451225,1677640722000,0.33950835,4.790903,1075526729991000,5.078573,Car
Fix,FLP,37.3916554,-122.0814448,-7.099999904632568,4.1007204,5.114,115.65997,1677640723505,0.33950835,4.790903,1075526729991000,1.077907,Car
Fix,GPS,37.3916274231,-122.0813806311,-4.513915330051665,3.9039092,5.330137,114.37817,1677640723000,0.3527282,5.4881525,1075527729965000,5.170496,Car
Fix,FLP,37.3916376,-122.0814041,-7.099999904632568,4.037915,5.157,115.1252,1677640724506,0.3527282,5.4881525,1075527729965000,1.087427,Car
Fix,GPS,37.3916123574,-122.0813357129,-3.757830664276824,4.045445,5.6759996,112.13676,1677640724000,0.3455152,5.257633,1075528730005000,5.2883983,Car
Fix,FLP,37.3916188,-122.0813532,-7.099999904632568,4.0456567,5.263,112.42193,1677640725506,0.3455152,5.257633,1075528730005000,1.097837,Car
Fix,NLP,37.3915607,-122.0813467,-6.599999904632568,,31.764,,1677640726346,,,1075529569000000,1.2670813,Car
Fix,FLP,37.3916066,-122.0813162,-6.599999904632568,4.045098,6.567,112.135284,1677640726346,0.3455152,5.257633,1075529569000000,1.0535004,Car
Fix,GPS,37.3915994944,-122.0812990875,-2.4945548187734423,3.7342691,5.7038836,114.18688,1677640725000,0.3560344,5.844374,1075529730013000,5.3612423,Car
Fix,FLP,37.3916028,-122.0813066,-6.599999904632568,3.7813697,7.613,113.70469,1677640726507,0.3560344,5.844374,1075529730013000,1.0557288,Car
Fix,GPS,37.3915885238,-122.0812619386,-1.55850276921012,3.4458313,5.7155275,112.1659,1677640726000,0.3362354,6.068871,1075530730066000,5.411702,Car
Fix,FLP,37.3915891,-122.0812655,-6.599999904632568,3.4851604,7.928,112.24933,1677640727506,0.3362354,6.068871,1075530730066000,1.0655614,Car
Fix,GPS,37.3915769023,-122.081229613,-0.7693265261895512,3.314213,5.738116,110.62861,1677640727000,0.35000402,6.5243134,1075531730050000,5.4080906,Car
Fix,FLP,37.3915772,-122.0812293,-6.599999904632568,3.3355877,8.005,110.32287,1677640728506,0.35000402,6.5243134,1075531730050000,1.0781449,Car
Fix,GPS,37.3915659244,-122.0811932274,-0.6382958611414913,3.394909,5.7105436,112.69399,1677640728000,0.3406788,6.373618,1075532730074000,5.3994846,Car
Fix,FLP,37.3915663,-122.0811936,-6.599999904632568,3.3872383,8.423,111.780914,1677640729507,0.3406788,6.373618,1075532730074000,1.0876799,Car
Fix,GPS,37.3915533511,-122.0811476888,-0.096123593513474,3.5377884,5.6248565,116.772865,1677640729000,0.3459443,6.0797415,1075533730071000,5.3908386,Car
Fix,FLP,37.3915557,-122.0811594,-6.599999904632568,3.5036335,8.116,115.083885,1677640730507,0.3459443,6.0797415,1075533730071000,1.0982634,Car
Fix,GPS,37.3915388811,-122.0811071858,0.4191716371427447,4.0433054,5.4335327,118.74752,1677640730000,0.32836276,4.843819,1075534730099000,5.384341,Car
Fix,FLP,37.3915407,-122.0811166,-6.599999904632568,3.983567,7.216,117.697235,1677640731507,0.32836276,4.843819,1075534730099000,1.1078534,Car
Fix,GPS,37.3915102419,-122.0810507124,0.1817643396219852,4.5446434,5.166658,118.23732,1677640731000,0.3272298,4.3116536,1075535730125000,5.371948,Car
Fix,FLP,37.3915178,-122.0810648,-6.599999904632568,4.484191,5.564,117.95925,1677640732506,0.3272298,4.3116536,1075535730125000,1.1183134,Car
Fix,GPS,37.3914763727,-122.0809901674,0.3593394939729294,5.201164,5.153953,120.52195,1677640732000,0.35447353,4.044588,1075536730349000,5.3598413,Car
Fix,FLP,37.3914886,-122.0810064,-6.599999904632568,5.112067,5.467,119.76562,1677640733507,0.35447353,4.044588,1075536730349000,1.1278609,Car
Fix,GPS,37.3914440795,-122.0809295175,0.0583011061130313,5.32515,5.1497545,118.9698,1677640733000,0.37670705,4.171923,1075537730224000,5.341981,Car
Fix,FLP,37.3914562,-122.0809441,-6.599999904632568,5.2982254,5.373,118.24484,1677640734506,0.37670705,4.171923,1075537730224000,1.138251,Car
Fix,GPS,37.3914178762,-122.0808506526,-0.6433553260188314,5.6526666,5.238158,119.672874,1677640734000,0.37618893,3.947679,1075538730386000,5.314287,Car
Fix,FLP,37.3914266,-122.0808734,-6.599999904632568,5.6074367,5.228,118.893906,1677640735507,0.37618893,3.947679,1075538730386000,1.1478509,Car
Fix,GPS,37.3913930618,-122.0807831629,-1.6338415608547072,5.8659763,5.262106,119.835686,1677640735000,0.38525274,3.8776107,1075539730359000,5.31538,Car
Fix,FLP,37.3913982,-122.0808025,-6.599999904632568,5.8320584,5.194,118.977036,1677640736507,0.38525274,3.8776107,1075539730359000,1.158271,Car
Fix,GPS,37.3913696998,-122.0807162982,-2.008142922053201,5.9167566,5.461321,119.883286,1677640736000,0.37936383,3.8207238,1075540730190000,5.3321404,Car
Fix,FLP,37.3913714,-122.0807328,-6.599999904632568,5.907047,5.253,118.98774,1677640737507,0.37936383,3.8207238,1075540730190000,1.1657126,Car
Fix,GPS,37.3913339162,-122.0806536785,-1.8574405584318292,5.735834,5.4480767,117.403244,1677640737000,0.38272294,3.958037,1075541730385000,5.3808403,Car
Fix,FLP,37.3913409,-122.0806656,-6.599999904632568,5.761698,5.311,117.2975,1677640738507,0.38272294,3.958037,1075541730385000,1.1766807,Car
Fix,GPS,37.3912985715,-122.0805920124,-1.4572711713510762,5.0473247,5.3916655,116.77952,1677640738000,0.36164334,4.24829,1075542730402000,5.401725,Car
Fix,FLP,37.3913094,-122.0806014,-6.599999904632568,5.1397185,5.36,116.21318,1677640739507,0.36164334,4.24829,1075542730402000,1.1869211,Car
Fix,GPS,37.3912717478,-122.0805438532,-1.0844401750596346,4.3752384,5.187071,110.75632,1677640739000,0.33875912,4.7819147,1075543730259000,5.2995305,Car
Fix,FLP,37.3912817,-122.0805472,-6.599999904632568,4.463557,5.331,110.94025,1677640740507,0.33875912,4.7819147,1075543730259000,1.1968911,Car
Fix,GPS,37.3912554729,-122.0804997215,-1.6609249959234358,4.0246015,5.214824,96.57447,1677640740000,0.33904314,5.404024,1075544730240000,5.245138,Car
Fix,FLP,37.3912628,-122.0805,-6.599999904632568,4.063509,5.327,98.24293,1677640741506,0.33904314,5.404024,1075544730240000,1.2067198,Car
Fix,GPS,37.391254114,-122.080459688,-1.3980466989848197,3.859252,5.0658937,80.36518,1677640741000,0.3429422,5.380206,1075545730272000,5.173433,Car
Fix,FLP,37.3912562,-122.0804612,-6.599999904632568,3.8645604,5.253,83.26615,1677640742507,0.3429422,5.380206,1075545730272000,1.2194571,Car
Fix,GPS,37.3912699838,-122.0804321319,-1.677655948788399,2.8741205,4.838007,61.598717,1677640742000,0.3652538,7.6514544,1075546730290000,5.059254,Car
Fix,FLP,37.3912617,-122.0804347,-6.599999904632568,3.3713593,5.178,72.992676,1677640743507,0.3652538,7.6514544,1075546730290000,1.2294772,Car
Fix,GPS,37.3912888434,-122.0804109311,-0.7600089263816462,1.6951827,4.9562607,53.66163,1677640743000,0.4026169,13.757478,1075547730314000,5.051126,Car
Fix,FLP,37.3912779,-122.0804041,-6.599999904632568,1.9408828,5.116,58.436737,1677640744506,0.4026169,13.757478,1075547730314000,1.2394772,Car
Fix,GPS,37.3913079323,-122.0804130408,0.4559555798865399,1.7057493,5.0276003,328.46854,1677640744000,0.3398737,10.893316,1075548730303000,5.0555,Car
Fix,FLP,37.3912969,-122.0804013,-6.599999904632568,1.5078055,5.042,337.04495,1677640745506,0.3398737,10.893316,1075548730303000,1.2494671,Car
Fix,GPS,37.391336015,-122.0804610274,-0.5733500837471883,2.882677,5.0936756,298.51166,1677640745000,0.30598235,6.324243,1075549730503000,5.0890303,Car
Fix,FLP,37.3913201,-122.0804307,-6.599999904632568,2.6630266,5.027,300.905,1677640746507,0.30598235,6.324243,1075549730503000,1.2594671,Car
Fix,GPS,37.3913581509,-122.080502685,-1.4674279431874644,2.7286837,5.402653,283.85205,1677640746000,0.3744486,8.194248,1075550730340000,5.216423,Car
Fix,FLP,37.391342,-122.0804746,-6.599999904632568,2.7085052,5.046,285.56973,1677640747507,0.3744486,8.194248,1075550730340000,1.2694671,Car
Fix,GPS,37.3913802043,-122.0805435472,-1.313554570511254,2.3320231,5.4401207,298.99033,1677640747000,0.3621334,8.862079,1075551730364000,5.320704,Car
Fix,FLP,37.3913621,-122.0805198,-6.599999904632568,2.4069102,5.163,294.5303,1677640748507,0.3621334,8.862079,1075551730364000,1.2792498,Car
Fix,GPS,37.3914038095,-122.0805742024,-0.8693038181569318,2.028542,5.275442,304.67014,1677640748000,0.35096848,9.754679,1075552730362000,5.3928013,Car
Fix,FLP,37.3913845,-122.0805563,-6.599999904632568,2.0733542,5.203,302.7175,1677640749507,0.35096848,9.754679,1075552730362000,1.2891688,Car
Fix,GPS,37.3914285327,-122.0806037506,-0.950573337447675,1.0527889,4.970844,295.63345,1677640749000,0.3083368,17.127232,1075553730452000,5.437451,Car
Fix,FLP,37.3914096,-122.0805881,-6.599999904632568,1.1524549,5.23,296.47375,1677640750506,0.3083368,17.127232,1075553730452000,1.2991588,Car
Fix,GPS,37.3914416593,-122.0806231948,-0.7416875679851485,0.47991118,4.894762,295.63345,1677640750000,0.2702846,22.739435,1075554730410000,5.4844246,Car
Fix,FLP,37.3914265,-122.08061,-6.599999904632568,0.5249803,5.211,294.52597,1677640751507,0.2702846,22.739435,1075554730410000,1.3091588,Car
Fix,GPS,37.391448958,-122.0806242191,0.3532486732795371,0.0,4.682694,295.63345,1677640751000,0.25521567,33.682316,1075555730485000,5.573286,Car
Fix,FLP,37.3914377,-122.0806192,-6.599999904632568,0.02848103,5.111,,1677640752507,0.25521567,,1075555730485000,1.3191588,Car
Fix,NLP,37.3913707,-122.0805747,-6.900000095367432,,37.245,,1677640753498,,,1075556722000000,1.0,Car
Fix,GPS,37.3914546989,-122.0806189764,0.570613793025742,0.28544843,4.125166,295.63345,1677640752000,0.2401798,61.66365,1075556730420000,5.572514,Car
Fix,FLP,37.3914384,-122.0806198,-6.900000095367432,0.028641513,7.139,,1677640753499,0.25521567,,1075556722000000,1.0397022,Car
Fix,GPS,37.3914615705,-122.0806204622,0.560688701486083,0.0,4.9321785,295.63345,1677640753000,0.23391,30.394768,1075557730437000,5.570599,Car
Fix,FLP,37.3914532,-122.0806214,-6.900000095367432,0.01219321,6.863,,1677640754506,0.23391,,1075557730437000,1.0491356,Car
Fix,GPS,37.3914615705,-122.0806204622,0.0407038000628018,0.0,5.801483,295.63345,1677640754000,0.22337903,180.0,1075558730541000,5.348745,Car
Fix,FLP,37.3914563,-122.0806211,-6.900000095367432,0.0005599321,7.001,,1677640755506,0.22337903,,1075558730541000,1.0564567,Car
Fix,GPS,37.3914615705,-122.0806204622,-0.2117014561520896,0.0,4.889925,295.63345,1677640755000,0.21387568,180.0,1075559730478000,5.180111,Car
Fix,FLP,37.3914588,-122.0806208,-6.900000095367432,1.9654197e-05,7.0,,1677640756506,0.21387568,,1075559730478000,1.0534844,Car
Fix,GPS,37.3914615705,-122.0806204622,-0.367511865902913,0.0,4.889759,295.63345,1677640756000,0.23077099,139.16637,1075560730682000,5.0260663,Car
Fix,FLP,37.3914601,-122.0806207,-6.900000095367432,2.3297757e-06,7.035,,1677640757507,0.23077099,,1075560730682000,1.0641831,Car
Fix,GPS,37.3914615705,-122.0806204622,-0.243607068226599,0.0,3.89671,295.63345,1677640757000,0.21980563,52.87187,1075561730526000,4.9056287,Car
Fix,NLP,37.391478,-122.0807417,-6.799999713897705,,36.016,,1677640758536,,,1075561760000000,1.0,Car
Fix,FLP,37.3914602,-122.0806207,-6.799999713897705,1.3731379e-05,7.756,,1677640758536,0.23077099,,1075561760000000,1.0029299,Car
Fix,GPS,37.3914636514,-122.0806255494,0.2457898260986596,0.3231071,3.8966975,295.63345,1677640758000,0.22358847,96.40472,1075562730576000,4.7796855,Car
Fix,FLP,37.3914624,-122.0806238,-6.799999713897705,0.30239463,7.005,293.3018,1677640759506,0.22358847,96.40472,1075562730576000,1.0126967,Car
Fix,GPS,37.3914641932,-122.0806318271,0.4014170955156718,0.431117,4.889259,255.09044,1677640759000,0.25894,48.32829,1075563730719000,4.76124,Car
Fix,FLP,37.3914635,-122.0806292,-6.799999713897705,0.41507885,6.853,258.12997,1677640760507,0.25894,48.32829,1075563730719000,1.0219862,Car
Fix,GPS,37.3914643368,-122.0806544241,0.8425740282171298,1.7182024,4.287201,260.78336,1677640760000,0.2749378,9.843675,1075564730609000,4.808767,Car
Fix,FLP,37.3914633,-122.0806437,-6.799999713897705,1.6124732,6.752,260.01376,1677640761507,0.2749378,9.843675,1075564730609000,1.0309386,Car
Fix,GPS,37.391464237,-122.0806896853,1.231528222183599,2.1786602,4.8889265,270.64572,1677640761000,0.32794335,8.9403715,1075565730614000,4.894285,Car
Fix,FLP,37.3914625,-122.0806746,-6.799999713897705,2.114369,6.486,269.11737,1677640762507,0.32794335,8.9403715,1075565730614000,1.0429105,Car
Fix,GPS,37.3914689657,-122.0807297123,1.5419096168259023,2.849998,4.8887615,278.98987,1677640762000,0.3500725,7.285845,1075566731189000,5.0214972,Car
Fix,NLP,37.391503,-122.0807607,-6.799999713897705,,20.841,,1677640763544,,,1075566767000000,1.0,Car
Fix,FLP,37.3914655,-122.0807131,-6.799999713897705,2.7592263,6.854,277.12515,1677640763508,0.3500725,7.285845,1075566731189000,1.0529304,Car
Fix,GPS,37.391482185,-122.0807736191,0.9561750226721728,3.1735096,5.013608,287.88953,1677640763000,0.37264183,7.021865,1075567730694000,5.1637526,Car
Fix,FLP,37.3914751,-122.080759,-6.799999713897705,3.11429,4.887,285.7641,1677640764506,0.37264183,7.021865,1075567730694000,0.9893966,Car
Fix,GPS,37.3915007801,-122.0808120637,0.5241015015483674,2.920509,5.2156305,299.7984,1677640764000,0.38853654,7.6210237,1075568730648000,5.3167086,Car
Fix,FLP,37.3914907,-122.0808006,-6.799999713897705,2.9405372,4.934,297.05566,1677640765506,0.38853654,7.6210237,1075568730648000,0.9993866,Car
Fix,GPS,37.3915195767,-122.0808483414,0.151015661072411,2.6133354,5.410263,298.02478,1677640765000,0.36597577,7.8690534,1075569730879000,5.4050345,Car
Fix,FLP,37.3915097,-122.0808375,-6.799999713897705,2.6562319,5.128,297.87854,1677640766507,0.36597577,7.8690534,1075569730879000,1.0094053,Car
Fix,GPS,37.3915372525,-122.0808788672,-0.3035067727351664,2.3398216,5.4615254,293.57047,1677640766000,0.37315294,8.807897,1075570730654000,5.438459,Car
Fix,FLP,37.3915276,-122.0808702,-6.799999713897705,2.3811154,5.224,293.69577,1677640767507,0.37315294,8.807897,1075570730654000,1.0194983,Car
Fix,GPS,37.3915517002,-122.0809060311,-0.7594005803250372,2.4245489,5.43949,289.5649,1677640767000,0.364317,8.314521,1075571730753000,5.4536104,Car
Fix,FLP,37.3915427,-122.0808997,-6.799999713897705,2.4189281,5.254,289.58353,1677640768506,0.364317,8.314521,1075571730753000,1.0294883,Car
Fix,GPS,37.3915634113,-122.0809374863,-1.4697897344695754,2.312613,5.400097,291.81454,1677640768000,0.36505553,8.830936,1075572731171000,5.455481,Car
Fix,FLP,37.3915557,-122.0809306,-6.799999713897705,2.327149,5.385,290.82956,1677640769508,0.36505553,8.830936,1075572731171000,1.0422252,Car
Fix,GPS,37.3915739288,-122.0809677511,-1.4296238553050866,2.85662,5.4282327,297.1125,1677640769000,0.37384096,7.4040046,1075573730750000,5.4907503,Car
Fix,FLP,37.391568,-122.0809609,-6.799999713897705,2.7859907,5.427,296.33447,1677640770506,0.37384096,7.4040046,1075573730750000,1.0522352,Car
Fix,GPS,37.391586731,-122.081004841,-0.910628873230998,3.3686225,5.6256137,301.39636,1677640770000,0.39053255,6.5773973,1075574730758000,5.59897,Car
Fix,FLP,37.3915826,-122.0809959,-6.799999713897705,3.285853,5.46,300.44302,1677640771507,0.39053255,6.5773973,1075574730758000,1.0622252,Car
Fix,GPS,37.391606814,-122.0810532853,-1.1001255134476162,3.6506984,5.780262,304.10385,1677640771000,0.39903978,6.2251782,1075575730779000,5.685557,Car
Fix,FLP,37.3916015,-122.0810383,-6.799999713897705,3.5984428,5.534,303.5198,1677640772507,0.39903978,6.2251782,1075575730779000,1.0722252,Car
Fix,GPS,37.3916270674,-122.0811082293,-1.5879358151940923,4.1362996,5.669834,300.8715,1677640772000,0.41757932,5.885503,1075576730812000,5.7248173,Car
Fix,FLP,37.3916227,-122.0810877,-6.799999713897705,4.052545,5.58,300.48444,1677640773507,0.41757932,5.885503,1075576730812000,1.0822452,Car
Fix,GPS,37.391649765,-122.081164341,-1.513207623993167,4.503227,5.661646,297.06195,1677640773000,0.4116162,5.3395543,1075577730791000,5.7408543,Car
Fix,FLP,37.3916447,-122.0811432,-6.799999713897705,4.436343,5.594,297.482,1677640774507,0.4116162,5.3395543,1075577730791000,1.0906478,Car
Fix,GPS,37.3916717656,-122.0812271172,-2.164341152270514,4.288377,5.6180553,294.30493,1677640774000,0.42151725,5.907912,1075578730805000,5.6809807,Car
Fix,FLP,37.3916666,-122.0812042,-6.799999713897705,4.316151,5.671,294.60312,1677640775506,0.42151725,5.907912,1075578730805000,1.1006479,Car
Fix,GPS,37.3916939442,-122.0812829736,-2.4912986452023014,4.03563,5.502045,290.57468,1677640775000,0.40518078,5.5995603,1075579730818000,5.5261116,Car
Fix,FLP,37.3916872,-122.0812633,-6.799999713897705,4.0778484,5.646,290.68646,1677640776507,0.40518078,5.5995603,1075579730818000,1.1106379,Car
Fix,GPS,37.3917099761,-122.0813322994,-2.5345660284807656,3.2717597,5.3593197,291.25436,1677640776000,0.38585237,6.7841535,1075580731067000,5.3676324,Car
Fix,FLP,37.3917043,-122.0813171,-6.799999713897705,3.3855443,5.562,290.9563,1677640777508,0.38585237,6.7841535,1075580731067000,1.120082,Car
Fix,GPS,37.3917182842,-122.081374039,-2.177168136562738,2.3717203,5.3886,293.76093,1677640777000,0.3388033,8.113677,1075581730849000,5.295224,Car
Fix,FLP,37.3917163,-122.0813611,-6.799999713897705,2.4849148,5.506,292.67767,1677640778507,0.3388033,8.113677,1075581730849000,1.130062,Car
Fix,NLP,37.3916737,-122.0815512,-6.900000095367432,,45.012,,1677640778557,,,1075581781000000,1.0,Car
Fix,GPS,37.3917260846,-122.081403339,-1.8561301269753785,1.6680027,5.183433,294.91547,1677640778000,0.30800867,10.203311,1075582731194000,5.135612,Car
Fix,FLP,37.3917254,-122.0813948,-6.900000095367432,1.7459333,5.515,293.77817,1677640779507,0.30800867,10.203311,1075582731194000,0.97869074,Car
Fix,GPS,37.3917285816,-122.0814252809,-1.5323320249114103,1.022025,5.183053,293.46375,1677640779000,0.26021394,13.353235,1075583731195000,5.039958,Car
Fix,FLP,37.3917303,-122.0814178,-6.900000095367432,1.0721369,5.442,292.9669,1677640780508,0.26021394,13.353235,1075583731195000,0.98906153,Car
Fix,GPS,37.3917297901,-122.0814420714,-1.313083007829877,0.40052968,5.274724,293.46375,1677640780000,0.27681717,64.877,1075584730892000,4.9812555,Car
Fix,FLP,37.3917321,-122.0814343,-6.900000095367432,0.47732478,5.404,295.2271,1677640781507,0.27681717,64.877,1075584730892000,0.99903154,Car
Fix,GPS,37.3917328286,-122.0814497402,-1.1568998725364577,0.0,5.2836957,293.46375,1677640781000,0.25600305,12.640842,1075585731202000,4.9342985,Car
Fix,FLP,37.3917333,-122.0814435,-6.900000095367432,0.025989208,5.392,,1677640782508,0.25600305,,1075585731202000,1.0089751,Car
Fix,GPS,37.3917328286,-122.0814497402,-1.0082665739317216,0.0,4.9689813,293.46375,1677640782000,0.2725253,131.39066,1075586731265000,4.8563876,Car
Fix,FLP,37.3917331,-122.0814465,-6.900000095367432,0.0018960432,5.322,,1677640783508,0.2725253,,1075586731265000,1.0190151,Car
Fix,NLP,37.3917051,-122.0816211,-6.900000095367432,,32.525,,1677640783540,,,1075586763000000,1.0,Car
Fix,GPS,37.3917328286,-122.0814497402,-0.7248620740340822,0.0,4.747445,293.46375,1677640783000,0.27533007,147.05394,1075587730964000,4.7254405,Car
Fix,FLP,37.3917329,-122.0814484,-6.900000095367432,0.0002008101,5.146,,1677640784507,0.27533007,,1075587730964000,0.967907,Car
Fix,GPS,37.3917328286,-122.0814497402,-0.6917517674009179,0.0,4.589703,293.46375,1677640784000,0.27688053,180.0,1075588731079000,4.6052446,Car
Fix,FLP,37.3917329,-122.081449,-6.900000095367432,4.122904e-05,5.061,,1677640785507,0.27688053,,1075588731079000,0.9775079,Car
Fix,GPS,37.3917328286,-122.0814497402,-0.7295629589886014,0.0,4.418813,293.46375,1677640785000,0.26834667,70.85359,1075589731181000,4.4615397,Car
Fix,FLP,37.3917328,-122.0814493,-6.900000095367432,1.6748289e-05,4.898,,1677640786508,0.26834667,,1075589731181000,0.9872266,Car
Fix,GPS,37.3917328286,-122.0814497402,-0.7065984087995106,0.0,4.319676,293.46375,1677640786000,0.26796144,180.0,1075590730984000,4.3521934,Car
Fix,FLP,37.3917328,-122.0814495,-6.900000095367432,8.3850555e-06,4.815,,1677640787507,0.26796144,,1075590730984000,0.9972933,Car
Fix,GPS,37.3917328286,-122.0814497402,-0.672602813625938,0.0,4.227616,293.46375,1677640787000,0.2676264,180.0,1075591730965000,3.825255,Car
Fix,FLP,37.3917328,-122.0814496,-6.900000095367432,4.5216393e-06,4.664,,1677640788507,0.2676264,,1075591730965000,1.0072933,Car
Fix,NLP,37.3916543,-122.0816676,-7.099999904632568,,35.961,,1677640788554,,,1075591778000000,1.0,Car
Fix,GPS,37.3917328286,-122.0814497402,-0.6707377240290932,0.0,4.154313,293.46375,1677640788000,0.26954353,180.0,1075592731333000,3.4665947,Car
Fix,FLP,37.3917328,-122.0814496,-7.099999904632568,3.1002664e-06,4.425,,1677640789507,0.26954353,,1075592731333000,0.9524669,Car
Fix,GPS,37.3917328286,-122.0814497402,-0.5825338137074256,0.0,4.0937552,293.46375,1677640789000,0.27202052,180.0,1075593731363000,3.2061663,Car
Fix,FLP,37.3917328,-122.0814497,-7.099999904632568,1.1838415e-06,4.342,,1677640790507,0.27202052,,1075593731363000,0.96212316,Car
Fix,GPS,37.3917328286,-122.0814497402,-0.5227641620480593,0.0,4.0208397,293.46375,1677640790000,0.26237023,180.0,1075594731271000,3.0009093,Car
Fix,FLP,37.3917328,-122.0814497,-7.099999904632568,5.74544e-07,4.276,,1677640791508,0.26237023,,1075594731271000,0.9720919,Car
Fix,GPS,37.3917328286,-122.0814497402,-0.3431519621730737,0.0,3.9358935,293.46375,1677640791000,0.25338998,180.0,1075595731085000,3.0,Car
Fix,FLP,37.3917328,-122.0814497,-7.099999904632568,2.7581478e-07,4.212,,1677640792507,0.25338998,,1075595731085000,0.9820819,Car
Fix,GPS,37.3917328286,-122.0814497402,-0.2014286174650299,0.0,3.869967,293.46375,1677640792000,0.2542092,180.0,1075596731078000,3.0,Car
Fix,FLP,37.3917328,-122.0814497,-7.099999904632568,1.418618e-07,4.157,,1677640793507,0.2542092,,1075596731078000,0.9920819,Car
Fix,NLP,37.391609,-122.0815668,-6.900000095367432,,35.064,,1677640793589,,,1075596813000000,1.0,Car
Fix,FLP,37.3917328,-122.0814497,-6.900000095367432,2.9842704e-07,4.178,,1677640793589,0.2542092,,1075596813000000,0.9316981,Car
Fix,GPS,37.3917328286,-122.0814497402,-0.0355009529339674,0.0,3.8083973,293.46375,1677640793000,0.25138134,180.0,1075597731083000,3.0,Car
Fix,FLP,37.3917328,-122.0814497,-6.900000095367432,1.2142772e-07,4.125,,1677640794507,0.25138134,,1075597731083000,0.94163674,Car
Fix,GPS,37.3917328286,-122.0814497402,0.0407700225481501,0.0,3.8083806,293.46375,1677640794000,0.24851152,180.0,1075598731102000,3.0,Car
Fix,FLP,37.3917328,-122.0814497,-6.900000095367432,3.5191608e-08,4.089,,1677640795508,0.24851152,,1075598731102000,0.95151186,Car
