Fix,Provider,LatitudeDegrees,LongitudeDegrees,AltitudeMeters,SpeedMps,AccuracyMeters,BearingDegrees,UnixTimeMillis,SpeedAccuracyMps,BearingAccuracyDegrees,elapsedRealtimeNanos,VerticalAccuracyMeters,TransitType
Fix,GPS,37.7908850933,-122.403737032,-3.658395618884225,5.505151,134.00429,256.9742,1677455392521,1.6837164,180.0,890194418222665,186.53957,Car
Fix,GPS,37.7913252451,-122.4035291086,-2.2397672437468783,6.7874846,58.566772,304.10355,1677455395520,1.126926,180.0,890197463635630,76.49264,Car
Fix,FLP,37.7906594,-122.4042713,-19.247034839833034,4.5009513,58.567,316.01236,1677455396243,1.126926,180.0,890197463635630,1.9074663,Car
Fix,GPS,37.7913152569,-122.4036708277,-1.751189256034567,5.6553674,94.84895,299.77673,1677455396520,1.3529923,180.0,890198465741384,120.42925,Car
Fix,FLP,37.7906983,-122.4042974,-19.320292464079795,4.5749755,76.708,317.97726,1677455397245,1.3529923,180.0,890198465741384,1.920306,Car
Fix,FLP,37.7907176,-122.4042955,-19.324361493461424,4.5972,84.116,320.87845,1677455397560,1.3529923,180.0,890198780000000,2.1827672,Car
Fix,NLP,37.7910271,-122.4041016,-15.399999618530272,,10.747,,1677455397560,,,890198780000000,1.0763569,Car
Fix,GPS,37.7912915015,-122.4037998503,-2.154389924758222,0.0,121.20056,,1677455397520,3.2306685,,890199464629609,25.947472,Car
Fix,FLP,37.790747,-122.4043096,-19.34979288272132,4.6322484,93.387,322.90207,1677455398244,3.2306685,,890199464629609,1.8487217,Car
Fix,GPS,37.7912950203,-122.4039027343,-2.140983115901528,0.0,118.54855,,1677455398520,1.7020403,,890200469891531,230.31029,Car
Fix,FLP,37.7907905,-122.4043315,-19.21199536068749,4.6961045,98.42,325.3134,1677455399249,1.7020403,,890200469891531,1.9475627,Car
Fix,GPS,37.7912965102,-122.4040217449,-2.030903340228249,4.410888,66.14037,328.55844,1677455399520,0.89036626,180.0,890201498233003,123.18524,Car
Fix,FLP,37.7908617,-122.4043318,-19.271468042638222,4.9581475,66.14,332.1411,1677455400278,0.89036626,180.0,890201498233003,2.2186482,Car
Fix,GPS,37.791308518,-122.4041369996,-1.667387695203126,3.8522081,31.910906,351.46906,1677455400520,1.042561,180.0,890202506053845,58.98026,Car
Fix,FLP,37.7910021,-122.4042674,-19.25620909890833,5.160548,54.73,344.92743,1677455401286,1.042561,180.0,890202506053845,1.898956,Car
Fix,GPS,37.7913088902,-122.4042231463,0.3423835794341894,3.711576,27.058338,340.24533,1677455401520,0.59986293,25.0,890203458142550,20.465979,Car
Fix,FLP,37.791109,-122.4042461,-19.28977873875633,4.0519977,44.632,343.54224,1677455402238,0.59986293,25.0,890203458142550,2.1553617,Car
Fix,GPS,37.7913532983,-122.404237171,-0.918882593078958,3.6646287,17.852783,344.54355,1677455402520,0.5603162,25.0,890204453424289,14.98517,Car
Fix,FLP,37.7912219,-122.4042474,-19.31266705312791,3.7778866,38.295,342.78925,1677455403232,0.5603162,25.0,890204453424289,2.098309,Car
Fix,FLP,37.7912898,-122.4042555,-19.286214266116808,3.7255144,35.432,343.33704,1677455404396,0.5603162,25.0,890205616000000,1.8015771,Car
Fix,NLP,37.7913962,-122.4041252,-15.700000762939451,,18.696,,1677455404396,,,890205616000000,1.4560314,Car
Fix,GPS,37.7914060537,-122.4042477155,-1.836869363818471,2.975839,12.454545,353.2109,1677455404000,0.51651126,25.0,890205960520562,10.827497,Car
Fix,FLP,37.7913346,-122.404253,-19.1646928243959,3.1880345,33.134,346.84915,1677455404740,0.51651126,25.0,890205960520562,2.17934,Car
Fix,GPS,37.7914281023,-122.4042493029,-1.72806813646532,1.8835003,11.765124,353.80038,1677455405000,0.5323173,25.0,890206918247000,9.772635,Car
Fix,FLP,37.7913873,-122.4042534,-19.25924209103667,2.3276103,26.311,351.04083,1677455405698,0.5323173,25.0,890206918247000,2.2035422,Car
Fix,GPS,37.7914433949,-122.4042441241,-1.487749103232298,1.9304844,11.113987,353.2219,1677455406000,0.57269555,25.0,890207918410000,8.9320755,Car
Fix,FLP,37.7914197,-122.4042527,-19.2430083774994,1.9727322,18.234,352.44467,1677455406698,0.57269555,25.0,890207918410000,1.7933873,Car
Fix,GPS,37.791464868,-122.4042362136,-1.2552728387909151,1.7836562,10.495035,349.26996,1677455407000,0.55248696,25.0,890208918242000,8.299978,Car
Fix,FLP,37.791444,-122.4042509,-19.406752598128957,1.8288108,16.577,350.28714,1677455407698,0.55248696,25.0,890208918242000,2.2288759,Car
Fix,GPS,37.7914829742,-122.4042329159,-1.3566768905639766,1.940469,14.959321,347.8703,1677455408000,0.7741853,25.0,890209918261000,7.842409,Car
Fix,FLP,37.7914636,-122.4042515,-19.406752598128957,1.8999709,15.091,348.2996,1677455408698,0.7741853,25.0,890209918261000,1.9516238,Car
Fix,FLP,37.7914756,-122.4042531,-19.300992331547164,1.9004377,15.759,348.4052,1677455409383,0.7741853,25.0,890210603000000,1.7132291,Car
Fix,NLP,37.7914387,-122.404224,-15.600000381469728,,11.861,,1677455409383,,,890210603000000,2.0444014,Car
Fix,GPS,37.7914985553,-122.4042377126,-1.5802899475026142,2.1897864,9.622729,330.07462,1677455409000,0.41757816,25.0,890210918595000,7.495356,Car
Fix,FLP,37.7914862,-122.4042515,-19.24453477817485,2.0640178,13.165,336.5246,1677455409698,0.41757816,25.0,890210918595000,2.0280838,Car
Fix,GPS,37.7915215037,-122.404241146,-1.4144771938665583,3.716008,14.821176,338.41455,1677455410000,0.6691873,25.0,890211918274000,7.091978,Car
Fix,FLP,37.7915084,-122.4042589,-19.248066866624534,2.9827502,13.805,340.11395,1677455410698,0.6691873,25.0,890211918274000,2.2345376,Car
Fix,GPS,37.7915548914,-122.4042551762,-1.7046754394396342,4.4361377,17.073294,337.46573,1677455411000,0.944189,25.0,890212918509000,6.797333,Car
Fix,FLP,37.7915407,-122.4042686,-18.973954105426103,3.7391832,15.093,339.84314,1677455411698,0.944189,25.0,890212918509000,1.9376261,Car
Fix,GPS,37.7915955131,-122.404275283,-2.026979022884247,5.3853507,17.072596,335.88693,1677455412000,1.0969568,25.0,890213918476000,6.57339,Car
Fix,FLP,37.7915771,-122.4042824,-18.9027538823591,4.401806,16.162,338.82388,1677455412698,1.0969568,25.0,890213918476000,1.73556,Car
Fix,GPS,37.7916400863,-122.4043013978,-2.014790911308398,5.75478,17.33263,332.6527,1677455413000,1.3836309,25.0,890214918336000,6.508988,Car
Fix,FLP,37.7916202,-122.4043015,-18.94446267074472,5.052541,16.582,336.74146,1677455413698,1.3836309,25.0,890214918336000,2.2155104,Car
Fix,GPS,37.7916924461,-122.4043298991,-2.084609004199083,6.1014323,34.0459,334.37476,1677455414000,1.9142787,25.0,890215918387000,6.516413,Car
Fix,FLP,37.7916643,-122.4043261,-18.827463847308465,5.30855,17.6,336.18246,1677455414698,1.9142787,25.0,890215918387000,2.0452385,Car
Fix,GPS,37.7917675605,-122.4043469177,-1.7928482633630591,7.6760707,27.138441,346.78183,1677455415000,1.3715681,25.0,890216918358000,6.5649767,Car
Fix,FLP,37.7917212,-122.4043496,-18.56093752113645,6.354603,19.855,340.76617,1677455415698,1.3715681,25.0,890216918358000,2.0439787,Car
Fix,GPS,37.7918480538,-122.4043483717,-3.488903571906532,8.335137,41.143486,357.97,1677455416000,1.3277676,25.0,890217918359000,6.423194,Car
Fix,FLP,37.7917889,-122.4043679,-18.43580486143832,7.4120936,22.78,345.835,1677455416698,1.3277676,25.0,890217918359000,1.9642283,Car
Fix,GPS,37.7919276291,-122.4043630337,-2.675143872313031,9.257835,10.090088,353.65616,1677455417000,0.55701435,25.0,890218918387000,6.3793035,Car
Fix,FLP,37.7918934,-122.4043748,-18.3523820592318,8.885467,22.621,349.594,1677455417698,0.55701435,25.0,890218918387000,2.191776,Car
Fix,GPS,37.7920244242,-122.4043770108,-2.967685435881691,9.5558,10.095877,354.23746,1677455418000,0.9609163,25.0,890219918555000,6.437242,Car
Fix,FLP,37.7919915,-122.4043855,-18.403238154559645,9.278357,24.502,351.01154,1677455418698,0.9609163,25.0,890219918555000,2.1072516,Car
Fix,NLP,37.7918861,-122.4042271,-16.399999618530273,,26.574,,1677455418728,,,890219948000000,4.357889,Car
Fix,GPS,37.792106262,-122.4043918079,-2.245805244086239,8.493004,18.108696,354.23746,1677455419000,1.4944664,180.0,890220918415000,6.5419846,Car
Fix,FLP,37.7920836,-122.4043981,-18.649434074737112,9.208093,19.509,351.22345,1677455419698,1.4944664,180.0,890220918415000,2.1274562,Car
Fix,GPS,37.7921739695,-122.404405469,-2.251514347176085,7.0068703,10.79108,347.03967,1677455420000,1.1590983,25.0,890221918419000,6.7422075,Car
Fix,FLP,37.7921609,-122.4044115,-19.845213502912134,8.038559,16.784,349.90103,1677455420698,1.1590983,25.0,890221918419000,2.0712316,Car
Fix,GPS,37.7922445626,-122.4044010239,-2.0953834601182404,5.783864,10.111305,342.04935,1677455421000,0.94142425,25.0,890222918430000,6.8793197,Car
Fix,FLP,37.7922287,-122.4044189,-19.84877363146781,6.7690377,11.612,347.8458,1677455421698,0.94142425,25.0,890222918430000,1.9708775,Car
Fix,GPS,37.792283809,-122.4044144696,-2.2297876117244986,5.3026304,9.014847,344.53586,1677455422000,0.727175,25.0,890223918441000,6.9580426,Car
Fix,FLP,37.7922822,-122.4044267,-19.825378473514892,5.8155384,11.433,346.47375,1677455422698,0.727175,25.0,890223918441000,2.0658746,Car
Fix,GPS,37.7923312955,-122.4044174592,-3.1893694671301427,5.531855,8.799925,350.36035,1677455423000,0.64176726,25.0,890224918449000,6.936928,Car
Fix,FLP,37.7923319,-122.4044314,-19.648386919912294,5.629732,11.057,348.1003,1677455423698,0.64176726,25.0,890224918449000,1.9826772,Car
Fix,GPS,37.7923911659,-122.4044272995,-1.9884517580002004,6.317592,8.105453,350.74564,1677455424000,0.05976079,25.0,890225918472000,6.056659,Car
Fix,FLP,37.7923866,-122.4044372,-19.58888030655631,6.2015233,9.364,349.98932,1677455424698,0.05976079,25.0,890225918472000,2.15614,Car
Fix,GPS,37.7924462844,-122.404440162,-1.800094414477066,6.3720927,8.263374,354.2043,1677455425000,0.6663791,25.0,890226918569000,5.910521,Car
Fix,FLP,37.7924433,-122.404445,-19.598532215065493,6.3292665,8.858,351.41687,1677455425698,0.6663791,25.0,890226918569000,1.9910986,Car
Fix,GPS,37.7925009752,-122.4044492103,-1.6872094984989128,6.9134874,8.7097435,353.97958,1677455426000,0.99216205,25.0,890227918682000,5.7654357,Car
Fix,FLP,37.7925007,-122.4044531,-19.61277320181207,6.6252027,8.578,352.22336,1677455426698,0.99216205,25.0,890227918682000,1.9858497,Car
Fix,GPS,37.7925622019,-122.4044605073,-1.4653313204138037,7.1590405,9.975204,348.93015,1677455427000,1.1884011,25.0,890228918543000,5.7137094,Car
Fix,FLP,37.7925611,-122.4044637,-19.76028588179912,6.8301067,8.77,351.49255,1677455427698,1.1884011,25.0,890228918543000,2.1349642,Car
Fix,GPS,37.7926272076,-122.4044754762,-1.553195750486131,7.8932247,9.650832,349.66666,1677455428000,1.1081072,25.0,890229918535000,5.7419405,Car
Fix,FLP,37.7926255,-122.4044763,-19.864529542234223,7.328075,8.94,351.3558,1677455428698,1.1081072,25.0,890229918535000,2.217665,Car
Fix,GPS,37.7927020795,-122.4044872717,-2.052835153558453,8.587715,10.219629,353.98428,1677455429000,0.97899157,25.0,890230918557000,5.8127346,Car
Fix,FLP,37.7926974,-122.4044882,-19.813688022178752,8.063316,9.363,352.25943,1677455429698,0.97899157,25.0,890230918557000,2.149979,Car
Fix,GPS,37.7927863037,-122.4044976361,-2.8615111614835445,8.490783,10.713835,356.04462,1677455430000,0.9893666,25.0,890231918556000,5.9985037,Car
Fix,FLP,37.7927749,-122.4044986,-19.887924700187146,8.339582,9.588,353.17813,1677455430698,0.9893666,25.0,890231918556000,1.993649,Car
Fix,GPS,37.7928636589,-122.40450482,-2.9393158292813277,8.946241,11.112555,354.18103,1677455431000,0.9418831,10.0,890232918793000,6.148381,Car
Fix,FLP,37.7928546,-122.404508,-19.85284937738252,8.713439,10.334,353.7479,1677455431698,0.9418831,10.0,890232918793000,2.0622406,Car
Fix,GPS,37.7929434474,-122.4045147492,-3.385131673640438,9.360525,11.417223,354.26553,1677455432000,0.7831997,25.0,890233918620000,6.4049263,Car
Fix,FLP,37.7929369,-122.4045176,-20.03032861293483,9.121694,10.623,354.07578,1677455432697,0.7831997,25.0,890233918620000,2.2220483,Car
Fix,GPS,37.7930280485,-122.4045260324,-2.995579321161417,9.826772,11.3338785,350.36945,1677455433000,0.7650414,10.0,890234918610000,6.598243,Car
Fix,FLP,37.7930224,-122.4045315,-20.15696436299557,9.563123,10.959,352.2629,1677455433698,0.7650414,10.0,890234918610000,2.2787879,Car
Fix,GPS,37.7930979606,-122.4045415191,-3.671143139290831,9.506205,11.098239,351.12393,1677455434000,0.95477456,10.0,890235918623000,6.74032,Car
Fix,FLP,37.793105,-122.4045456,-20.53126617214429,9.521682,11.135,351.75787,1677455434698,0.95477456,10.0,890235918623000,2.2881281,Car
Fix,GPS,37.7931642154,-122.4045556482,-4.528886719569838,8.525637,10.569023,351.54703,1677455435000,0.6499597,10.0,890236918636000,6.916203,Car
Fix,FLP,37.7931801,-122.4045593,-20.91826461048881,8.77753,11.106,351.20178,1677455435698,0.6499597,10.0,890236918636000,2.1801164,Car
Fix,GPS,37.7932328993,-122.4045669475,-4.556185603127535,7.8233857,10.149326,350.55646,1677455436000,0.6603297,25.0,890237918851000,7.0652127,Car
Fix,FLP,37.7932494,-122.4045721,-21.36880814626125,8.197865,10.913,350.67,1677455436698,0.6603297,25.0,890237918851000,2.09056,Car
Fix,GPS,37.7933126069,-122.4045886685,-4.296616675436077,7.62382,9.64294,348.76724,1677455437000,0.64981693,10.0,890238918717000,7.1458993,Car
Fix,FLP,37.793318,-122.404589,-21.522373931864838,7.771478,10.558,349.0558,1677455437698,0.64981693,10.0,890238918717000,2.2304041,Car
Fix,GPS,37.7933891505,-122.4046186267,-4.5767751540585095,7.6680026,9.153261,349.48697,1677455438000,0.6444675,10.0,890239918702000,7.191769,Car
Fix,FLP,37.7933872,-122.4046101,-21.569663496078505,7.7025476,10.122,348.87473,1677455438698,0.6444675,10.0,890239918702000,2.2621841,Car
Fix,GPS,37.7934712282,-122.4046420892,-4.557399119312567,7.725733,12.036497,351.33817,1677455439000,0.82733953,10.0,890240918701000,7.2069454,Car
Fix,FLP,37.7934586,-122.4046294,-21.88644590554773,7.727628,10.31,349.81973,1677455439698,0.82733953,10.0,890240918701000,2.2645948,Car
Fix,GPS,37.7935373846,-122.4046623235,-4.753185834886893,7.631355,9.172045,350.32666,1677455440000,0.6951858,10.0,890241918945000,7.29123,Car
Fix,FLP,37.7935316,-122.4046529,-22.111694883272136,7.634664,10.03,349.96344,1677455440697,0.6951858,10.0,890241918945000,2.2274468,Car
Fix,NLP,37.7935501,-122.4046501,-18.200000762939453,,22.416,,1677455441057,,,890242277000000,1.0,Car
Fix,FLP,37.793552,-122.4046592,-22.134574761680504,7.6314034,10.663,349.9435,1677455441056,0.6951858,10.0,890242277000000,1.9994609,Car
Fix,GPS,37.7936230304,-122.4046776228,-2.490426968821017,7.847692,8.369463,351.0992,1677455441000,0.07647926,10.0,890242918784000,5.7093334,Car
Fix,FLP,37.7936092,-122.4046731,-22.1467774503458,7.8499584,10.335,350.89896,1677455441698,0.07647926,10.0,890242918784000,2.1517272,Car
Fix,GPS,37.7937007139,-122.4046934492,-2.559148440046483,7.637706,7.944214,350.769,1677455442000,0.07907332,10.0,890243918706000,5.4878187,Car
Fix,FLP,37.7936904,-122.4046906,-22.187452952009483,7.6375217,10.02,350.0365,1677455442697,0.07907332,10.0,890243918706000,2.1075156,Car
Fix,GPS,37.7937659781,-122.4047126939,-2.8649677255154646,7.680918,8.070363,350.45065,1677455443000,0.57558846,10.0,890244918973000,5.4480233,Car
Fix,FLP,37.7937622,-122.4047094,-22.238805493330805,7.68026,9.902,349.99667,1677455443698,0.57558846,10.0,890244918973000,2.2245142,Car
Fix,GPS,37.7938416406,-122.404731537,-3.133629907284594,7.7370152,7.5746956,350.97775,1677455444000,0.0718312,10.0,890245918903000,5.268446,Car
Fix,FLP,37.7938365,-122.4047285,-22.390832754847303,7.736987,9.159,349.99545,1677455444698,0.0718312,10.0,890245918903000,2.1232064,Car
Fix,GPS,37.7939132284,-122.4047508505,-3.336878707117441,7.7663236,7.4662704,350.61676,1677455445000,0.4844603,10.0,890246918796000,5.2364016,Car
Fix,FLP,37.7939095,-122.4047478,-22.26270356246892,7.766139,8.917,349.99182,1677455445698,0.4844603,10.0,890246918796000,1.8259468,Car
Fix,GPS,37.793978685,-122.4047667456,-3.4871661346416665,7.6924148,7.000659,351.02356,1677455446000,0.043987174,10.0,890247918793000,5.055988,Car
Fix,FLP,37.7939785,-122.4047652,-22.349649058360065,7.6943126,7.611,350.91638,1677455446698,0.043987174,10.0,890247918793000,1.9745835,Car
Fix,GPS,37.7940525024,-122.4047878762,-3.75449612880466,7.4822526,6.6049232,350.7253,1677455447000,0.042959873,10.0,890248918835000,4.8941126,Car
Fix,FLP,37.7940502,-122.4047845,-22.311005986837188,7.4821367,7.343,350.03088,1677455447698,0.042959873,10.0,890248918835000,2.17718,Car
Fix,GPS,37.7941189729,-122.4048017516,-3.921127431162756,7.178018,6.310709,350.95218,1677455448000,0.085858665,10.0,890249918834000,4.7511153,Car
Fix,FLP,37.794118,-122.4048008,-22.38218778600674,7.1794186,7.171,349.97266,1677455448698,0.085858665,10.0,890249918834000,2.0980783,Car
Fix,GPS,37.7941845112,-122.4048128359,-3.4137807570905254,6.640987,5.9137006,350.2465,1677455449000,0.06652469,10.0,890250918843000,4.621669,Car
Fix,FLP,37.7941834,-122.4048136,-22.447267508302907,6.6429777,6.812,349.95917,1677455449698,0.06652469,10.0,890250918843000,2.1237583,Car
Fix,GPS,37.7942381488,-122.4048220156,-3.501009949718559,5.401191,5.5375705,351.08566,1677455450000,0.03811138,10.0,890251919138000,4.4946713,Car
Fix,FLP,37.7942396,-122.4048235,-22.586577104675957,5.404306,6.273,350.883,1677455450699,0.03811138,10.0,890251919138000,2.223729,Car
Fix,GPS,37.794281132,-122.4048290487,-3.325821007846464,4.1353483,5.191245,349.84198,1677455451000,0.037546225,10.0,890252918837000,4.375341,Car
Fix,FLP,37.7942832,-122.4048303,-22.76757446497741,4.136825,5.911,348.98517,1677455451697,0.037546225,10.0,890252918837000,2.1152294,Car
Fix,GPS,37.7943048834,-122.4048341457,-3.2590858387024437,2.0867646,4.9845767,350.14703,1677455452000,0.0408189,10.0,890253918877000,4.275104,Car
Fix,FLP,37.7943019,-122.4048338,-22.885525715232944,2.0919602,5.474,349.6723,1677455452698,0.0408189,10.0,890253918877000,2.1114848,Car
Fix,GPS,37.7943148849,-122.4048352106,-3.2352901784632424,0.68688744,5.982695,350.14703,1677455453000,0.04166865,111.557106,890254918974000,4.184836,Car
Fix,FLP,37.7943173,-122.4048364,-22.880441643559305,0.6941535,5.427,348.46606,1677455453698,0.04166865,111.557106,890254918974000,2.1935287,Car
Fix,GPS,37.7943196112,-122.4048358249,-3.134470486961914,0.0,5.9821677,350.14703,1677455454000,0.038922016,180.0,890255918898000,4.100068,Car
Fix,FLP,37.7943211,-122.4048366,-22.824516653340105,4.7899764e-05,5.437,,1677455454698,0.038922016,,890255918898000,2.3244438,Car
Fix,GPS,37.7943196112,-122.4048358249,-2.8111607240541248,0.0,5.4771366,350.14703,1677455455000,0.03803587,21.929602,890256918924000,4.006813,Car
Fix,FLP,37.7943201,-122.4048361,-22.66182366895094,2.8086162e-09,5.442,,1677455455698,0.03803587,,890256918924000,2.3602047,Car
Fix,GPS,37.7943196112,-122.4048358249,-2.7607085856319395,0.0,5.1735144,350.14703,1677455456000,0.0357228,180.0,890257918969000,3.920995,Car
Fix,FLP,37.7943198,-122.4048359,-22.65572262112441,1.296678e-10,5.426,,1677455456698,0.0357228,,890257918969000,2.1773748,Car
Fix,FLP,37.7943198,-122.4048359,-22.617587797064736,1.4226339e-07,8.262,,1677455457739,0.0357228,,890258959000000,1.9579086,Car
Fix,NLP,37.7942931,-122.4047573,-18.30000114440918,,12.139,,1677455457739,,,890258959000000,1.0,Car
Fix,GPS,37.7943196112,-122.4048358249,-2.651320156385645,0.0,5.1834755,350.14703,1677455457000,0.041007232,46.59347,890258918929000,3.846716,Car
Fix,GPS,37.7943196112,-122.4048358249,-2.558881443053918,0.0,5.183362,350.14703,1677455458000,0.032795165,180.0,890259919048000,3.7716172,Car
Fix,FLP,37.7943196,-122.4048358,-22.68368389529884,2.2535534e-07,7.702,,1677455458699,0.032795165,,890259919048000,2.1004214,Car
Fix,GPS,37.7943196112,-122.4048358249,-2.5702148472126902,0.0,5.1730685,350.14703,1677455459000,0.041047487,47.43331,890260918951000,3.707228,Car
Fix,FLP,37.7943196,-122.4048358,-22.695885908023527,1.096801e-09,7.567,,1677455459698,0.041047487,,890260918951000,2.1108565,Car
Fix,GPS,37.7943196112,-122.4048358249,-2.529220739537508,0.0,5.17292,350.14703,1677455460000,0.06076379,180.0,890261919048000,3.6412568,Car
Fix,FLP,37.7943196,-122.4048358,-22.66233033065028,9.590289e-10,7.516,,1677455460699,0.06076379,,890261919048000,2.1938384,Car
Fix,GPS,37.7943196112,-122.4048358249,-2.52560611276387,0.0,5.172772,350.14703,1677455461000,0.03853046,180.0,890262918990000,3.5775015,Car
Fix,FLP,37.7943196,-122.4048358,-22.29676927470084,4.725343e-10,7.516,,1677455461698,0.03853046,,890262918990000,2.2659285,Car
Fix,FLP,37.7943196,-122.4048358,-21.218805976693936,8.474409e-09,9.607,,1677455462705,0.03853046,,890263925000000,1.9126021,Car
Fix,NLP,37.7942792,-122.4047223,-18.30000114440918,,11.072,,1677455462705,,,890263925000000,1.0,Car
Fix,GPS,37.7943196112,-122.4048358249,-2.5238922755893944,0.0,5.915546,350.14703,1677455462000,0.06298962,15.838822,890263919009000,3.5186281,Car
Fix,GPS,37.7943196112,-122.4048358249,-2.5005023868811214,0.0,5.914867,350.14703,1677455463000,0.039612208,180.0,890264919024000,3.4653702,Car
Fix,FLP,37.7943196,-122.4048358,-21.94492180870167,2.2715552e-08,7.106,,1677455463698,0.039612208,,890264919024000,2.202664,Car
Fix,GPS,37.7943196112,-122.4048358249,-2.4850011467020763,0.0,6.845577,350.14703,1677455464000,0.036318827,180.0,890265919285000,3.4141293,Car
Fix,FLP,37.7943196,-122.4048358,-22.344051806133766,6.06966e-11,7.62,,1677455464699,0.036318827,,890265919285000,2.0888503,Car
Fix,GPS,37.7943196112,-122.4048358249,-2.326641862446338,0.0,5.182567,350.14703,1677455465000,0.0316213,180.0,890266919098000,3.3633363,Car
Fix,FLP,37.7943196,-122.4048358,-22.64910617901453,1.17426e-11,7.622,,1677455465699,0.0316213,,890266919098000,2.0345774,Car
Fix,GPS,37.7943196112,-122.4048358249,-2.1951324510254167,0.0,5.200698,350.14703,1677455466000,0.036359854,180.0,890267919130000,3.3150542,Car
Fix,FLP,37.7943196,-122.4048358,-22.74672125338951,6.4955e-12,7.626,,1677455466699,0.036359854,,890267919130000,2.2718678,Car
Fix,GPS,37.7943196112,-122.4048358249,-2.1679939382290434,0.0,5.1718836,350.14703,1677455467000,0.04044,180.0,890268919065000,3.2700093,Car
Fix,NLP,37.794287,-122.4048304,-18.100000381469727,,14.385,,1677455467787,,,890269007000000,1.4125819,Car
Fix,FLP,37.7943196,-122.4048358,-18.100000381469727,4.003721e-10,8.08,,1677455467787,0.036359854,,890269007000000,1.7316159,Car
Fix,GPS,37.7943196112,-122.4048358249,-2.0628627953766463,0.0,4.866182,350.14703,1677455468000,0.039867096,180.0,890269919081000,3.2246506,Car
Fix,FLP,37.7943196,-122.4048358,-22.8794149374982,1.1526909e-09,7.959,,1677455468699,0.039867096,,890269919081000,1.6813517,Car
Fix,GPS,37.7943196112,-122.4048358249,-2.0288394524592084,0.0,4.8659277,350.14703,1677455469000,0.036183696,180.0,890270919094000,3.1800544,Car
Fix,FLP,37.7943196,-122.4048358,-22.961781136527947,4.2527e-12,7.517,,1677455469699,0.036183696,,890270919094000,2.0528417,Car
Fix,GPS,37.7943196112,-122.4048358249,-1.9329521066842936,0.0,4.865674,350.14703,1677455470000,0.036331266,180.0,890271919109000,3.141595,Car
Fix,FLP,37.7943196,-122.4048358,-22.57333236506166,8.732e-13,7.576,,1677455470699,0.036331266,,890271919109000,2.138858,Car
Fix,GPS,37.7943196112,-122.4048358249,-1.8937171915690043,0.0,4.865421,350.14703,1677455471000,0.03629066,180.0,890272919128000,3.1045952,Car
Fix,FLP,37.7943196,-122.4048358,-22.57841634561631,4.809e-13,7.188,,1677455471699,0.03629066,,890272919128000,2.0611997,Car
Fix,GPS,37.7943196112,-122.4048358249,-1.824030386355277,0.0,4.7432346,350.14703,1677455472000,0.033026524,180.0,890273919134000,3.0690215,Car
Fix,FLP,37.7943196,-122.4048358,-22.61552931104093,2.191e-13,7.258,,1677455472699,0.033026524,,890273919134000,2.0437157,Car
Fix,GPS,37.7943196112,-122.4048358249,-1.858483052829245,0.0,4.7432833,350.14703,1677455473000,0.035529695,180.0,890274919153000,3.0339599,Car
Fix,FLP,37.7943196,-122.4048358,-22.991261276395903,1.158e-13,4.816,,1677455473699,0.035529695,,890274919153000,2.2280424,Car
Fix,GPS,37.7943196112,-122.4048358249,-1.787272514038169,0.0,4.743332,350.14703,1677455474000,0.035599038,180.0,890275919171000,3.0006769,Car
Fix,FLP,37.7943196,-122.4048358,-23.09803339437025,7.41e-14,4.792,,1677455474699,0.035599038,,890275919171000,1.7665249,Car
Fix,GPS,37.7943196112,-122.4048358249,-1.761638877512914,0.0,4.767852,350.14703,1677455475000,0.033344425,180.0,890276919190000,3.0,Car
Fix,FLP,37.7943196,-122.4048358,-23.0985417866616,3.6e-14,4.772,,1677455475699,0.033344425,,890276919190000,1.985661,Car
Fix,GPS,37.7943196112,-122.4048358249,-1.727411962746355,0.0,5.146612,350.14703,1677455476000,0.036401484,180.0,890277919191000,3.0,Car
Fix,FLP,37.7943196,-122.4048358,-18.100000381469727,2.01e-14,4.828,,1677455476699,0.036401484,,890277919191000,2.1639583,Car
Fix,FLP,37.7943196,-122.4048358,-18.30000114440918,1.299e-12,6.131,,1677455477276,0.036401484,,890278496000000,2.1618404,Car
Fix,NLP,37.7942821,-122.4047562,-18.100000381469727,,12.914,,1677455477276,,,890278496000000,2.3667164,Car
Fix,GPS,37.7943196112,-122.4048358249,-1.7679941559448416,0.0,5.1465864,350.14703,1677455477000,0.03335072,180.0,890278919237000,3.0,Car
Fix,FLP,37.7943196,-122.4048358,-18.30000114440918,1.6007e-12,6.198,,1677455477699,0.03335072,,890278919237000,2.1675558,Car
Fix,GPS,37.7943196112,-122.4048358249,-1.782527718187707,0.0,5.14656,350.14703,1677455478000,0.035979323,180.0,890279919229000,3.0,Car
Fix,FLP,37.7943196,-122.4048358,-18.100000381469727,9.2e-15,6.266,,1677455478699,0.035979323,,890279919229000,2.084555,Car
Fix,GPS,37.7943196112,-122.4048358249,-1.8354594535326887,0.0,5.1465344,350.14703,1677455479000,0.035906408,180.0,890280919239000,3.0,Car
Fix,FLP,37.7943196,-122.4048358,-18.100000381469727,3.8e-15,6.333,,1677455479698,0.035906408,,890280919239000,1.6781054,Car
Fix,GPS,37.7943196112,-122.4048358249,-1.826492241252992,0.0,5.1465087,350.14703,1677455480000,0.031201066,180.0,890281919272000,3.0,Car
Fix,FLP,37.7943196,-122.4048358,-22.464534448323747,1.6e-15,6.396,,1677455480699,0.031201066,,890281919272000,1.9446061,Car
Fix,GPS,37.7943196112,-122.4048358249,-1.796478236607143,0.0,5.297169,350.14703,1677455481000,0.03634615,180.0,890282919483000,3.0,Car
Fix,FLP,37.7943196,-122.4048358,-22.829597994062127,8e-16,6.421,,1677455481699,0.03634615,,890282919483000,1.7602974,Car
Fix,FLP,37.7943196,-122.4048358,-18.100000381469727,6.8e-14,6.502,,1677455482301,0.03634615,,890283522000000,1.7047243,Car
Fix,NLP,37.7942883,-122.4048102,-18.100000381469727,,13.297,,1677455482302,,,890283522000000,1.0,Car
Fix,GPS,37.7943196112,-122.4048358249,-1.722047836794281,0.0,5.0683665,350.14703,1677455482000,0.035856225,180.0,890283919385000,3.0,Car
Fix,FLP,37.7943196,-122.4048358,-18.100000381469727,9.94e-14,6.489,,1677455482699,0.035856225,,890283919385000,2.022565,Car
Fix,GPS,37.7943196112,-122.4048358249,-1.693619949041998,0.0,5.537134,350.14703,1677455483000,0.040870897,180.0,890284919851000,3.0,Car
Fix,FLP,37.7943196,-122.4048358,-18.100000381469727,6e-16,6.554,,1677455483699,0.040870897,,890284919851000,1.9884199,Car
Fix,GPS,37.7943196112,-122.4048358249,-1.6874109271128823,0.0,5.5368524,350.14703,1677455484000,0.04061649,180.0,890285919339000,3.0,Car
Fix,FLP,37.7943196,-122.4048358,-18.100000381469727,3e-16,6.619,,1677455484699,0.04061649,,890285919339000,1.9855521,Car
Fix,GPS,37.7943196112,-122.4048358249,-1.693355049236264,0.0,5.14638,350.14703,1677455485000,0.039936244,180.0,890286919352000,3.0,Car
Fix,FLP,37.7943196,-122.4048358,-18.100000381469727,1e-16,6.619,,1677455485699,0.039936244,,890286919352000,2.006288,Car
Fix,GPS,37.7943196112,-122.4048358249,-1.7262898157008657,0.0,5.1802063,350.14703,1677455486000,0.03658844,180.0,890287919416000,3.0,Car
Fix,FLP,37.7943196,-122.4048358,-18.100000381469727,0.0,6.413,,1677455486699,0.03658844,,890287919416000,1.7256743,Car
Fix,FLP,37.7943196,-122.4048358,-18.200000762939453,3.9e-15,6.651,,1677455487335,0.03658844,,890288555000000,1.6184975,Car
Fix,NLP,37.7942921,-122.4047543,-18.200000762939453,,14.67,,1677455487335,,,890288555000000,1.0,Car
Fix,GPS,37.7943196112,-122.4048358249,-1.8094190559336192,0.0,5.1800947,350.14703,1677455487000,0.036733694,180.0,890288919377000,3.0,Car
Fix,FLP,37.7943196,-122.4048358,-18.200000762939453,5.6e-15,6.441,,1677455487699,0.036733694,,890288919377000,1.6505744,Car
Fix,GPS,37.7943196112,-122.4048358249,-1.851778988788385,0.0,5.179983,350.14703,1677455488000,0.03668691,180.0,890289919382000,3.0,Car
Fix,FLP,37.7943196,-122.4048358,-18.200000762939453,0.0,6.457,,1677455488699,0.03668691,,890289919382000,1.6600835,Car
Fix,GPS,37.7943196112,-122.4048358249,-1.8081725882593347,0.0,5.179872,350.14703,1677455489000,0.033833645,180.0,890290919556000,3.0,Car
Fix,FLP,37.7943196,-122.4048358,-18.200000762939453,0.0,6.551,,1677455489699,0.033833645,,890290919556000,1.9217309,Car
Fix,GPS,37.7943196112,-122.4048358249,-1.741423451884569,0.0,5.535163,350.14703,1677455490000,0.040601566,180.0,890291919488000,3.0,Car
Fix,FLP,37.7943196,-122.4048358,-18.200000762939453,0.0,6.616,,1677455490699,0.040601566,,890291919488000,1.9295696,Car
Fix,GPS,37.7943196112,-122.4048358249,-1.7055112898624571,0.0,5.5348816,350.14703,1677455491000,0.040554944,180.0,890292919735000,3.0,Car
Fix,FLP,37.7943196,-122.4048358,-18.200000762939453,0.0,6.675,,1677455491699,0.040554944,,890292919735000,1.9781911,Car
Fix,NLP,37.7942935,-122.4047461,-18.200000762939453,,13.204,,1677455492344,,,890293564000000,4.238851,Car
Fix,FLP,37.7943196,-122.4048358,-18.200000762939453,1e-16,6.753,,1677455492344,0.040554944,,890293564000000,2.1403637,Car
Fix,GPS,37.7943196112,-122.4048358249,-1.7413497395665465,0.0,5.372857,350.14703,1677455492000,0.041128043,180.0,890293919447000,3.0,Car
Fix,FLP,37.7943196,-122.4048358,-18.200000762939453,1e-16,6.785,,1677455492699,0.041128043,,890293919447000,2.253286,Car
Fix,GPS,37.7943196112,-122.4048358249,-1.7274999057652571,0.0,5.3726506,350.14703,1677455493000,0.040502787,180.0,890294919452000,3.0,Car
Fix,FLP,37.7943196,-122.4048358,-18.200000762939453,0.0,6.817,,1677455493699,0.040502787,,890294919452000,1.7883397,Car
Fix,GPS,37.7943196112,-122.4048358249,-1.7539905047986144,0.0,5.295207,350.14703,1677455494000,0.04042289,180.0,890295919904000,3.0,Car
Fix,FLP,37.7943196,-122.4048358,-18.200000762939453,0.0,6.836,,1677455494699,0.04042289,,890295919904000,1.8505951,Car
Fix,GPS,37.7943196112,-122.4048358249,-1.835031270389205,0.0,5.2950563,350.14703,1677455495000,0.040428307,180.0,890296919585000,3.0,Car
Fix,FLP,37.7943196,-122.4048358,-18.200000762939453,0.0,6.796,,1677455495699,0.040428307,,890296919585000,1.8612634,Car
Fix,GPS,37.7943196112,-122.4048358249,-1.9483000476604275,0.0,5.372032,350.14703,1677455496000,0.040826987,38.541195,890297919526000,3.0,Car
Fix,FLP,37.7943196,-122.4048358,-18.200000762939453,0.0,6.593,,1677455496699,0.040826987,,890297919526000,1.8990898,Car
Fix,FLP,37.7943196,-122.4048358,-18.30000114440918,0.0,6.842,,1677455497390,0.040826987,,890298610000000,1.9069802,Car
Fix,NLP,37.7942882,-122.4047365,-18.30000114440918,,11.699,,1677455497389,,,890298610000000,1.0,Car
Fix,GPS,37.7943196112,-122.4048358249,-2.057549460651459,0.0,5.533192,350.14703,1677455497000,0.042539414,48.53211,890298919493000,3.0,Car
Fix,FLP,37.7943196,-122.4048358,-18.30000114440918,0.0,7.937,,1677455497699,0.042539414,,890298919493000,1.6175675,Car
Fix,GPS,37.7943196112,-122.4048358249,-2.054392447126741,0.0,5.1673546,350.14703,1677455498000,0.042900823,180.0,890299919592000,3.0,Car
Fix,FLP,37.7943196,-122.4048358,-18.30000114440918,0.0,7.611,,1677455498699,0.042900823,,890299919592000,1.6268293,Car
Fix,GPS,37.7943196112,-122.4048358249,-2.016782388120347,0.0,5.16721,350.14703,1677455499000,0.06116692,180.0,890300919708000,3.0,Car
Fix,FLP,37.7943196,-122.4048358,-18.30000114440918,0.0,7.339,,1677455499699,0.06116692,,890300919708000,2.036951,Car
Fix,GPS,37.7943196112,-122.4048358249,-2.005364655607565,0.0,5.1670656,350.14703,1677455500000,0.033825766,180.0,890301919706000,3.0,Car
Fix,FLP,37.7943196,-122.4048358,-18.30000114440918,0.0,7.579,,1677455500699,0.033825766,,890301919706000,1.6235566,Car
Fix,GPS,37.7943196112,-122.4048358249,-2.046118514055957,0.0,5.889239,350.14703,1677455501000,0.04090348,180.0,890302919550000,3.0,Car
Fix,FLP,37.7943196,-122.4048358,-18.30000114440918,0.0,7.644,,1677455501699,0.04090348,,890302919550000,1.6297389,Car
Fix,NLP,37.7942856,-122.4046997,-18.100000381469727,,11.305,,1677455502370,,,890303590000000,1.0,Car
Fix,FLP,37.7943196,-122.4048358,-18.100000381469727,0.0,8.417,,1677455502370,0.04090348,,890303590000000,1.4501369,Car
Fix,GPS,37.7943196112,-122.4048358249,-2.0089548060386857,0.0,4.926249,350.14703,1677455502000,0.03927869,180.0,890303919574000,3.0,Car
Fix,FLP,37.7943196,-122.4048358,-18.100000381469727,0.0,6.636,,1677455502699,0.03927869,,890303919574000,1.4809637,Car
Fix,GPS,37.7943196112,-122.4048358249,-2.1010496072183757,0.0,4.92606,350.14703,1677455503000,0.060584888,180.0,890304920560000,3.0,Car
Fix,FLP,37.7943196,-122.4048358,-18.100000381469727,0.0,6.779,,1677455503700,0.060584888,,890304920560000,1.4935938,Car
Fix,GPS,37.7943196112,-122.4048358249,-2.196528603866485,0.0,4.9258714,350.14703,1677455504000,0.060554978,53.123177,890305919625000,3.0,Car
Fix,FLP,37.7943196,-122.4048358,-18.100000381469727,0.0,6.515,,1677455504699,0.060554978,,890305919625000,1.5133722,Car
Fix,GPS,37.7943196112,-122.4048358249,-2.2427393354172294,0.0,4.9256825,350.14703,1677455505000,0.033698548,180.0,890306919953000,3.0,Car
Fix,FLP,37.7943196,-122.4048358,-18.100000381469727,0.0,6.699,,1677455505699,0.033698548,,890306919953000,1.528332,Car
Fix,GPS,37.7943196112,-122.4048358249,-2.307232794527762,0.0,4.9254947,350.14703,1677455506000,0.033736758,180.0,890307919643000,3.0,Car
Fix,FLP,37.7943196,-122.4048358,-18.100000381469727,0.0,6.538,,1677455506699,0.033736758,,890307919643000,1.5831589,Car
Fix,FLP,37.7943196,-122.4048358,-18.30000114440918,0.0,6.434,,1677455507396,0.033736758,,890308616000000,1.6675116,Car
Fix,NLP,37.7942807,-122.404698,-18.30000114440918,,11.123,,1677455507396,,,890308616000000,1.0,Car
Fix,GPS,37.7943196112,-122.4048358249,-2.3545126154349925,0.0,4.9253063,350.14703,1677455507000,0.029672187,180.0,890308919840000,3.0,Car
Fix,FLP,37.7943196,-122.4048358,-18.30000114440918,0.0,6.434,,1677455507699,0.029672187,,890308919840000,1.6780998,Car
Fix,GPS,37.7943196112,-122.4048358249,-2.3719476691488928,0.0,4.8562346,350.14703,1677455508000,0.030266745,10.0,890309919852000,3.0,Car
Fix,FLP,37.7943196,-122.4048358,-18.30000114440918,0.0,6.208,,1677455508699,0.030266745,,890309919852000,1.664675,Car
Fix,GPS,37.7943520797,-122.4048592843,-2.3926368282314447,0.75032574,5.1657705,350.14703,1677455509000,0.06055625,15.408862,890310919686000,3.0,Car
Fix,FLP,37.7943337,-122.404846,-18.30000114440918,0.74490356,6.462,350.4108,1677455509699,0.06055625,15.408862,890310919686000,1.3665357,Car
Fix,GPS,37.7943656634,-122.4048621869,-2.448972423117005,1.5060742,5.1656275,350.259,1677455510000,0.039134234,10.0,890311919686000,3.0,Car
Fix,FLP,37.7943514,-122.4048539,-18.30000114440918,1.5010649,6.277,350.35757,1677455510698,0.039134234,10.0,890311919686000,1.3566424,Car
Fix,GPS,37.7943826702,-122.4048650587,-2.495824458858652,1.8550799,5.1654854,351.22385,1677455511000,0.060638323,10.0,890312919684000,3.0,Car
Fix,FLP,37.7943726,-122.4048604,-18.30000114440918,1.8518033,6.542,351.10645,1677455511699,0.060638323,10.0,890312919684000,1.3662423,Car
Fix,FLP,37.7943855,-122.4048641,-19.0,1.8549443,6.461,351.01688,1677455512439,0.060638323,10.0,890313660000000,1.4011333,Car
Fix,NLP,37.7942869,-122.4046859,-19.0,,13.342,,1677455512439,,,890313660000000,4.18424,Car
Fix,GPS,37.7944000851,-122.4048685885,-2.5505291795557152,1.9327997,5.1653423,349.588,1677455512000,0.06044611,10.0,890313919697000,3.0,Car
Fix,FLP,37.7943934,-122.4048663,-19.0,1.9291586,6.299,349.39575,1677455512699,0.06044611,10.0,890313919697000,1.397524,Car
Fix,GPS,37.7944310455,-122.4048748705,-2.646650601383927,3.4078686,5.931809,350.92636,1677455513000,0.0672628,10.0,890314919741000,3.0,Car
Fix,FLP,37.7944128,-122.4048712,-19.0,3.1923141,6.173,351.98904,1677455513699,0.0672628,10.0,890314919741000,1.409573,Car
Fix,GPS,37.7944725618,-122.4048838052,-2.818725498231187,4.661322,5.1650577,350.2316,1677455514000,0.06456778,10.0,890315919773000,3.0,Car
Fix,FLP,37.7944496,-122.4048789,-19.0,4.280426,6.249,351.40347,1677455514699,0.06456778,10.0,890315919773000,1.4939516,Car
Fix,GPS,37.7945157182,-122.404893563,-2.877601843261348,5.088144,5.164915,349.85013,1677455515000,0.5663502,10.0,890316919746000,3.0,Car
Fix,FLP,37.7944955,-122.4048888,-19.0,4.796375,6.082,349.90472,1677455515699,0.5663502,10.0,890316919746000,1.6118094,Car
Fix,GPS,37.7945726266,-122.4049047168,-2.65965727447242,6.2564535,5.0709734,350.86694,1677455516000,0.10038802,10.0,890317919750000,3.0,Car
Fix,FLP,37.7945499,-122.4049007,-19.0,6.141127,6.01,350.84097,1677455516699,0.10038802,10.0,890317919750000,1.6214201,Car
Fix,FLP,37.7945858,-122.404908,-17.700000762939453,6.140331,6.631,350.8524,1677455517376,0.10038802,10.0,890318596000000,1.5736259,Car
Fix,NLP,37.7945527,-122.404661,-17.700000762939453,,28.846,,1677455517376,,,890318596000000,1.8434736,Car
Fix,GPS,37.7946309596,-122.4049165541,-2.646907056919712,6.8944287,5.070857,348.86267,1677455517000,0.47823408,10.0,890318919839000,3.0,Car
Fix,FLP,37.794615,-122.4049144,-17.700000762939453,6.688374,5.996,349.69858,1677455517699,0.47823408,10.0,890318919839000,1.5682641,Car
Fix,GPS,37.794693131,-122.4049318727,-2.750924420921994,7.022561,5.4762983,346.55182,1677455518000,0.49342144,10.0,890319919779000,3.0618377,Car
Fix,FLP,37.7946819,-122.4049306,-17.700000762939453,6.917464,6.106,347.88458,1677455518699,0.49342144,10.0,890319919779000,1.439722,Car
Fix,GPS,37.794755677,-122.4049485098,-3.122841428389896,7.002515,5.3068333,347.9351,1677455519000,0.081342205,10.0,890320919953000,3.0,Car
Fix,FLP,37.7947485,-122.404948,-17.700000762939453,6.986617,6.16,347.4611,1677455519699,0.081342205,10.0,890320919953000,1.4487585,Car
Fix,GPS,37.7948191896,-122.4049660983,-3.359950529020737,6.841471,5.9592586,348.56345,1677455520000,0.09160741,10.0,890321919838000,3.0,Car
Fix,FLP,37.7948133,-122.4049654,-17.700000762939453,6.8608637,6.558,347.63654,1677455520699,0.09160741,10.0,890321919838000,1.4411019,Car
Fix,GPS,37.7948821305,-122.4049848358,-3.3500888575905727,6.5630207,5.1861286,347.50995,1677455521000,0.08632078,10.0,890322919856000,3.0,Car
Fix,FLP,37.7948774,-122.4049834,-17.700000762939453,6.58714,6.81,347.03818,1677455521698,0.08632078,10.0,890322919856000,1.4445118,Car
Fix,GPS,37.7949353959,-122.4050009423,-3.4711355457426727,5.9964724,5.4264793,346.90955,1677455522000,0.09444446,10.0,890323920029000,3.0,Car
Fix,FLP,37.794935,-122.4050005,-17.700000762939453,6.044761,5.47,345.9958,1677455522700,0.09444446,10.0,890323920029000,1.4490747,Car
Fix,GPS,37.7949835027,-122.405016379,-3.353231050620606,5.3301854,5.7859163,345.97287,1677455523000,0.0874084,10.0,890324920072000,3.0,Car
Fix,FLP,37.7949858,-122.4050166,-17.700000762939453,5.3866906,5.532,344.8289,1677455523700,0.0874084,10.0,890324920072000,1.4661367,Car
Fix,GPS,37.7950257746,-122.4050299,-3.4098814452949213,4.516991,6.3289833,345.58072,1677455524000,0.082265064,10.0,890325919884000,3.0,Car
Fix,FLP,37.7950298,-122.405031,-17.700000762939453,4.579207,5.665,344.26025,1677455524699,0.082265064,10.0,890325919884000,1.5465337,Car
Fix,GPS,37.795067926,-122.4050454231,-3.4512553520369025,4.215798,6.085211,346.1215,1677455525000,0.54986143,10.0,890326920100000,3.0,Car
Fix,FLP,37.7950616,-122.4050422,-17.700000762939453,4.3733883,5.856,345.41656,1677455525700,0.54986143,10.0,890326920100000,1.560615,Car
Fix,GPS,37.7951048355,-122.4050582535,-3.5323322748709525,3.8860807,5.9092574,346.83926,1677455526000,0.58586895,10.0,890327919937000,3.0,Car
Fix,FLP,37.7951013,-122.4050558,-17.700000762939453,4.0201545,5.977,345.75314,1677455526699,0.58586895,10.0,890327919937000,1.6585026,Car
Fix,GPS,37.7951407948,-122.4050691927,-3.422645562248216,4.010316,6.226001,345.23822,1677455527000,0.6072318,10.0,890328919944000,3.0,Car
Fix,FLP,37.7951316,-122.4050661,-17.700000762939453,3.9716337,5.999,345.4359,1677455527699,0.6072318,10.0,890328919944000,1.6561834,Car
Fix,GPS,37.7951829285,-122.4050827776,-3.3052708856665807,4.2937336,6.673869,346.52393,1677455528000,0.5574593,10.0,890329919951000,3.1490371,Car
Fix,FLP,37.795164,-122.4050768,-17.700000762939453,4.1278553,6.212,345.50848,1677455528699,0.5574593,10.0,890329919951000,1.6596018,Car
Fix,GPS,37.7952268246,-122.4050936493,-3.596049102113573,4.5223036,6.789558,348.9019,1677455529000,0.55295074,10.0,890330920267000,3.2591758,Car
Fix,FLP,37.7952051,-122.4050891,-17.700000762939453,4.4067187,6.304,346.97272,1677455529700,0.55295074,10.0,890330920267000,1.5476145,Car
Fix,GPS,37.7952701247,-122.4050916705,-3.3950039463667645,5.182263,6.2701964,351.2857,1677455530000,0.072671086,10.0,890331920146000,3.0,Car
Fix,FLP,37.7952494,-122.4050968,-17.700000762939453,5.1348763,6.407,349.86084,1677455530700,0.072671086,10.0,890331920146000,1.5677122,Car
Fix,GPS,37.7953157969,-122.4050954185,-3.4505348153606787,5.305466,6.2864676,348.5313,1677455531000,0.46851325,10.0,890332920015000,3.0,Car
Fix,FLP,37.7952946,-122.4051006,-17.700000762939453,5.216084,6.427,349.63806,1677455531700,0.46851325,10.0,890332920015000,1.551016,Car
Fix,GPS,37.7953634281,-122.4051057142,-3.479892127418015,5.270284,6.4662704,349.12308,1677455532000,0.5493032,10.0,890333920014000,3.0,Car
Fix,FLP,37.7953479,-122.4051096,-17.700000762939453,5.254044,6.496,349.31888,1677455532700,0.5493032,10.0,890333920014000,1.5615427,Car
Fix,GPS,37.7954066825,-122.4051190397,-3.392216102762208,5.3631573,6.814604,349.21332,1677455533000,0.5269021,10.0,890334920209000,3.0,Car
Fix,FLP,37.7953985,-122.4051202,-17.700000762939453,5.3389897,6.537,349.1814,1677455533700,0.5269021,10.0,890334920209000,1.5783612,Car
Fix,GPS,37.7954439449,-122.4051307228,-3.45509096487241,5.514013,6.9002137,349.50363,1677455534000,0.48018217,10.0,890335920010000,3.0319896,Car
Fix,FLP,37.7954453,-122.4051314,-17.700000762939453,5.4764843,6.597,349.15033,1677455534700,0.48018217,10.0,890335920010000,1.5876116,Car
Fix,GPS,37.7954996762,-122.4051463508,-3.638343757512653,5.893695,6.9496,350.4397,1677455535000,0.5367975,10.0,890336920250000,3.1106477,Car
Fix,FLP,37.7954962,-122.4051443,-17.700000762939453,5.7960443,6.614,349.77014,1677455535700,0.5367975,10.0,890336920250000,1.6575669,Car
Fix,GPS,37.7955609712,-122.4051507091,-3.933165809161313,5.782534,7.1008744,349.57773,1677455536000,0.52788544,10.0,890337920196000,3.214177,Car
Fix,FLP,37.7955522,-122.4051543,-17.700000762939453,5.7847733,6.846,349.36444,1677455536700,0.52788544,10.0,890337920196000,1.6678469,Car
Fix,GPS,37.7956127038,-122.4051559696,-4.1856634363467125,5.718044,6.511489,350.4723,1677455537000,0.0897308,10.0,890338920069000,3.0,Car
Fix,FLP,37.7956069,-122.405162,-17.700000762939453,5.72409,6.855,349.78958,1677455537700,0.0897308,10.0,890338920069000,1.6783469,Car
Fix,GPS,37.7956656965,-122.4051596829,-4.567479231131116,5.365595,6.1122136,351.6868,1677455538000,0.08858892,10.0,890339920089000,3.0,Car
Fix,FLP,37.7956608,-122.4051673,-19.0,5.3858685,6.731,350.43024,1677455538700,0.08858892,10.0,890339920089000,1.6799463,Car
Fix,GPS,37.7957223482,-122.4051591092,-4.61442188098698,5.072219,6.1689167,350.8403,1677455539000,0.49852198,10.0,890340920094000,3.0,Car
Fix,FLP,37.7957139,-122.4051699,-19.0,5.1469474,6.568,350.24866,1677455539700,0.49852198,10.0,890340920094000,1.776959,Car
Fix,GPS,37.7957677146,-122.4051641993,-4.6822140003801165,4.7801437,5.345257,351.23334,1677455540000,0.038734432,10.0,890341920407000,3.0,Car
Fix,FLP,37.795763,-122.4051721,-19.0,4.791569,6.247,350.64755,1677455540700,0.038734432,10.0,890341920407000,1.6642694,Car
Fix,GPS,37.7958158643,-122.4051675376,-4.785868993722509,4.7226357,4.8995523,350.6425,1677455541000,0.034503043,10.0,890342920168000,3.0,Car
Fix,FLP,37.7958054,-122.4051727,-19.0,4.7200794,5.926,350.43976,1677455541700,0.034503043,10.0,890342920168000,1.6746895,Car
Fix,GPS,37.7958597871,-122.4051739083,-4.808323360071748,4.8714576,5.1777496,350.84042,1677455542000,0.43622163,10.0,890343920162000,3.0,Car
Fix,FLP,37.7958422,-122.4051752,-19.0,4.754519,5.421,350.12518,1677455542700,0.43622163,10.0,890343920162000,1.6842695,Car
Fix,GPS,37.7959055829,-122.4051805071,-4.832515622074415,4.816249,4.8519964,350.2715,1677455543000,0.076400906,10.0,890344920454000,3.0,Car
Fix,FLP,37.7958869,-122.4051806,-19.0,4.8218665,5.227,350.05142,1677455543699,0.076400906,10.0,890344920454000,1.6835846,Car
Fix,NLP,37.7958084,-122.4050695,-19.80000114440918,,18.657,,1677455543631,,,890344851000000,1.5675645,Car
Fix,GPS,37.7959429347,-122.4051865424,-4.914882704398342,4.1095977,4.9138956,350.93582,1677455544000,0.05956564,10.0,890345921710000,3.0,Car
Fix,FLP,37.7959346,-122.4051876,-19.80000114440918,4.1619735,5.044,349.39597,1677455544701,0.05956564,10.0,890345921710000,1.4209722,Car
Fix,GPS,37.7959761853,-122.4051954503,-5.006002475554815,3.8810642,5.010845,350.64865,1677455545000,0.06822074,10.0,890346920172000,3.0,Car
Fix,FLP,37.7959665,-122.4051931,-19.80000114440918,3.9964912,4.999,349.91544,1677455545700,0.06822074,10.0,890346920172000,1.4313354,Car
Fix,GPS,37.7960091019,-122.4052017998,-5.012917423506219,3.900289,5.1529646,351.34232,1677455546000,0.6047901,10.0,890347920382000,3.0,Car
Fix,FLP,37.7959992,-122.4052002,-19.80000114440918,3.888626,4.992,350.42227,1677455546700,0.6047901,10.0,890347920382000,1.4429234,Car
Fix,GPS,37.7960396575,-122.4052064441,-4.999911145293056,3.933232,5.7886605,351.4126,1677455547000,0.6989316,10.0,890348920233000,3.0,Car
Fix,FLP,37.7960315,-122.4052061,-19.80000114440918,3.914231,5.066,350.94156,1677455547700,0.6989316,10.0,890348920233000,1.4686859,Car
Fix,GPS,37.7960690875,-122.4052135846,-4.9479918948817705,3.7256463,6.3795614,349.7735,1677455548000,0.66809875,10.0,890349920439000,3.103867,Car
Fix,FLP,37.7960633,-122.4052124,-19.80000114440918,3.8142266,5.218,349.89566,1677455548700,0.66809875,10.0,890349920439000,1.5069184,Car
Fix,GPS,37.796095455,-122.4052191464,-4.8043613254142175,3.4473622,6.9070616,351.21484,1677455549000,0.6016224,10.0,890350920386000,3.3635712,Car
Fix,FLP,37.7960892,-122.4052182,-19.80000114440918,3.6049364,5.56,349.92505,1677455549700,0.6016224,10.0,890350920386000,1.5797694,Car
Fix,GPS,37.7961244192,-122.4052260787,-4.871431521774313,3.0521297,7.436532,351.23004,1677455550000,0.63286847,10.0,890351920276000,3.597456,Car
Fix,FLP,37.7961159,-122.4052238,-19.80000114440918,3.308808,6.018,350.99612,1677455550700,0.63286847,10.0,890351920276000,1.5840131,Car
Fix,GPS,37.7961525585,-122.4052295899,-4.655882185001021,2.3482997,7.699912,353.34048,1677455551000,0.55321336,10.440678,890352920285000,3.7783525,Car
Fix,FLP,37.7961434,-122.405229,-19.80000114440918,2.6454504,6.39,352.50995,1677455551699,0.55321336,10.440678,890352920285000,1.5944488,Car
Fix,GPS,37.796169065,-122.4052386635,-5.270247778248447,1.4646499,7.007041,351.15103,1677455552000,0.063180596,10.0,890353920342000,3.1379175,Car
Fix,FLP,37.796166,-122.4052346,-19.80000114440918,1.472341,6.839,350.746,1677455552700,0.063180596,10.0,890353920342000,1.6041734,Car
Fix,GPS,37.7961856907,-122.4052428684,-5.360804993501414,1.4817257,6.5119524,353.00958,1677455553000,0.063297585,10.0,890354920423000,3.0,Car
Fix,FLP,37.7961815,-122.4052393,-19.80000114440918,1.4821274,6.904,352.84146,1677455553700,0.063297585,10.0,890354920423000,1.5263172,Car
Fix,GPS,37.7962068654,-122.4052430483,-5.355966074955036,1.8213394,6.1056986,351.79144,1677455554000,0.059919465,10.0,890355920810000,3.0,Car
Fix,FLP,37.7961996,-122.4052421,-19.80000114440918,1.8173362,7.001,351.3103,1677455554700,0.059919465,10.0,890355920810000,1.5421219,Car
Fix,GPS,37.7962243872,-122.4052469671,-5.597454396428378,2.0092385,5.79491,349.6539,1677455555000,0.072830066,10.0,890356920339000,3.0,Car
Fix,FLP,37.7962194,-122.405246,-19.80000114440918,2.0047731,6.78,349.34958,1677455555699,0.072830066,10.0,890356920339000,1.5438792,Car
Fix,GPS,37.7962441429,-122.4052500005,-5.610884107851137,2.246015,5.57843,352.1791,1677455556000,0.07268538,10.0,890357920550000,3.0,Car
Fix,FLP,37.7962401,-122.4052501,-19.80000114440918,2.244661,6.199,351.78043,1677455556700,0.07268538,10.0,890357920550000,1.5478975,Car
Fix,GPS,37.7962607929,-122.4052530317,-5.857509291517965,1.9639403,5.391748,351.39673,1677455557000,0.07949272,10.0,890358920363000,3.0,Car
Fix,FLP,37.7962604,-122.4052534,-19.80000114440918,1.9672816,5.876,350.972,1677455557700,0.07949272,10.0,890358920363000,1.5582597,Car
Fix,GPS,37.7962778204,-122.4052558245,-5.800320743648312,2.2617447,5.8281603,345.7901,1677455558000,0.40268195,10.0,890359920366000,3.0,Car
Fix,FLP,37.7962779,-122.4052567,-19.80000114440918,2.2120352,5.868,345.7596,1677455558700,0.40268195,10.0,890359920366000,1.5737398,Car
Fix,GPS,37.7963002811,-122.4052663653,-5.7733538270104985,3.2727835,6.1868668,340.31345,1677455559000,0.49548465,10.0,890360920392000,3.0,Car
Fix,FLP,37.7962989,-122.4052647,-19.80000114440918,3.0349095,5.814,341.3017,1677455559699,0.49548465,10.0,890360920392000,1.5755353,Car
Fix,GPS,37.7963302155,-122.4052829236,-5.375995947723006,3.2954073,6.547534,342.54703,1677455560000,0.53410894,10.0,890361920397000,3.0271957,Car
Fix,FLP,37.796321,-122.4052759,-19.80000114440918,3.271337,5.986,341.13852,1677455560699,0.53410894,10.0,890361920397000,1.5981445,Car
Fix,GPS,37.7963563227,-122.4052882778,-5.234607245611564,2.9879875,6.7705107,342.33282,1677455561000,0.5335666,10.0,890362920482000,3.2752721,Car
Fix,FLP,37.7963456,-122.4052867,-19.80000114440918,3.1396804,6.206,342.0582,1677455561700,0.5335666,10.0,890362920482000,1.6356777,Car
Fix,GPS,37.7963787619,-122.4052922434,-5.385618320119526,2.810826,6.978304,344.5905,1677455562000,0.51856285,10.0,890363920555000,3.490555,Car
Fix,FLP,37.7963757,-122.4052949,-19.80000114440918,2.814904,6.404,343.9775,1677455562700,0.51856285,10.0,890363920555000,1.635885,Car
Fix,GPS,37.7963975579,-122.4052969763,-5.446903842862333,1.656807,7.0129204,341.28186,1677455563000,0.5022704,16.777975,890364920505000,3.6620786,Car
Fix,FLP,37.7963986,-122.4053,-19.80000114440918,1.6703051,6.552,341.06448,1677455563700,0.5022704,16.777975,890364920505000,1.6477784,Car
Fix,GPS,37.7964135454,-122.4053003502,-4.969963335655118,2.3247235,7.0637903,322.06912,1677455564000,0.4882374,11.198181,890365920436000,3.839154,Car
Fix,FLP,37.7964132,-122.405303,-19.80000114440918,2.3169732,6.662,322.13797,1677455564700,0.4882374,11.198181,890365920436000,1.7182492,Car
Fix,GPS,37.7964308559,-122.4052997399,-4.845079994332612,2.8840072,7.004405,341.91034,1677455565000,0.4414428,10.0,890366920472000,3.9891076,Car
Fix,FLP,37.7964248,-122.4053057,-19.80000114440918,2.5980186,6.92,332.46,1677455565700,0.4414428,10.0,890366920472000,1.7278492,Car
Fix,GPS,37.7964618398,-122.4052960071,-5.061518061810589,3.1441555,6.8706675,346.91235,1677455566000,0.45905575,10.0,890367920509000,4.1463103,Car
Fix,FLP,37.7964519,-122.4053049,-19.80000114440918,3.1378357,6.943,345.8592,1677455566700,0.45905575,10.0,890367920509000,1.7382492,Car
Fix,GPS,37.7965017839,-122.4052950069,-5.606010825825938,3.7739186,6.78256,349.22137,1677455567000,0.45933807,10.0,890368920508000,4.2538548,Car
Fix,FLP,37.7964895,-122.4053019,-19.80000114440918,3.7628887,6.961,348.94873,1677455567700,0.45933807,10.0,890368920508000,1.6884727,Car
Fix,GPS,37.7965441837,-122.4053007692,-5.607360601685288,3.816691,6.8001065,347.21448,1677455568000,0.47096628,10.0,890369920858000,4.273214,Car
Fix,FLP,37.7965344,-122.4053037,-19.80000114440918,3.815783,6.916,347.05347,1677455568700,0.47096628,10.0,890369920858000,1.7057918,Car
Fix,GPS,37.7965799739,-122.4053102187,-5.923441804811442,3.8437638,6.6606884,347.23248,1677455569000,0.50580674,10.0,890370920609000,4.278613,Car
Fix,FLP,37.7965748,-122.4053116,-19.80000114440918,3.8434684,6.871,347.00284,1677455569700,0.50580674,10.0,890370920609000,1.6898632,Car
Fix,GPS,37.7966149168,-122.4053094811,-5.253252482550777,3.6138191,6.057722,350.7858,1677455570000,0.087602794,10.0,890371920722000,3.6065886,Car
Fix,FLP,37.7966125,-122.4053139,-19.80000114440918,3.6146965,6.766,349.93735,1677455570700,0.087602794,10.0,890371920722000,1.6994332,Car
Fix,GPS,37.7966457596,-122.4053072718,-5.4225547825834175,2.6026745,6.1017094,349.53604,1677455571000,0.4561077,10.0,890372920839000,3.5750866,Car
Fix,FLP,37.7966453,-122.4053126,-19.80000114440918,2.6126556,6.579,349.01578,1677455571700,0.4561077,10.0,890372920839000,1.703353,Car
Fix,GPS,37.7966670554,-122.4053036306,-5.481415901367372,1.8507,6.222214,350.45004,1677455572000,0.4718128,12.944674,890373920568000,3.5860229,Car
Fix,FLP,37.7966676,-122.4053094,-19.80000114440918,1.8585595,6.437,349.99835,1677455572700,0.4718128,12.944674,890373920568000,1.7137231,Car
Fix,GPS,37.796674551,-122.4052993847,-5.164909248990716,0.9804847,5.8206344,350.45004,1677455573000,0.07999775,20.138464,890374920799000,3.354662,Car
Fix,FLP,37.796678,-122.4053044,-19.80000114440918,0.98101884,6.277,349.95767,1677455573700,0.07999775,20.138464,890374920799000,1.7267091,Car
Fix,GPS,37.7966793731,-122.405300814,-5.292307204899108,0.0,5.5373755,350.45004,1677455574000,0.062450208,34.67852,890375920788000,3.2020981,Car
Fix,FLP,37.7966819,-122.4053027,-19.80000114440918,0.0001755698,5.948,,1677455574700,0.062450208,,890375920788000,1.7430414,Car
Fix,GPS,37.7966793731,-122.405300814,-5.2885039662326125,0.0,5.376395,350.45004,1677455575000,0.47352093,180.0,890376920643000,3.1074476,Car
Fix,FLP,37.7966803,-122.4053015,-19.80000114440918,1.5195869e-06,5.852,,1677455575699,0.47352093,,890376920643000,1.7450047,Car
Fix,GPS,37.7966793731,-122.405300814,-5.256005358381191,0.0,5.0695176,350.45004,1677455576000,0.0803488,180.0,890377920964000,3.0,Car
Fix,FLP,37.7966797,-122.405301,-19.80000114440918,1.7350006e-07,5.605,,1677455576700,0.0803488,,890377920964000,1.7545246,Car
Fix,FLP,37.7966796,-122.4053009,-19.600000381469727,7.169219e-07,5.656,,1677455576766,0.0803488,,890377986000000,1.4075019,Car
Fix,NLP,37.7966457,-122.4052123,-19.600000381469727,,13.6,,1677455576766,,,890377986000000,1.1948327,Car
Fix,GPS,37.7966793731,-122.405300814,-4.99747134599799,0.0,4.7957387,350.45004,1677455577000,0.040667012,180.0,890378920686000,3.0,Car
Fix,FLP,37.7966795,-122.4053008,-19.600000381469727,5.926925e-08,5.419,,1677455577700,0.040667012,,890378920686000,1.414722,Car
Fix,GPS,37.7966793731,-122.405300814,-4.710503419598249,0.0,4.5470138,350.45004,1677455578000,0.0232106,180.0,890379920700000,3.0,Car
Fix,FLP,37.7966794,-122.4053008,-19.600000381469727,8.2043e-12,5.148,,1677455578700,0.0232106,,890379920700000,1.4248797,Car
Fix,GPS,37.7966793731,-122.405300814,-4.714451774215132,0.0,4.881078,350.45004,1677455579000,0.022649026,180.0,890380920647000,3.0,Car
Fix,FLP,37.7966794,-122.4053008,-19.600000381469727,1.47629e-11,5.051,,1677455579700,0.022649026,,890380920647000,1.4835006,Car
Fix,GPS,37.7966793731,-122.405300814,-4.513908211106292,0.0,4.881238,350.45004,1677455580000,0.021092348,180.0,890381920661000,3.0,Car
Fix,FLP,37.7966794,-122.4053008,-19.600000381469727,7.2423e-12,4.929,,1677455580700,0.021092348,,890381920661000,1.4907517,Car
Fix,GPS,37.7966793731,-122.405300814,-4.258654543565037,0.0,4.451304,350.45004,1677455581000,0.020541111,180.0,890382920683000,3.0,Car
Fix,FLP,37.7966794,-122.4053008,-19.600000381469727,3.4135e-12,4.876,,1677455581700,0.020541111,,890382920683000,1.5123136,Car
Fix,NLP,37.7966729,-122.4052089,-19.600000381469727,,14.777,,1677455581749,,,890382969000000,1.0,Car
Fix,GPS,37.7966793731,-122.405300814,-4.011434771563027,0.0,4.881559,350.45004,1677455582000,0.020902053,180.0,890383920704000,3.0,Car
Fix,FLP,37.7966794,-122.4053008,-19.600000381469727,1.260455e-10,4.758,,1677455582700,0.020902053,,890383920704000,1.3647038,Car
Fix,GPS,37.7966793731,-122.405300814,-3.826553194083519,0.0,4.9628844,350.45004,1677455583000,0.020966752,180.0,890384920857000,3.0,Car
Fix,FLP,37.7966794,-122.4053008,-19.600000381469727,9.171e-13,4.81,,1677455583700,0.020966752,,890384920857000,1.3065337,Car
Fix,GPS,37.7966793731,-122.405300814,-3.721878827154273,0.0,4.962947,350.45004,1677455584000,0.02090987,180.0,890385920735000,3.0,Car
Fix,FLP,37.7966794,-122.4053008,-19.600000381469727,4.606e-13,4.869,,1677455584700,0.02090987,,890385920735000,1.3634887,Car
Fix,GPS,37.7966793731,-122.405300814,-3.696135368326629,0.0,4.9630094,350.45004,1677455585000,0.02244827,180.0,890386920749000,3.0,Car
Fix,FLP,37.7966794,-122.4053008,-19.600000381469727,2.919e-13,4.883,,1677455585700,0.02244827,,890386920749000,1.3650534,Car
Fix,GPS,37.7966793731,-122.405300814,-3.693685932117961,0.0,5.228117,350.45004,1677455586000,0.022844356,180.0,890387920765000,3.0,Car
Fix,FLP,37.7966794,-122.4053008,-19.600000381469727,1.282e-13,5.005,,1677455586699,0.022844356,,890387920765000,1.374609,Car
Fix,FLP,37.7966794,-122.4053008,-19.700000762939453,9.7342e-12,5.183,,1677455586785,0.022844356,,890388005000000,1.2960498,Car
Fix,NLP,37.7965825,-122.4051934,-19.700000762939453,,15.469,,1677455586785,,,890388005000000,1.0,Car
Fix,GPS,37.7966793731,-122.405300814,-3.603036517260529,0.0,5.03627,350.45004,1677455587000,0.023777481,180.0,890388920770000,3.0,Car
Fix,FLP,37.7966794,-122.4053008,-19.700000762939453,9.1417e-12,5.205,,1677455587700,0.023777481,,890388920770000,1.3071692,Car
Fix,GPS,37.7966793731,-122.405300814,-3.5174991809329947,0.0,4.4522176,350.45004,1677455588000,0.023228286,180.0,890389920812000,3.0,Car
Fix,FLP,37.7966794,-122.4053008,-19.700000762939453,5.27e-14,5.111,,1677455588700,0.023228286,,890389920812000,1.3091972,Car
Fix,GPS,37.7966793731,-122.405300814,-3.5011701502190613,0.0,4.4523487,350.45004,1677455589000,0.023168089,180.0,890390920782000,3.0,Car
Fix,FLP,37.7966794,-122.4053008,-19.700000762939453,2.35e-14,5.059,,1677455589700,0.023168089,,890390920782000,1.3172357,Car
Fix,GPS,37.7967226874,-122.4053213701,-3.3937735555262813,0.0,4.4524803,350.45004,1677455590000,0.025752762,32.263657,890391920823000,3.0,Car
Fix,FLP,37.7966988,-122.40531,-19.700000762939453,1.0240335e-07,4.986,,1677455590700,0.025752762,,890391920823000,1.3281417,Car
Fix,NLP,37.7965858,-122.4052503,-19.80000114440918,,14.787,,1677455590720,,,890391941000000,1.0,Car
Fix,GPS,37.7967226874,-122.4053213701,-3.3293935355346505,0.0,4.452611,350.45004,1677455591000,0.026403237,180.0,890392920820000,3.0,Car
Fix,FLP,37.7967153,-122.4053179,-19.80000114440918,4.1078493e-08,4.791,,1677455591700,0.026403237,,890392920820000,1.2734119,Car
Fix,GPS,37.7967226874,-122.4053213701,-3.354708636980582,0.0,4.4527426,350.45004,1677455592000,0.027634816,180.0,890393920841000,3.0,Car
Fix,FLP,37.7967184,-122.4053194,-19.80000114440918,2.7231152e-08,4.489,,1677455592700,0.027634816,,890393920841000,1.2832779,Car
Fix,GPS,37.7967226874,-122.4053213701,-3.292636978853806,0.0,4.963514,350.45004,1677455593000,0.3755948,51.27775,890394920846000,3.0,Car
Fix,FLP,37.796721,-122.4053206,-19.80000114440918,1.7421569e-06,4.549,,1677455593700,0.3755948,,890394920846000,1.2944281,Car
Fix,GPS,37.7967226874,-122.4053213701,-3.243513146024556,0.0,5.6807833,350.45004,1677455594000,0.37872988,20.514307,890395920865000,3.0,Car
Fix,FLP,37.7967216,-122.4053209,-19.80000114440918,0.00012297161,4.702,,1677455594700,0.37872988,,890395920865000,1.3047881,Car
Fix,GPS,37.7967226874,-122.4053213701,-3.2435510876388407,0.0,5.036969,350.45004,1677455595000,0.034012303,33.307686,890396920885000,3.0,Car
Fix,FLP,37.7967221,-122.4053211,-19.80000114440918,1.0910252e-06,4.775,,1677455595700,0.034012303,,890396920885000,1.3144181,Car
Fix,NLP,37.7966355,-122.4052108,-19.700000762939453,,12.51,,1677455595747,,,890396967000000,1.0,Car
Fix,GPS,37.7967226874,-122.4053213701,-3.195675043654453,0.0,5.037057,350.45004,1677455596000,0.41933244,74.99481,890397920906000,3.0,Car
Fix,FLP,37.7967225,-122.4053213,-19.700000762939453,2.2184362e-05,5.112,,1677455596700,0.41933244,,890397920906000,1.3360653,Car
Fix,GPS,37.7967226874,-122.4053213701,-3.131845867187933,0.0,4.348676,350.45004,1677455597000,0.087346554,180.0,890398920933000,3.0,Car
Fix,FLP,37.7967226,-122.4053213,-19.700000762939453,1.4635942e-06,5.099,,1677455597700,0.087346554,,890398920933000,1.1949865,Car
Fix,GPS,37.7967226874,-122.4053213701,-3.135172351826545,0.0,4.7875853,350.45004,1677455598000,0.10154469,180.0,890399920913000,3.0,Car
Fix,FLP,37.7967226,-122.4053214,-19.700000762939453,8.15506e-08,5.166,,1677455598700,0.10154469,,890399920913000,1.2070028,Car
