Fix,Provider,LatitudeDegrees,LongitudeDegrees,AltitudeMeters,SpeedMps,AccuracyMeters,BearingDegrees,UnixTimeMillis,SpeedAccuracyMps,BearingAccuracyDegrees,elapsedRealtimeNanos,VerticalAccuracyMeters,TransitType
Fix,GPS,37.3885988723,-122.0858099536,6.718000948124399,0.0,79.95605,,1677859494715,1.2823938,,1294302319631919,101.55172,Car
Fix,FLP,37.3886648,-122.0856868,-2.799999713897705,1.1016295,79.956,334.0197,1677859496181,1.2823938,,1294302319631919,1.0635866,Car
Fix,NLP,37.3885159,-122.0857181,-2.6999998092651367,,13.245,,1677859495981,,,1294302119000000,1.0,Car
Fix,GPS,37.388555206,-122.0857323901,-4.347071939547254,4.4708962,35.54068,211.77545,1677859495260,0.9306723,180.0,1294303378039268,31.848965,Car
Fix,FLP,37.3885884,-122.0857357,-2.6999998092651367,1.1479546,68.852,239.21042,1677859497240,0.9306723,180.0,1294303378039268,1.0035516,Car
Fix,GPS,37.3884905466,-122.0858299149,-1.270047471243727,5.654284,12.305277,214.96254,1677859496254,0.73370254,180.0,1294304431513023,18.188244,Car
Fix,FLP,37.3885048,-122.0858168,-0.0204810106323023,2.4879222,57.542,225.39697,1677859498293,0.73370254,180.0,1294304431513023,1.013575,Car
Fix,GPS,37.3884318788,-122.0858597902,-4.091106217628317,6.016097,11.876734,213.70143,1677859497254,0.35345346,10.0,1294305392435875,14.146785,Car
Fix,FLP,37.3884354,-122.0858622,-2.6999998092651367,5.749376,49.931,212.68607,1677859499254,0.35345346,10.0,1294305392435875,1.0183101,Car
Fix,GPS,37.3883952426,-122.0858762678,-7.270469734169793,5.846759,9.705754,213.7347,1677859498254,0.42975605,10.0,1294306391788618,11.735534,Car
Fix,FLP,37.3883932,-122.085888,-2.6999998092651367,5.8096333,44.185,212.77342,1677859500253,0.42975605,10.0,1294306391788618,1.0317882,Car
Fix,FLP,37.3883631,-122.0859055,-2.6999998092651367,5.848478,33.989,211.5809,1677859501003,0.36936915,10.0,1294307140662967,1.0388082,Car
Fix,NLP,37.3882933,-122.0857882,-1.8000000715255735,,12.979,,1677859501123,,,1294307261000000,1.0,Car
Fix,FLP,37.38836,-122.0859058,-1.8000000715255735,5.844115,31.009,211.5445,1677859501123,0.36936915,10.0,1294307261000000,0.9866947,Car
Fix,GPS,37.3883250439,-122.0859293395,-7.311777032613278,5.893787,7.9502,209.85796,1677859499999,0.36543125,10.0,1294308147409835,9.379857,Car
Fix,FLP,37.3883216,-122.0859335,-1.8000000715255735,5.8925676,22.009,209.86024,1677859502010,0.36543125,10.0,1294308147409835,0.9902596,Car
Fix,GPS,37.3882792238,-122.0859577376,-6.9996252275956605,5.648193,6.880959,210.32477,1677859500999,0.2946999,10.0,1294309099007125,8.415599,Car
Fix,FLP,37.3882787,-122.0859619,-1.8000000715255735,5.710393,9.636,210.06464,1677859502961,0.2946999,10.0,1294309099007125,0.99997383,Car
Fix,GPS,37.3882343796,-122.0859849725,-6.995136420430648,5.519732,6.2980347,211.0208,1677859501999,0.5025941,10.0,1294310049507000,7.7989583,Car
Fix,FLP,37.3882358,-122.0859894,-1.8000000715255735,5.576249,8.778,210.67282,1677859503911,0.5025941,10.0,1294310049507000,1.0119754,Car
Fix,GPS,37.3881983048,-122.0860100735,-6.888519724851182,3.7368112,5.9722323,212.82538,1677859502999,0.3914377,10.0,1294311049279000,7.3386316,Car
Fix,FLP,37.3881973,-122.0860146,-1.8000000715255735,4.074098,7.935,212.1014,1677859504911,0.3914377,10.0,1294311049279000,1.0215225,Car
Fix,GPS,37.3881750519,-122.08603275,-6.685518388916227,2.747141,5.8605814,210.95578,1677859503999,0.37227562,10.0,1294312049547000,7.096914,Car
Fix,FLP,37.388171,-122.086035,-1.8000000715255735,2.9416738,7.385,210.69646,1677859505911,0.37227562,10.0,1294312049547000,1.0320125,Car
Fix,GPS,37.3881589076,-122.0860491813,-6.070004257322436,2.5206096,6.3396792,214.866,1677859504999,0.36951366,10.0,1294313049291000,6.853508,Car
Fix,FLP,37.3881526,-122.0860509,-1.8000000715255735,2.5796492,6.55,213.49036,1677859506911,0.36951366,10.0,1294313049291000,1.0415125,Car
Fix,GPS,37.388143132,-122.0860664604,-5.429224277515164,2.7075849,5.5698395,221.72725,1677859505999,0.35784775,10.0,1294314049318000,6.587581,Car
Fix,FLP,37.3881376,-122.0860671,-1.8000000715255735,2.6822975,6.153,219.85495,1677859507911,0.35784775,10.0,1294314049318000,1.0519224,Car
Fix,GPS,37.3881264957,-122.0860913161,-5.181397189901654,3.0357683,6.159541,235.56361,1677859506999,0.38303775,10.0,1294315049331000,6.4220576,Car
Fix,FLP,37.3881221,-122.0860892,-1.8000000715255735,2.9693115,6.033,232.5746,1677859508912,0.38303775,10.0,1294315049331000,1.0620425,Car
Fix,GPS,37.3881141412,-122.0861265806,-4.810940722916219,3.8546553,5.8305387,254.75734,1677859507999,0.34012923,10.0,1294316049660000,6.3681417,Car
Fix,FLP,37.3881099,-122.0861218,-1.8000000715255735,3.7584128,5.952,249.99905,1677859509911,0.34012923,10.0,1294316049660000,1.0720124,Car
Fix,GPS,37.38811036,-122.0861815702,-5.4954936345423055,4.6681204,5.4639297,282.41855,1677859508999,0.30111772,10.0,1294317049614000,6.1372027,Car
Fix,FLP,37.3881059,-122.0861713,-1.8000000715255735,4.453525,5.873,271.8173,1677859510911,0.30111772,10.0,1294317049614000,1.0810225,Car
Fix,NLP,37.3881331,-122.0862941,-1.399999976158142,,15.663,,1677859511009,,,1294317147000000,1.0,Car
Fix,FLP,37.388107,-122.0861775,-1.399999976158142,4.4539256,6.015,271.84326,1677859511009,0.30111772,10.0,1294317147000000,0.97642446,Car
Fix,GPS,37.3881230877,-122.0862396366,-5.854472347834398,5.007592,5.691456,293.44315,1677859509999,0.36376604,10.0,1294318049500000,6.0881543,Car
Fix,FLP,37.3881167,-122.0862294,-1.399999976158142,4.764856,5.907,286.0277,1677859511911,0.36376604,10.0,1294318049500000,0.98579365,Car
Fix,GPS,37.3881407567,-122.0862981177,-6.001354308216694,5.139117,5.3919263,299.23264,1677859510999,0.40988562,10.0,1294319049428000,5.880058,Car
Fix,FLP,37.3881356,-122.0862884,-1.399999976158142,4.978517,5.878,294.8097,1677859512911,0.40988562,10.0,1294319049428000,0.9954001,Car
Fix,GPS,37.3881678258,-122.0863479741,-5.299094951653643,5.176947,5.2327027,303.01312,1677859511999,0.048368257,10.0,1294320049458000,5.6044927,Car
Fix,FLP,37.3881616,-122.0863431,-1.399999976158142,5.0888295,5.723,300.659,1677859513911,0.048368257,10.0,1294320049458000,1.0052248,Car
Fix,GPS,37.388195625,-122.0864049472,-4.663260426197535,5.1887918,4.788015,301.50058,1677859512999,0.03577411,10.0,1294321049488000,5.1868815,Car
Fix,FLP,37.3881901,-122.0863984,-1.399999976158142,5.170931,5.589,300.89795,1677859514911,0.03577411,10.0,1294321049488000,1.0142268,Car
Fix,GPS,37.3882218494,-122.086457784,-4.289544934911172,4.666544,4.747481,296.48227,1677859513999,0.31875876,10.0,1294322049450000,5.024345,Car
Fix,FLP,37.3882168,-122.0864526,-1.399999976158142,4.7977867,5.435,297.9323,1677859515912,0.31875876,10.0,1294322049450000,1.0252569,Car
Fix,GPS,37.3882386716,-122.0865110915,-3.6325270827657024,4.208497,4.692278,278.37616,1677859514999,0.33224154,10.0,1294323049553000,4.822782,Car
Fix,FLP,37.3882357,-122.0865053,-1.399999976158142,4.321089,4.97,284.87253,1677859516911,0.33224154,10.0,1294323049553000,1.0342169,Car
Fix,GPS,37.3882450315,-122.0865607306,-3.430426519418372,3.915185,4.6668024,269.9446,1677859515999,0.40424526,10.0,1294324049439000,4.69122,Car
Fix,FLP,37.3882438,-122.0865561,-1.399999976158142,3.964914,4.825,273.93158,1677859517912,0.40424526,10.0,1294324049439000,1.0442169,Car
Fix,GPS,37.3882363125,-122.0866018728,-3.208464864602211,3.7784352,4.6368275,238.96263,1677859516999,0.3983136,10.0,1294325049507000,4.596029,Car
Fix,FLP,37.3882387,-122.0866008,-1.399999976158142,3.6588664,4.706,246.5505,1677859518911,0.3983136,10.0,1294325049507000,1.0552368,Car
Fix,GPS,37.3881956216,-122.086628954,-2.52239497993036,4.808183,4.3157406,211.62997,1677859517999,0.04406387,10.0,1294326049849000,4.373546,Car
Fix,FLP,37.3882171,-122.0866243,-1.399999976158142,4.422078,4.619,222.5779,1677859519911,0.04406387,10.0,1294326049849000,1.0642269,Car
Fix,GPS,37.3881559578,-122.0866574895,-2.275835511866278,5.0527825,4.376757,208.18887,1677859518999,0.37925372,3.68391,1294327049521000,4.30665,Car
Fix,FLP,37.3881744,-122.0866572,-1.399999976158142,4.950099,4.566,209.51526,1677859520911,0.37925372,3.68391,1294327049521000,1.0742269,Car
Fix,GPS,37.388103715,-122.0866867953,-2.236929956045332,6.2404575,4.1786427,205.22673,1677859519999,0.033744954,1.0,1294328049552000,4.2034087,Car
Fix,FLP,37.3881207,-122.0866859,-1.399999976158142,6.235517,4.517,204.9991,1677859521911,0.033744954,1.0,1294328049552000,1.0853168,Car
Fix,GPS,37.388046878,-122.0867226194,-2.068445346974772,7.051266,4.0979605,205.72755,1677859520999,0.02995326,1.0,1294329049580000,4.115509,Car
Fix,FLP,37.3880596,-122.0867188,-1.399999976158142,7.0461287,4.411,204.97166,1677859522911,0.02995326,1.0,1294329049580000,1.0942469,Car
Fix,GPS,37.3879837971,-122.086759596,-1.9709055405630531,7.635066,4.0980744,205.80995,1677859521999,0.053357802,1.0,1294330050247000,4.0189,Car
Fix,FLP,37.3879939,-122.0867557,-1.399999976158142,7.629795,4.334,204.98009,1677859523913,0.053357802,1.0,1294330050247000,1.1052068,Car
Fix,GPS,37.3879185288,-122.0867988994,-1.8860477561605284,7.9496937,3.9656498,206.4353,1677859522999,0.02714081,1.0,1294331049607000,3.901873,Car
Fix,FLP,37.3879258,-122.0867952,-1.399999976158142,7.946398,4.172,205.97142,1677859524912,0.02714081,1.0,1294331049607000,1.1152468,Car
Fix,GPS,37.3878527014,-122.0868349517,-1.656105986163814,7.97996,3.965766,205.61487,1677859523999,0.022451272,1.0,1294332049920000,3.7885747,Car
Fix,FLP,37.3878575,-122.0868348,-1.399999976158142,7.9804564,4.061,205.0149,1677859525911,0.022451272,1.0,1294332049920000,1.1252568,Car
Fix,GPS,37.3877857565,-122.0868748479,-1.381808149352535,8.008483,3.965882,205.38197,1677859524999,0.02200451,1.0,1294333049945000,3.6847696,Car
Fix,FLP,37.3877895,-122.0868738,-1.399999976158142,8.008286,4.018,204.99913,1677859526912,0.02200451,1.0,1294333049945000,1.1352868,Car
Fix,GPS,37.3877218864,-122.0869143651,-1.2716996297737224,7.73499,4.202006,206.58954,1677859525999,0.025293356,1.0,1294334049962000,3.5995488,Car
Fix,FLP,37.3877232,-122.0869132,-1.399999976158142,7.7363214,4.039,205.99425,1677859527911,0.025293356,1.0,1294334049962000,1.1452368,Car
Fix,GPS,37.3876631231,-122.0869525873,-1.3059030825082116,7.248353,4.0986443,207.14427,1677859526999,0.020583086,1.0,1294335049699000,3.5156503,Car
Fix,FLP,37.3876622,-122.0869522,-1.399999976158142,7.248458,4.049,207.00012,1677859528912,0.020583086,1.0,1294335049699000,1.1542069,Car
Fix,GPS,37.3876135285,-122.086987432,-1.1955004245857457,6.2343197,4.098758,209.0605,1677859527999,0.02703417,1.0,1294336049604000,3.4473112,Car
Fix,FLP,37.3876105,-122.0869881,-1.399999976158142,6.2345185,4.049,209.00023,1677859529911,0.02703417,1.0,1294336049604000,1.1652168,Car
Fix,GPS,37.3875638762,-122.0870226328,-0.9354702466222328,4.9800467,4.0201564,213.93895,1677859528999,0.41974145,4.474587,1294337049843000,3.559504,Car
Fix,FLP,37.3875631,-122.0870225,-1.399999976158142,4.989941,4.058,212.95837,1677859530911,0.41974145,4.474587,1294337049843000,1.1742269,Car
Fix,GPS,37.3875444475,-122.0870472379,-0.9412835051773016,2.9594612,4.098986,221.9082,1677859529999,0.026216818,1.0,1294338049857000,3.4526057,Car
Fix,FLP,37.3875384,-122.0870491,-1.399999976158142,2.9596128,4.08,220.99916,1677859531911,0.026216818,1.0,1294338049857000,1.1842368,Car
Fix,GPS,37.3875353088,-122.0870604401,-0.8958478202341947,1.5707979,4.099099,225.91194,1677859530999,0.02617212,1.0,1294339049739000,3.3266864,Car
Fix,FLP,37.3875298,-122.0870638,-1.399999976158142,1.5708456,4.103,224.99974,1677859532911,0.02617212,1.0,1294339049739000,1.1985825,Car
Fix,GPS,37.3875272745,-122.0870717968,-0.8835728160896215,0.47762465,4.314727,225.91194,1677859531999,0.29202887,11.017179,1294340049665000,3.3715487,Car
Fix,FLP,37.3875249,-122.0870733,-1.399999976158142,0.48008272,4.121,225.0,1677859533911,0.29202887,11.017179,1294340049665000,1.2042068,Car
Fix,GPS,37.3875266029,-122.0870731764,-0.722974881346587,0.0,4.8130007,225.91194,1677859532999,0.2652724,59.068356,1294341049849000,3.4573934,Car
Fix,FLP,37.3875251,-122.0870745,-1.399999976158142,0.00080759305,4.269,,1677859534912,0.2652724,,1294341049849000,1.2142369,Car
Fix,GPS,37.3875266029,-122.0870731764,-0.9585251057429662,0.0,4.5992785,225.91194,1677859533999,0.27104232,155.38654,1294342049760000,3.4430845,Car
Fix,FLP,37.3875261,-122.0870736,-1.399999976158142,1.0628333e-06,4.324,,1677859535912,0.27104232,,1294342049760000,1.2242268,Car
Fix,NLP,37.3876376,-122.0869244,-0.8000000715255737,,22.792,,1677859536903,,,1294343041000000,1.0,Car
Fix,GPS,37.3875257514,-122.0870724011,-0.8444776496657665,0.40689597,4.3921347,225.91194,1677859534999,0.26161918,174.1774,1294343049804000,3.4233465,Car
Fix,FLP,37.3875262,-122.0870735,-0.8000000715255737,1.413493e-05,6.568,,1677859536903,0.27104232,,1294343041000000,0.9682486,Car
Fix,GPS,37.3875276367,-122.0870705635,-0.7198557296174153,0.0,4.769451,225.91194,1677859535999,0.26892126,150.97234,1294344049945000,3.5324001,Car
Fix,FLP,37.3875263,-122.0870723,-0.8000000715255737,0.00063163834,6.728,,1677859537911,0.26892126,,1294344049945000,0.9782996,Car
Fix,GPS,37.3875276367,-122.0870705635,-0.9133159451918308,0.0,4.5478325,225.91194,1677859536999,0.2750676,180.0,1294345049852000,3.4766133,Car
Fix,FLP,37.3875272,-122.0870711,-0.8000000715255737,7.4437435e-07,6.767,,1677859538911,0.2750676,,1294345049852000,0.9882754,Car
Fix,GPS,37.3875276367,-122.0870705635,-0.7975802723133637,0.0,4.2951956,225.91194,1677859537999,0.28530514,71.66607,1294346049783000,3.4002907,Car
Fix,FLP,37.3875275,-122.0870708,-0.8000000715255737,1.4199283e-07,6.414,,1677859539912,0.28530514,,1294346049783000,1.004654,Car
Fix,GPS,37.3875276367,-122.0870705635,-0.6517505033153435,0.0,4.11445,225.91194,1677859538999,0.28224802,180.0,1294347049824000,3.3194125,Car
Fix,FLP,37.3875276,-122.0870707,-0.8000000715255737,4.8794295e-08,6.6,,1677859540911,0.28224802,,1294347049824000,1.014697,Car
Fix,GPS,37.3875276367,-122.0870705635,-0.5166857502776987,0.0,4.100121,225.91194,1677859539999,0.28186443,180.0,1294348050040000,3.2573013,Car
Fix,FLP,37.3875276,-122.0870706,-0.8000000715255737,1.5314724e-08,4.365,,1677859541912,0.28186443,,1294348050040000,1.0236238,Car
Fix,NLP,37.3876296,-122.0869614,-0.8000000715255737,,26.238,,1677859541965,,,1294348102000000,1.0,Car
Fix,GPS,37.3875276367,-122.0870705635,-0.3388869908239905,0.0,4.1002345,225.91194,1677859540999,0.29074824,74.11446,1294349049879000,3.1910367,Car
Fix,FLP,37.3875276,-122.0870706,-0.8000000715255737,8.645655e-08,4.385,,1677859542911,0.29074824,,1294349049879000,0.9719323,Car
Fix,GPS,37.3875276367,-122.0870705635,-0.2737549544690298,0.0,4.1003485,225.91194,1677859541999,0.2914702,16.415886,1294350049852000,3.1515207,Car
Fix,FLP,37.3875276,-122.0870706,-0.8000000715255737,1.3060937e-09,4.29,,1677859543911,0.2914702,,1294350049852000,0.98185825,Car
Fix,GPS,37.3875272496,-122.087081439,-0.2413310855643892,2.1394613,3.9679694,265.31268,1677859542999,0.4447432,10.243629,1294351049868000,3.1460478,Car
Fix,FLP,37.3875273,-122.0870779,-0.8000000715255737,2.119432,4.192,264.988,1677859544912,0.4447432,10.243629,1294351049868000,0.99189496,Car
Fix,GPS,37.3875236299,-122.0871407837,0.2435683326824553,4.0024314,4.4077435,265.5313,1677859543999,0.4730523,5.9602137,1294352050145000,3.3136427,Car
Fix,FLP,37.3875243,-122.0871284,-0.8000000715255737,3.9828446,4.241,264.9947,1677859545912,0.4730523,5.9602137,1294352050145000,1.001905,Car
Fix,GPS,37.3875232601,-122.0872122421,0.1292721423288189,4.9059906,4.8597827,276.63593,1677859544999,0.46077153,5.227148,1294353049931000,3.4793606,Car
Fix,FLP,37.3875226,-122.0871998,-0.8000000715255737,4.896302,4.33,275.91617,1677859546912,0.46077153,5.227148,1294353049931000,1.0136005,Car
Fix,NLP,37.3873526,-122.087156,-0.8000000715255737,,25.512,,1677859546952,,,1294353090000000,1.0,Car
Fix,GPS,37.3875350943,-122.0873053681,-0.2373916409162635,6.973572,5.050023,293.9466,1677859545999,0.50329185,4.321066,1294354049911000,3.7139387,Car
Fix,FLP,37.3875327,-122.0872895,-0.8000000715255737,6.9467607,4.627,292.84125,1677859547911,0.50329185,4.321066,1294354049911000,0.969477,Car
Fix,GPS,37.387576007,-122.0874069819,-0.5167870363100162,8.657114,5.153313,297.5811,1677859546999,0.4668164,3.2259257,1294355049930000,3.9762058,Car
Fix,FLP,37.3875697,-122.087392,-0.8000000715255737,8.639133,4.803,296.96143,1677859548911,0.4668164,3.2259257,1294355049930000,0.9838712,Car
Fix,GPS,37.3876268507,-122.0875160361,-0.4583188691249615,10.242147,5.310761,299.46683,1677859547999,0.47117203,2.703494,1294356049970000,4.263226,Car
Fix,FLP,37.3876194,-122.0875034,-0.8000000715255737,10.225253,5.027,298.98062,1677859549912,0.47117203,2.703494,1294356049970000,0.99387616,Car
Fix,GPS,37.387685344,-122.0876324957,-0.8696620389004989,11.253198,5.36776,301.05664,1677859548999,0.45868573,2.362912,1294357049958000,4.5408654,Car
Fix,FLP,37.387678,-122.087623,-0.8000000715255737,11.24304,5.075,300.98157,1677859550912,0.45868573,2.362912,1294357049958000,1.0038762,Car
Fix,GPS,37.3877474776,-122.0877536963,-1.1781427533341728,11.809205,5.3932295,301.0526,1677859549999,0.45871112,2.245532,1294358049974000,4.7741594,Car
Fix,FLP,37.3877415,-122.0877463,-0.8000000715255737,11.8037,5.275,300.9999,1677859551911,0.45871112,2.245532,1294358049974000,1.0138961,Car
Fix,NLP,37.3878011,-122.0876454,-0.8999999761581421,,28.869,,1677859551947,,,1294358085000000,1.0,Car
Fix,GPS,37.3878122934,-122.0878790352,-1.0292748258702693,12.267989,5.3323426,300.90448,1677859550999,0.45139456,2.1251965,1294359050028000,4.961767,Car
Fix,FLP,37.387807,-122.0878729,-0.8999999761581421,12.264031,5.4,300.0101,1677859552912,0.45139456,2.1251965,1294359050028000,0.96714914,Car
Fix,GPS,37.3878759561,-122.088004672,-1.164889015044419,12.732498,5.3814335,301.39337,1677859551999,0.4594118,2.0884948,1294360050049000,5.132685,Car
Fix,FLP,37.3878712,-122.0880007,-0.8999999761581421,12.727866,5.438,300.9905,1677859553912,0.4594118,2.0884948,1294360050049000,0.9771472,Car
Fix,GPS,37.3879429349,-122.0881347822,-0.9900792812968018,13.594046,5.436167,301.5767,1677859552999,0.44953007,1.9059488,1294361050344000,5.246273,Car
Fix,FLP,37.3879385,-122.0881312,-0.8999999761581421,13.585838,5.459,301.0,1677859554913,0.44953007,1.9059488,1294361050344000,0.9871175,Car
Fix,GPS,37.3880114556,-122.0882717118,-1.1029331388600312,13.980495,5.526868,302.07535,1677859553999,0.42375523,1.7312703,1294362050109000,5.3169594,Car
Fix,FLP,37.3880079,-122.0882686,-0.8999999761581421,13.977198,5.486,301.9919,1677859555912,0.42375523,1.7312703,1294362050109000,0.99712205,Car
Fix,GPS,37.3880830338,-122.0884110314,-1.2252655434137791,14.229763,5.4657364,302.35184,1677859554999,0.42573038,1.7178242,1294363050283000,5.3592377,Car
Fix,FLP,37.3880801,-122.0884082,-0.8999999761581421,14.22764,5.498,302.0,1677859556913,0.42573038,1.7178242,1294363050283000,1.007112,Car
Fix,GPS,37.3881552963,-122.08855134,-1.4077012932829571,14.213576,5.416544,301.79694,1677859555999,0.43598998,1.7732333,1294364050107000,5.369664,Car
Fix,FLP,37.3881527,-122.0885491,-0.8999999761581421,14.213733,5.445,301.00916,1677859557912,0.43598998,1.7732333,1294364050107000,1.017112,Car
Fix,GPS,37.3882235249,-122.0886928452,-1.7085442000562718,14.441097,5.4205966,300.17273,1677859556999,0.43708107,1.7565029,1294365050421000,5.4406824,Car
Fix,FLP,37.3882218,-122.0886908,-0.8999999761581421,14.439053,5.453,300.0091,1677859558912,0.43708107,1.7565029,1294365050421000,1.027112,Car
Fix,GPS,37.3882897957,-122.0888342809,-1.9941861776158183,14.653796,5.481122,299.14948,1677859557999,0.44523194,1.7812506,1294366050134000,5.4908123,Car
Fix,FLP,37.3882887,-122.0888336,-0.8999999761581421,14.651772,5.458,299.00955,1677859559912,0.44523194,1.7812506,1294366050134000,1.037122,Car
Fix,GPS,37.3883548437,-122.0889786828,-2.1045572201152543,14.678586,5.424512,299.03766,1677859558999,0.43492153,1.7254992,1294367050138000,5.4684744,Car
Fix,FLP,37.3883541,-122.0889787,-0.8999999761581421,14.6783495,5.442,299.00012,1677859560912,0.43492153,1.7254992,1294367050138000,1.043022,Car
Fix,GPS,37.3884196662,-122.0891233924,-2.1281658595006565,14.856719,5.482568,299.4808,1677859559999,0.4503978,1.7351657,1294368050531000,5.496394,Car
Fix,FLP,37.3884192,-122.0891237,-0.8999999761581421,14.855014,5.445,299.00003,1677859561912,0.4503978,1.7351657,1294368050531000,1.053022,Car
Fix,GPS,37.3884864287,-122.0892708036,-2.2679960129811567,15.194439,5.5858927,299.8006,1677859560999,0.4323654,1.6362126,1294369050143000,5.5101247,Car
Fix,FLP,37.3884855,-122.0892708,-0.8999999761581421,15.191441,5.479,299.00003,1677859562912,0.4323654,1.6362126,1294369050143000,1.0630221,Car
Fix,GPS,37.3885581789,-122.0894230317,-2.2761927783721183,15.77204,5.7419896,299.8925,1677859561999,0.43411174,1.5908844,1294370050122000,5.536337,Car
Fix,FLP,37.3885558,-122.0894224,-0.8999999761581421,15.766859,5.523,299.0,1677859563912,0.43411174,1.5908844,1294370050122000,1.0730221,Car
Fix,GPS,37.3886343771,-122.0895794607,-2.498670253711106,16.289282,5.839736,300.30814,1677859562999,0.43502367,1.5436331,1294371050337000,5.5338955,Car
Fix,FLP,37.3886308,-122.0895792,-0.8999999761581421,16.284578,5.615,299.99133,1677859564913,0.43502367,1.5436331,1294371050337000,1.0881068,Car
Fix,GPS,37.3887155596,-122.0897410762,-2.925718813171328,16.520313,5.6666183,302.0194,1677859563999,0.45259097,1.5521723,1294372050451000,5.5760303,Car
Fix,FLP,37.3887115,-122.0897403,-0.8999999761581421,16.518023,5.663,301.9813,1677859565912,0.45259097,1.5521723,1294372050451000,1.0981067,Car
Fix,GPS,37.3888016769,-122.0899056806,-2.564184397838486,16.856287,5.464427,302.10272,1677859564999,0.4449166,1.5229218,1294373050180000,5.6366353,Car
Fix,FLP,37.3887977,-122.0899034,-0.8999999761581421,16.853167,5.63,301.99994,1677859566912,0.4449166,1.5229218,1294373050180000,1.1081067,Car
Fix,GPS,37.3888872531,-122.0900764693,-1.78890378018523,16.988165,4.985399,301.61658,1677859565999,0.40722442,1.3975154,1294374050175000,5.5777135,Car
Fix,FLP,37.3888844,-122.090073,-0.8999999761581421,16.98715,5.539,301.00797,1677859567912,0.40722442,1.3975154,1294374050175000,1.1178168,Car
Fix,GPS,37.388971078,-122.0902455696,-1.278376279974516,17.219534,4.965107,301.4673,1677859566999,0.41544855,1.3953583,1294375050186000,5.5865917,Car
Fix,FLP,37.3889686,-122.0902432,2.9273664438424305,17.217663,5.384,301.0001,1677859568912,0.41544855,1.3953583,1294375050186000,1.1274167,Car
Fix,GPS,37.389054724,-122.0904185465,-0.9386376221306302,17.464357,4.9503217,300.6385,1677859567999,0.41495088,1.352904,1294376050209000,5.591527,Car
Fix,FLP,37.3890527,-122.0904159,4.796712300235878,17.46237,5.311,300.00803,1677859569912,0.41495088,1.352904,1294376050209000,1.1378168,Car
Fix,GPS,37.389137452,-122.0905938327,-0.7188025402886737,17.780512,5.0139313,300.41425,1677859568999,0.39496303,1.2789972,1294377050228000,5.605237,Car
Fix,FLP,37.3891355,-122.0905917,3.222819462201709,17.778185,5.174,300.0001,1677859570912,0.39496303,1.2789972,1294377050228000,1.1482267,Car
Fix,GPS,37.3892219797,-122.0907693091,-0.5249571273856936,17.709646,5.098082,300.95544,1677859569999,0.40664262,1.3248843,1294378050237000,5.61716,Car
Fix,FLP,37.3892199,-122.0907682,2.3146643169082566,17.710207,5.002,300.00006,1677859571912,0.40664262,1.3248843,1294378050237000,1.1578268,Car
Fix,GPS,37.3893060237,-122.0909440165,-0.56866431214383,17.928703,5.282885,301.3303,1677859570999,0.44581515,1.4127827,1294379050249000,5.701953,Car
Fix,FLP,37.3893038,-122.0909433,1.603538825580923,17.926672,5.062,300.9909,1677859572913,0.44581515,1.4127827,1294379050249000,1.1674168,Car
Fix,GPS,37.3893907991,-122.0911228249,-0.7106960078309917,17.92937,5.047762,301.3162,1677859571999,0.43595335,1.4060873,1294380050259000,5.622319,Car
Fix,FLP,37.3893895,-122.0911211,0.946270461838921,17.929379,5.078,300.99994,1677859573912,0.43595335,1.4060873,1294380050259000,1.1778167,Car
Fix,GPS,37.3894766431,-122.0912966503,-0.7362639993260288,17.722706,4.8717165,301.11044,1677859572999,0.4074723,1.324659,1294381050278000,5.541341,Car
Fix,FLP,37.3894753,-122.0912962,-0.8999999761581421,17.72435,5.063,301.00006,1677859574912,0.4074723,1.324659,1294381050278000,1.1874168,Car
Fix,GPS,37.3895621463,-122.0914661775,-0.7621684942341089,17.603601,4.863229,301.16196,1677859573999,0.39082778,1.2934415,1294382050297000,5.49439,Car
Fix,FLP,37.3895606,-122.0914669,-0.8999999761581421,17.60449,5.032,301.0001,1677859575913,0.39082778,1.2934415,1294382050297000,1.2032714,Car
Fix,GPS,37.3896436161,-122.0916354999,-0.7633457402509699,17.262306,4.663354,300.95224,1677859574999,0.3709035,1.2474521,1294383050308000,5.4068766,Car
Fix,FLP,37.3896431,-122.0916362,-0.8999999761581421,17.264553,4.945,300.00684,1677859576912,0.3709035,1.2474521,1294383050308000,1.21254,Car
Fix,GPS,37.3897232031,-122.0918014744,-0.9490801645092418,17.048023,4.564111,300.80417,1677859575999,0.36325148,1.2366043,1294384050326000,5.3213525,Car
Fix,FLP,37.3897224,-122.0918028,-0.8999999761581421,17.049389,4.802,300.0001,1677859577913,0.36325148,1.2366043,1294384050326000,1.22296,Car
Fix,GPS,37.3898021286,-122.0919646362,-1.1846172768484644,16.918747,4.4785085,301.12952,1677859576999,0.36111215,1.2379181,1294385050340000,5.2322173,Car
Fix,FLP,37.3898012,-122.0919663,-0.8999999761581421,16.919533,4.688,300.9937,1677859578912,0.36111215,1.2379181,1294385050340000,1.23255,Car
Fix,GPS,37.3898823845,-122.0921273909,-1.6195871015349923,16.809107,4.479153,301.12936,1677859577999,0.3589686,1.2404779,1294386050352000,5.1607857,Car
Fix,FLP,37.3898815,-122.0921284,-0.8999999761581421,16.809788,4.609,301.0,1677859579912,0.3589686,1.2404779,1294386050352000,1.24294,Car
Fix,GPS,37.3899600332,-122.092287735,-1.5605252168890325,16.291416,4.4698935,300.6809,1677859578999,0.34995282,1.2393422,1294387050360000,5.0859766,Car
Fix,FLP,37.3899598,-122.0922889,-0.8999999761581421,16.294434,4.531,300.0061,1677859580912,0.34995282,1.2393422,1294387050360000,1.25254,Car
Fix,GPS,37.3900321746,-122.0924404151,-1.46473856281258,15.092803,4.380531,301.10355,1677859579999,0.3501522,1.326947,1294388050384000,5.022233,Car
Fix,FLP,37.3900325,-122.0924431,-0.8999999761581421,15.099769,4.474,300.99377,1677859581912,0.3501522,1.326947,1294388050384000,1.26295,Car
Fix,GPS,37.3900992677,-122.092577968,-1.1979779052370014,13.842648,4.4229317,302.03287,1677859580999,0.37118778,1.5452857,1294389050498000,4.97847,Car
Fix,FLP,37.3901003,-122.0925817,-0.8999999761581421,13.850868,4.446,301.99286,1677859582913,0.37118778,1.5452857,1294389050498000,1.27255,Car
Fix,GPS,37.3901608946,-122.0927003387,-1.0757031090029272,12.621108,4.4944797,302.21747,1677859581999,0.36814302,1.6790491,1294390050417000,4.955865,Car
Fix,FLP,37.3901626,-122.0927049,-0.8999999761581421,12.629014,4.449,302.00003,1677859583912,0.36814302,1.6790491,1294390050417000,1.28294,Car
Fix,GPS,37.3902159815,-122.0928083775,-1.0369715179323846,11.280137,4.4845657,301.8248,1677859582999,0.3905942,1.9906298,1294391050429000,4.993673,Car
Fix,FLP,37.3902182,-122.0928141,-0.8999999761581421,11.289863,4.45,301.0082,1677859584912,0.3905942,1.9906298,1294391050429000,1.29254,Car
Fix,GPS,37.3902625767,-122.092901769,-1.1172159308110774,9.966645,4.5357237,303.4227,1677859583999,0.44990525,2.605458,1294392050434000,4.9877167,Car
Fix,FLP,37.3902651,-122.0929088,-0.8999999761581421,9.979223,4.463,302.97852,1677859585912,0.44990525,2.605458,1294392050434000,1.30295,Car
Fix,GPS,37.390302658,-122.092979789,-0.5669938050627576,8.587701,4.6918874,303.03906,1677859584999,0.47849777,3.1801436,1294393050446000,5.0059,Car
Fix,FLP,37.3903063,-122.0929874,-0.8999999761581421,8.60251,4.526,302.99963,1677859586912,0.47849777,3.1801436,1294393050446000,1.31254,Car
Fix,GPS,37.3903362943,-122.0930467995,-0.1490647639892492,7.8814244,4.8482323,303.6635,1677859585999,0.52731925,3.8036299,1294394050487000,5.1455426,Car
Fix,FLP,37.3903402,-122.0930539,-0.8999999761581421,7.8905754,4.579,302.99976,1677859587912,0.52731925,3.8036299,1294394050487000,1.32294,Car
Fix,GPS,37.3903530582,-122.09309548,-0.159542182172662,5.8186464,4.777972,301.33725,1677859586999,0.44831833,4.4123793,1294395050482000,5.1280513,Car
Fix,FLP,37.3903613,-122.0931061,-0.8999999761581421,5.8378763,4.667,301.0248,1677859588913,0.44831833,4.4123793,1294395050482000,1.33254,Car
Fix,GPS,37.390368559,-122.0931317847,0.2942940149960682,4.505448,4.848343,297.06885,1677859587999,0.4001108,4.8472557,1294396050500000,5.1344805,Car
Fix,FLP,37.3903749,-122.0931417,-0.8999999761581421,4.5149107,4.74,297.0338,1677859589912,0.4001108,4.8472557,1294396050500000,1.34294,Car
Fix,NLP,37.3903771,-122.0928183,-1.399999976158142,,19.156,,1677859589977,,,1294396115000000,1.2409178,Car
Fix,GPS,37.3903807562,-122.0931549289,-0.9202814814203576,3.8729992,4.7893295,297.42142,1677859588999,0.34394962,4.8786283,1294397050509000,5.107991,Car
Fix,FLP,37.3903841,-122.0931641,-1.399999976158142,3.8758805,4.94,296.99988,1677859590913,0.34394962,4.8786283,1294397050509000,1.0309912,Car
Fix,GPS,37.3903964679,-122.0931767737,-1.851294743405517,4.426156,4.80022,301.1024,1677859589999,0.34533313,4.3678923,1294398050524000,5.1590085,Car
Fix,FLP,37.3903976,-122.0931853,-1.399999976158142,4.423009,4.958,300.9813,1677859591913,0.34533313,4.3678923,1294398050524000,1.0428149,Car
Fix,GPS,37.3904185413,-122.0932140459,-1.8497691892104704,4.883333,5.170395,299.17358,1677859590999,0.47542414,5.2951965,1294399050583000,5.3369894,Car
Fix,FLP,37.3904135,-122.0932088,-1.399999976158142,4.8693056,4.958,299.05768,1677859592912,0.47542414,5.2951965,1294399050583000,1.0509621,Car
Fix,GPS,37.3904432394,-122.0932639945,-1.5701264173496583,5.5205507,5.5007625,298.98065,1677859591999,0.44520846,4.5790215,1294400050715000,5.4702945,Car
Fix,FLP,37.3904372,-122.0932548,-1.399999976158142,5.507787,5.062,298.01862,1677859593912,0.44520846,4.5790215,1294400050715000,1.0607244,Car
Fix,GPS,37.3904729755,-122.0933061012,-1.6764891641241555,6.155778,5.4943657,300.98004,1677859592999,0.4171492,3.8713772,1294401050595000,5.5736856,Car
Fix,FLP,37.3904684,-122.0933075,-1.399999976158142,6.1504526,5.134,299.98608,1677859594912,0.4171492,3.8713772,1294401050595000,1.0707444,Car
Fix,GPS,37.3905024315,-122.0933554685,-2.481985606515399,6.6626697,5.5810046,302.22165,1677859593999,0.41136596,3.5000007,1294402050641000,5.645938,Car
Fix,FLP,37.3905001,-122.09336,-1.399999976158142,6.6585603,5.164,301.9858,1677859595912,0.41136596,3.5000007,1294402050641000,1.0807344,Car
Fix,GPS,37.3905454183,-122.0934184331,-2.992038818189463,7.090855,5.5292816,302.3269,1677859594999,0.4016696,3.1584883,1294403050638000,5.633258,Car
Fix,FLP,37.3905386,-122.0934215,-1.399999976158142,7.029991,5.255,302.01343,1677859596912,0.4016696,3.1584883,1294403050638000,1.0897344,Car
Fix,NLP,37.3905485,-122.0933036,-1.5000001192092896,,18.323,,1677859596888,,,1294403026000000,2.8956382,Car
Fix,GPS,37.3905863456,-122.0934862813,-2.8158795888625785,7.3453894,5.4913654,304.58096,1677859595999,0.45377427,3.514261,1294404050694000,5.60134,Car
Fix,FLP,37.3905798,-122.0934886,-1.5000001192092896,7.2910757,5.47,303.64514,1677859597912,0.45377427,3.514261,1294404050694000,1.4927781,Car
Fix,GPS,37.3906305936,-122.0935532718,-3.0064070542894163,7.535311,5.5424376,306.06992,1677859596999,0.45103174,3.3688295,1294405050913000,5.613963,Car
Fix,FLP,37.3906224,-122.0935557,-1.5000001192092896,7.4932194,5.527,305.62125,1677859598912,0.45103174,3.3688295,1294405050913000,1.4401175,Car
Fix,GPS,37.390678393,-122.0936226043,-2.7133352628109804,7.6884856,5.614558,305.20288,1677859597999,0.47728023,3.3897047,1294406051016000,5.6467524,Car
Fix,FLP,37.3906686,-122.0936241,-1.5000001192092896,7.653204,5.547,305.13272,1677859599913,0.47728023,3.3897047,1294406051016000,1.4738513,Car
Fix,GPS,37.3907217087,-122.0936955037,-2.62878064016176,7.7792654,5.7477846,304.85336,1677859598999,0.46464494,3.371748,1294407050720000,5.653057,Car
Fix,FLP,37.3907136,-122.0936954,-1.5000001192092896,7.7574983,5.575,304.21445,1677859600912,0.46464494,3.371748,1294407050720000,1.4839613,Car
Fix,GPS,37.390776825,-122.0937770757,-2.2821741873772985,8.229333,5.5079,304.76108,1677859599999,0.4338549,3.0005462,1294408050853000,5.602953,Car
Fix,FLP,37.3907634,-122.0937724,-1.5000001192092896,8.1556,5.58,304.0503,1677859601912,0.4338549,3.0005462,1294408050853000,1.4929013,Car
Fix,GPS,37.3908324317,-122.0938679411,-1.7932912914021195,9.021764,5.45491,304.018,1677859600999,0.4250682,2.699847,1294409050683000,5.574646,Car
Fix,FLP,37.3908169,-122.0938578,-1.5000001192092896,8.886825,5.559,304.01987,1677859602912,0.4250682,2.699847,1294409050683000,1.5028514,Car
Fix,GPS,37.3908922512,-122.0939625838,-1.4585854710005848,9.61241,5.420536,304.73386,1677859601999,0.42833385,2.5775588,1294410050701000,5.5702386,Car
Fix,FLP,37.3908752,-122.093951,-1.5000001192092896,9.497586,5.548,304.0141,1677859603912,0.42833385,2.5775588,1294410050701000,1.5128614,Car
Fix,GPS,37.3909600881,-122.0940586022,-1.8903550400701972,10.177474,5.271421,307.70596,1677859602999,0.4145975,2.3203487,1294411050771000,5.5525923,Car
Fix,FLP,37.3909401,-122.0940486,-1.5000001192092896,10.076278,5.503,306.58636,1677859604912,0.4145975,2.3203487,1294411050771000,1.5228614,Car
Fix,GPS,37.3910342138,-122.094152559,-2.2403743014985027,10.859846,5.0179205,309.31042,1677859603999,0.3749067,1.9387565,1294412050750000,5.449796,Car
Fix,FLP,37.3910133,-122.0941463,-1.5000001192092896,10.76195,5.334,308.72656,1677859605912,0.3749067,1.9387565,1294412050750000,1.5328513,Car
Fix,GPS,37.3911073096,-122.0942560074,-1.7074120083155495,11.738544,5.067505,312.29968,1677859604999,0.44671634,2.1253185,1294413051061000,5.4615293,Car
Fix,FLP,37.3910896,-122.0942482,-1.5000001192092896,11.568172,5.246,311.4767,1677859606913,0.44671634,2.1253185,1294413051061000,1.5438714,Car
Fix,GPS,37.3911839786,-122.0943584529,-1.738940422077332,12.405776,5.269032,313.57208,1677859605999,0.5141357,2.2370777,1294414050772000,5.550448,Car
Fix,FLP,37.3911701,-122.094352,-1.5000001192092896,12.235678,5.209,312.7136,1677859607912,0.5141357,2.2370777,1294414050772000,1.5528713,Car
Fix,GPS,37.3912672992,-122.094462229,-1.733311378094195,12.999005,5.4015203,314.93887,1677859606999,0.4985246,2.0538657,1294415050980000,5.6543064,Car
Fix,FLP,37.391255,-122.0944578,-1.5000001192092896,12.857192,5.205,313.77798,1677859608912,0.4985246,2.0538657,1294415050980000,1.5628613,Car
Fix,GPS,37.3913598369,-122.0945675321,-1.6949564253149445,13.4520645,5.397514,315.82327,1677859607999,0.4645341,1.845347,1294416050860000,5.656306,Car
Fix,FLP,37.3913463,-122.0945652,-1.5000001192092896,13.353523,5.231,314.81018,1677859609912,0.4645341,1.845347,1294416050860000,1.5739614,Car
Fix,GPS,37.3914573439,-122.0946705886,-2.0889957081007418,14.006961,5.2454567,317.64804,1677859608999,0.3983502,1.5655854,1294417050870000,5.5717163,Car
Fix,FLP,37.3914434,-122.0946717,-1.5000001192092896,13.918217,5.276,316.72086,1677859610912,0.3983502,1.5655854,1294417050870000,1.5838513,Car
Fix,GPS,37.3915588985,-122.0947785776,-2.59868973807224,14.194338,5.1551833,318.63458,1677859609999,0.3975841,1.5377988,1294418051017000,5.504046,Car
Fix,FLP,37.3915458,-122.0947792,-1.5000001192092896,14.156676,5.256,317.82953,1677859611913,0.3975841,1.5377988,1294418051017000,1.5938613,Car
Fix,GPS,37.3916634805,-122.0948872094,-2.8462279739417253,14.363549,5.058394,320.18887,1677859610999,0.40436327,1.543641,1294419051211000,5.448331,Car
Fix,FLP,37.3916511,-122.0948868,-1.5000001192092896,14.333739,5.251,319.69482,1677859612913,0.40436327,1.543641,1294419051211000,1.6038613,Car
Fix,GPS,37.391770879,-122.0949947167,-2.910526412597828,14.474146,4.926343,321.42822,1677859611999,0.42877948,1.6148368,1294420050978000,5.3318386,Car
Fix,FLP,37.3917595,-122.094993,-1.5000001192092896,14.453169,5.197,320.79953,1677859613913,0.42877948,1.6148368,1294420050978000,1.6138713,Car
Fix,GPS,37.391878801,-122.0951009774,-2.675534713859048,14.567363,4.869523,321.19305,1677859612999,0.43630093,1.6371121,1294421051229000,5.239025,Car
Fix,FLP,37.3918688,-122.0950986,-1.5000001192092896,14.551138,5.05,320.97235,1677859614913,0.43630093,1.6371121,1294421051229000,1.6238613,Car
Fix,GPS,37.3919842845,-122.0952052427,-2.8433606461617247,14.505339,4.6406116,321.96878,1677859613999,0.4300183,1.6227732,1294422050942000,5.0161815,Car
Fix,FLP,37.3919768,-122.0952036,-1.5000001192092896,14.51436,4.93,320.99988,1677859615912,0.4300183,1.6227732,1294422050942000,1.6338513,Car
Fix,GPS,37.39208773,-122.0953062341,-2.951104838614846,14.619696,4.5875654,322.12903,1677859614999,0.44493845,1.6567472,1294423050965000,4.8776927,Car
Fix,FLP,37.3920827,-122.0953065,-1.5000001192092896,14.602457,4.873,321.8376,1677859616912,0.44493845,1.6567472,1294423050965000,1.6438514,Car
Fix,GPS,37.3921925082,-122.0954086768,-3.4186375263813065,14.730387,4.5448833,322.8581,1677859615999,0.4227612,1.5613563,1294424051232000,4.7153397,Car
Fix,FLP,37.3921891,-122.0954088,-1.5000001192092896,14.71157,4.714,321.97714,1677859617913,0.4227612,1.5613563,1294424051232000,1.6538514,Car
Fix,GPS,37.392298942,-122.0955111937,-3.904571806165696,14.7043295,4.5410147,323.1089,1677859616999,0.4111428,1.5201392,1294425050953000,4.6615114,Car
Fix,FLP,37.392296,-122.0955111,-1.5000001192092896,14.705263,4.685,322.8522,1677859618913,0.4111428,1.5201392,1294425050953000,1.6638514,Car
Fix,GPS,37.3924042216,-122.0956110975,-4.315179937107827,14.646006,4.65433,322.96362,1677859617999,0.41581336,1.5435687,1294426050975000,4.5826635,Car
Fix,FLP,37.3924026,-122.0956115,-1.5000001192092896,14.655263,4.639,322.12964,1677859619912,0.41581336,1.5435687,1294426050975000,1.6738414,Car
Fix,GPS,37.3925060527,-122.0957070502,-4.62792147282529,14.47992,4.783717,322.66528,1677859618999,0.41661394,1.5678449,1294427050992000,4.580929,Car
Fix,FLP,37.3925063,-122.0957105,-1.5000001192092896,14.506018,4.622,322.02237,1677859620912,0.41661394,1.5678449,1294427050992000,1.6315416,Car
Fix,GPS,37.3926088999,-122.0958124788,-4.654050140898638,14.504612,4.672802,322.4955,1677859619999,0.41859645,1.5742533,1294428051043000,4.44937,Car
Fix,FLP,37.3926091,-122.095812,-1.5000001192092896,14.504856,4.639,322.00302,1677859621914,0.41859645,1.5742533,1294428051043000,1.6415516,Car
Fix,GPS,37.3927120327,-122.0959162292,-4.833957473076113,14.578226,4.5918236,321.93527,1677859620999,0.41547865,1.5559427,1294429051286000,4.4647875,Car
Fix,FLP,37.3927119,-122.0959148,-1.5000001192092896,14.567379,4.648,321.1484,1677859622914,0.41547865,1.5559427,1294429051286000,1.6515716,Car
Fix,GPS,37.3928152467,-122.0960224382,-5.060618383255393,14.621651,4.4921536,321.96893,1677859621999,0.3995775,1.4913609,1294430051056000,4.4600043,Car
Fix,FLP,37.3928145,-122.0960202,-1.5000001192092896,14.6144,4.639,321.01974,1677859623914,0.3995775,1.4913609,1294430051056000,1.6615416,Car
Fix,GPS,37.3929227368,-122.096131825,-5.357317211771523,15.036589,4.3908696,321.2273,1677859622999,0.40939328,1.4974105,1294431051122000,4.4531956,Car
Fix,FLP,37.3929197,-122.0961279,-1.5000001192092896,14.974723,4.586,321.00107,1677859624913,0.40939328,1.4974105,1294431051122000,1.6715716,Car
Fix,GPS,37.3930291509,-122.0962425508,-5.622330687095788,15.430656,4.344114,319.8777,1677859623999,0.3722299,1.3254923,1294432051089000,3.9716318,Car
Fix,FLP,37.3930266,-122.0962389,-1.5000001192092896,15.373537,4.498,319.24265,1677859625913,0.3722299,1.3254923,1294432051089000,1.6815417,Car
Fix,GPS,37.3931370913,-122.0963583337,-6.009971666916744,15.621127,4.412297,317.92828,1677859624999,0.3789045,1.3335718,1294433052540000,3.7535894,Car
Fix,FLP,37.3931339,-122.0963557,-1.5000001192092896,15.587965,4.446,317.29123,1677859626914,0.3789045,1.3335718,1294433052540000,1.6915417,Car
Fix,GPS,37.3932420521,-122.0964798708,-6.038054075855025,15.895591,4.280541,316.74847,1677859625999,0.37740391,1.301793,1294434051162000,3.5893464,Car
Fix,FLP,37.3932392,-122.0964777,-1.5000001192092896,15.855662,4.418,316.16568,1677859627913,0.37740391,1.301793,1294434051162000,1.7015417,Car
Fix,GPS,37.3933479806,-122.0966076319,-5.901247398535492,16.075409,4.266405,315.46902,1677859626999,0.36325374,1.2407619,1294435051360000,3.4937131,Car
Fix,FLP,37.3933448,-122.0966049,-1.5000001192092896,16.048843,4.338,315.14093,1677859628913,0.36325374,1.2407619,1294435051360000,1.7115916,Car
Fix,GPS,37.3934514993,-122.0967408198,-5.623836959357596,16.235672,4.356509,313.53897,1677859627999,0.36824515,1.2551593,1294436051127000,3.4396856,Car
Fix,FLP,37.39345,-122.0967381,-1.5000001192092896,16.23445,4.332,313.01318,1677859629913,0.36824515,1.2551593,1294436051127000,1.7215416,Car
Fix,NLP,37.3934777,-122.0980336,-4.299999713897705,,76.325,,1677859630587,,,1294436724000000,3.143106,Car
Fix,FLP,37.3935045,-122.0968118,-4.299999713897705,16.22441,5.794,313.01315,1677859630586,0.36824515,1.2551593,1294436724000000,1.4721633,Car
Fix,GPS,37.3935536679,-122.0968813861,-5.314565846508449,16.509577,4.3812838,311.36148,1677859628999,0.37345985,1.2630249,1294437051147000,3.401774,Car
Fix,FLP,37.3935477,-122.0968729,-4.299999713897705,16.510443,5.8,311.01288,1677859630913,0.37345985,1.2630249,1294437051147000,1.4783939,Car
Fix,GPS,37.3936503859,-122.0970273857,-5.158457880344554,16.767359,4.4446144,308.91763,1677859629999,0.38553092,1.298435,1294438051202000,3.3998928,Car
Fix,FLP,37.3936487,-122.0970231,-4.299999713897705,16.765432,5.606,308.0206,1677859631913,0.38553092,1.298435,1294438051202000,1.4916922,Car
Fix,GPS,37.3937437694,-122.0971773542,-5.208415456827899,17.119698,4.5928226,306.8106,1677859630999,0.42075256,1.3876264,1294439051501000,3.4244504,Car
Fix,FLP,37.3937431,-122.0971759,-4.299999713897705,17.116678,5.857,306.01636,1677859632913,0.42075256,1.3876264,1294439051501000,1.5016822,Car
Fix,GPS,37.393833811,-122.0973342496,-5.129780385433201,17.193424,4.755533,305.5192,1677859631999,0.43344617,1.4207407,1294440051211000,3.4470358,Car
Fix,FLP,37.3938337,-122.0973337,-4.299999713897705,17.19272,5.7,305.00882,1677859633914,0.43344617,1.4207407,1294440051211000,1.5121099,Car
Fix,GPS,37.3939231037,-122.0974984044,-4.973646602002653,17.035154,4.9730926,304.42142,1677859632999,0.43713388,1.4388876,1294441051259000,3.4708507,Car
Fix,FLP,37.3939229,-122.0974967,-4.299999713897705,17.036528,6.042,304.0089,1677859634913,0.43713388,1.4388876,1294441051259000,1.5250796,Car
Fix,GPS,37.3940067718,-122.09766108,-5.119011958216991,17.189909,5.036665,303.34985,1677859633999,0.42759657,1.4001535,1294442051264000,3.5019524,Car
Fix,FLP,37.3940074,-122.0976597,-4.299999713897705,17.188574,4.76,303.00842,1677859635913,0.42759657,1.4001535,1294442051264000,1.5350696,Car
Fix,GPS,37.3940898452,-122.0978285023,-4.9596630822544405,17.621792,5.090009,302.0838,1677859634999,0.4169743,1.3434991,1294443051273000,3.5481522,Car
Fix,FLP,37.3940904,-122.0978267,-4.299999713897705,17.618238,4.889,302.008,1677859636913,0.4169743,1.3434991,1294443051273000,1.5450796,Car
Fix,GPS,37.3941732344,-122.0980041667,-5.029564126035147,17.895502,4.9191484,300.75165,1677859635999,0.4039918,1.311169,1294444051287000,3.5830863,Car
Fix,FLP,37.3941736,-122.0980016,-4.299999713897705,17.893305,4.894,300.01544,1677859637913,0.4039918,1.311169,1294444051287000,1.5550696,Car
Fix,GPS,37.3942566424,-122.0981868353,-5.106442802830954,18.077593,4.720229,299.36838,1677859636999,0.40640748,1.319157,1294445051427000,3.6094928,Car
Fix,FLP,37.3942558,-122.0981837,-4.299999713897705,18.076164,4.947,299.00803,1677859638914,0.40640748,1.319157,1294445051427000,1.5650896,Car
Fix,GPS,37.394334236,-122.098371446,-5.266673662189134,18.136673,4.670263,298.71417,1677859637999,0.41302353,1.343144,1294446052939000,3.634897,Car
Fix,FLP,37.3943344,-122.0983687,-4.299999713897705,18.136211,4.887,298.00833,1677859639914,0.41302353,1.343144,1294446052939000,1.5750697,Car
Fix,GPS,37.3944092959,-122.0985568645,-5.479461339317063,18.16999,4.596265,298.33713,1677859638999,0.4095966,1.3406136,1294447051401000,3.6568062,Car
Fix,FLP,37.3944098,-122.0985546,-4.299999713897705,18.169735,4.799,298.0,1677859640914,0.4095966,1.3406136,1294447051401000,1.5850697,Car
Fix,GPS,37.3944828642,-122.0987420321,-5.41738076507962,18.22601,4.573472,298.08142,1677859639999,0.40393788,1.321727,1294448051642000,3.6677759,Car
Fix,FLP,37.3944841,-122.0987402,-4.299999713897705,18.22557,4.695,297.9999,1677859641913,0.40393788,1.321727,1294448051642000,1.5950797,Car
Fix,GPS,37.3945575532,-122.0989264176,-5.310963821367856,18.498207,4.4824157,298.1919,1677859640999,0.40119696,1.282792,1294449051517000,3.6700475,Car
Fix,FLP,37.3945587,-122.0989251,-4.299999713897705,18.496086,4.608,297.99985,1677859642913,0.40119696,1.282792,1294449051517000,1.6040796,Car
Fix,GPS,37.3946391571,-122.0991128908,-5.294939208763483,18.659613,4.481021,298.3717,1677859641999,0.4499406,1.4323869,1294450051371000,3.7037208,Car
Fix,FLP,37.3946384,-122.099112,-4.299999713897705,18.658024,4.587,297.99994,1677859643914,0.4499406,1.4323869,1294450051371000,1.6781219,Car
Fix,GPS,37.3947220588,-122.0992988465,-4.968749416184583,18.46604,4.492366,298.67975,1677859642999,0.44256654,1.4268345,1294451051446000,3.7329056,Car
Fix,FLP,37.3947206,-122.0992987,-4.299999713897705,18.467878,4.549,298.00018,1677859644913,0.44256654,1.4268345,1294451051446000,1.6881318,Car
Fix,GPS,37.3948055766,-122.0994814725,-4.677664264293075,18.481327,4.7793937,299.46884,1677859643999,0.4876541,1.5095662,1294452051378000,3.7764137,Car
Fix,FLP,37.3948034,-122.0994821,-4.299999713897705,18.481165,4.567,298.98898,1677859645913,0.4876541,1.5095662,1294452051378000,1.6981219,Car
Fix,GPS,37.3948865636,-122.0996653653,-4.455244058905943,18.306814,4.61916,297.66132,1677859644999,0.41963798,1.3596152,1294453051393000,3.7901888,Car
Fix,FLP,37.3948857,-122.0996653,-4.299999713897705,18.3083,4.571,297.01758,1677859646913,0.41963798,1.3596152,1294453051393000,1.7081319,Car
Fix,GPS,37.3949635033,-122.0998497464,-4.6763961434746895,18.479984,4.711538,299.56265,1677859645999,0.4490767,1.4336463,1294454051377000,3.8248107,Car
Fix,FLP,37.3949626,-122.0998498,-4.299999713897705,18.478136,4.594,298.98056,1677859647913,0.4490767,1.4336463,1294454051377000,1.7181219,Car
Fix,GPS,37.3950441051,-122.1000323702,-4.921056960819144,18.4955,4.6880107,299.08365,1677859646999,0.431353,1.3587617,1294455051566000,3.8428106,Car
Fix,FLP,37.3950438,-122.1000326,-4.299999713897705,18.495346,4.658,298.99985,1677859648914,0.431353,1.3587617,1294455051566000,1.7281718,Car
Fix,GPS,37.395123453,-122.100216604,-5.045480345110444,18.339153,4.789385,298.91507,1677859647999,0.4298011,1.3677316,1294456053297000,3.857176,Car
Fix,FLP,37.3951239,-122.1002164,-4.299999713897705,18.34053,4.717,298.009,1677859649915,0.4298011,1.3677316,1294456053297000,1.7381519,Car
Fix,GPS,37.3952013506,-122.1004015302,-5.101835812800757,18.333723,6.0603986,298.38547,1677859648999,0.27101362,1.0,1294457051480000,4.0417676,Car
Fix,FLP,37.3952013,-122.1004007,-4.299999713897705,18.333754,4.973,298.00003,1677859650913,0.27101362,1.0,1294457051480000,1.7481319,Car
Fix,GPS,37.3952755457,-122.1005902611,-4.943958931339487,18.530123,6.7273016,298.64862,1677859649999,0.26183918,1.0,1294458051542000,4.113736,Car
Fix,FLP,37.3952769,-122.1005876,-4.299999713897705,18.529366,5.395,297.99976,1677859651913,0.26183918,1.0,1294458051542000,1.7581319,Car
Fix,GPS,37.3953540647,-122.1007714358,-4.775529070625293,18.422998,6.560593,298.5784,1677859650999,0.25579807,1.0,1294459051710000,4.1418567,Car
Fix,FLP,37.3953546,-122.100772,-4.299999713897705,18.423395,5.765,298.00012,1677859652913,0.25579807,1.0,1294459051710000,1.7681118,Car
Fix,GPS,37.3954291441,-122.1009494883,-4.962023096542367,17.795734,6.6157627,298.84338,1677859651999,0.2557188,1.0,1294460051482000,4.1619987,Car
Fix,FLP,37.3954305,-122.1009523,-4.299999713897705,17.79801,5.906,298.00067,1677859653913,0.2557188,1.0,1294460051482000,1.7781218,Car
Fix,GPS,37.3955009126,-122.1011191483,-5.406261298890326,15.989892,6.5848885,299.7163,1677859652999,0.24437994,1.0,1294461051514000,4.14587,Car
Fix,FLP,37.3955029,-122.1011237,-4.299999713897705,15.995539,6.223,298.99747,1677859654913,0.24437994,1.0,1294461051514000,1.7881519,Car
Fix,GPS,37.3955680601,-122.1012619485,-5.703201653334129,13.598902,6.874001,300.18704,1677859653999,0.26089713,1.1620996,1294462051859000,4.1346316,Car
Fix,FLP,37.3955701,-122.1012707,-4.299999713897705,13.6069975,6.672,299.99673,1677859655914,0.26089713,1.1620996,1294462051859000,1.7981218,Car
Fix,GPS,37.395622587,-122.1013795253,-5.4813847392250254,11.33722,6.9759483,300.63315,1677859654999,0.2517823,1.3255116,1294463051555000,4.127402,Car
Fix,FLP,37.3956264,-122.1013903,-4.299999713897705,11.344306,6.722,300.00064,1677859656913,0.2517823,1.3255116,1294463051555000,1.8081219,Car
Fix,GPS,37.3956674722,-122.1014716233,-5.127553493560992,9.306149,6.9423246,300.52643,1677859655999,0.24500649,1.5625746,1294464051571000,4.1278872,Car
Fix,FLP,37.3956718,-122.1014845,-4.299999713897705,9.312146,6.759,300.00058,1677859657914,0.24500649,1.5625746,1294464051571000,1.8181518,Car
Fix,GPS,37.3957021232,-122.1015428743,-4.952544012190762,7.597198,6.8161135,301.16794,1677859656999,0.2459903,1.9263816,1294465051816000,4.153377,Car
Fix,FLP,37.395707,-122.1015568,-4.299999713897705,7.6022854,6.838,300.9969,1677859658913,0.2459903,1.9263816,1294465051816000,1.8281319,Car
Fix,GPS,37.3957335931,-122.1016023042,-4.546517048921787,6.3477006,6.817403,301.56204,1677859657999,0.2492938,2.3307295,1294466051960000,4.175242,Car
Fix,FLP,37.3957373,-122.1016144,-4.299999713897705,6.3515224,6.885,301.00052,1677859659913,0.2492938,2.3307295,1294466051960000,1.8381219,Car
Fix,GPS,37.3957578314,-122.1016535458,-4.447267139599268,4.9997263,6.840246,302.5466,1677859658999,0.24924609,2.9476194,1294467051617000,4.2039075,Car
Fix,FLP,37.3957616,-122.1016631,-4.299999713897705,5.003831,6.877,301.99667,1677859660913,0.24924609,2.9476194,1294467051617000,1.8481319,Car
Fix,GPS,37.3957754523,-122.1016893241,-4.357887565791748,3.712008,6.7487116,305.58328,1677859659999,0.24615173,3.8459172,1294468051977000,4.231671,Car
Fix,FLP,37.3957797,-122.1016985,-4.299999713897705,3.7157574,6.832,304.98837,1677859661913,0.24615173,3.8459172,1294468051977000,1.8581219,Car
Fix,GPS,37.3957883511,-122.1017162879,-4.399662839881325,2.4883134,6.818619,306.71463,1677859660999,0.24839517,5.751846,1294469051644000,4.24201,Car
Fix,FLP,37.3957929,-122.1017234,-4.299999713897705,2.4919448,6.808,305.99567,1677859662913,0.24839517,5.751846,1294469051644000,1.8681219,Car
Fix,GPS,37.3957981026,-122.1017290233,-4.443443793951884,1.2322898,6.9043937,306.71463,1677859661999,0.23816064,11.795604,1294470051678000,4.250962,Car
Fix,FLP,37.3958015,-122.1017365,-4.299999713897705,1.2359073,6.824,306.0031,1677859663913,0.23816064,11.795604,1294470051678000,1.8781419,Car
Fix,NLP,37.3958974,-122.1015925,-5.900000095367432,,44.96,,1677859662924,,,1294469062000000,1.3797237,Car
Fix,GPS,37.395799952,-122.1017328108,-4.72037497656514,0.6065397,7.0221505,306.71463,1677859662999,0.25596115,26.325945,1294471051858000,4.2591305,Car
Fix,FLP,37.3958047,-122.1017412,-5.900000095367432,0.60760987,6.865,306.00253,1677859664914,0.25596115,26.325945,1294471051858000,1.49907,Car
Fix,GPS,37.3958009355,-122.1017324679,-4.855750777170195,0.0,7.030854,306.71463,1677859663999,0.25780657,174.45128,1294472051699000,4.244489,Car
Fix,FLP,37.3958039,-122.1017385,-5.900000095367432,0.0010920841,6.904,,1677859665913,0.25780657,,1294472051699000,1.5570987,Car
Fix,GPS,37.3958009355,-122.1017324679,-4.721633928846049,0.0,7.0488873,306.71463,1677859664999,0.2628251,152.32434,1294473051763000,4.2422085,Car
Fix,FLP,37.3958022,-122.1017351,-5.900000095367432,1.237936e-06,6.925,,1677859666913,0.2628251,,1294473051763000,1.5655488,Car
Fix,GPS,37.3958009355,-122.1017324679,-5.062492203016168,0.0,7.0046396,306.71463,1677859665999,0.26025203,167.23387,1294474051736000,4.2015047,Car
Fix,FLP,37.3958015,-122.1017336,-5.900000095367432,4.5219744e-07,6.985,,1677859667913,0.26025203,,1294474051736000,1.5755488,Car
Fix,GPS,37.3958009355,-122.1017324679,-5.3948286074792575,0.0,7.0124836,306.71463,1677859666999,0.258983,180.0,1294475051858000,4.1513033,Car
Fix,FLP,37.3958011,-122.101733,-5.900000095367432,1.9312823e-07,7.023,,1677859668913,0.258983,,1294475051858000,1.5855787,Car
Fix,GPS,37.3958009355,-122.1017324679,-5.659492043306125,0.0,6.9472313,306.71463,1677859667999,0.2552413,180.0,1294476051777000,4.1066375,Car
Fix,FLP,37.395801,-122.1017327,-5.900000095367432,8.168072e-08,7.011,,1677859669913,0.2552413,,1294476051777000,1.5955588,Car
Fix,GPS,37.3958009355,-122.1017324679,-5.860610419257148,0.0,7.0616465,306.71463,1677859668999,0.25557792,111.30397,1294477051998000,4.10766,Car
Fix,FLP,37.3958009,-122.1017326,-5.900000095367432,3.3935013e-08,7.015,,1677859670913,0.25557792,,1294477051998000,1.6055588,Car
Fix,GPS,37.3958009355,-122.1017324679,-6.048262386637856,0.0,7.0398426,306.71463,1677859669999,0.25076213,90.56194,1294478051798000,4.1033974,Car
Fix,FLP,37.3958009,-122.1017325,-5.900000095367432,1.4416532e-08,7.013,,1677859671913,0.25076213,,1294478051798000,1.6155487,Car
Fix,GPS,37.3958009355,-122.1017324679,-6.17645528720174,0.0,6.948718,306.71463,1677859670999,0.24902853,180.0,1294479052035000,4.101167,Car
Fix,FLP,37.3958009,-122.1017325,-5.900000095367432,6.0578964e-09,7.002,,1677859672915,0.24902853,,1294479052035000,1.6255487,Car
Fix,GPS,37.3958009355,-122.1017324679,-6.165662088355117,0.0,6.916214,306.71463,1677859671999,0.24931651,180.0,1294480051857000,4.1014915,Car
Fix,FLP,37.3958009,-122.1017325,-5.900000095367432,2.6021811e-09,6.987,,1677859673913,0.24931651,,1294480051857000,1.6355487,Car
Fix,GPS,37.3958009355,-122.1017324679,-6.155679916512185,0.0,6.880261,306.71463,1677859672999,0.24760124,146.25758,1294481051832000,4.106362,Car
Fix,FLP,37.3958009,-122.1017325,-5.900000095367432,1.1143899e-09,6.969,,1677859674913,0.24760124,,1294481051832000,1.6455687,Car
Fix,GPS,37.3958009355,-122.1017324679,-6.207666855146694,0.0,6.9357853,306.71463,1677859673999,0.25085324,171.48892,1294482051859000,4.112761,Car
Fix,FLP,37.3958009,-122.1017325,-5.900000095367432,4.812306e-10,6.963,,1677859675913,0.25085324,,1294482051859000,1.6555487,Car
Fix,GPS,37.3958009355,-122.1017324679,-6.212313733874419,0.0,6.9193425,306.71463,1677859674999,0.2467763,137.37274,1294483051882000,4.1291323,Car
Fix,FLP,37.3958009,-122.1017325,-5.900000095367432,2.072265e-10,6.92,,1677859676913,0.2467763,,1294483051882000,1.6655487,Car
Fix,GPS,37.3958009355,-122.1017324679,-6.088809457033981,0.0,6.9664087,306.71463,1677859675999,0.2490766,180.0,1294484052184000,4.1323404,Car
Fix,FLP,37.3958009,-122.1017325,-5.900000095367432,8.76787e-11,6.923,,1677859677914,0.2490766,,1294484052184000,1.6755488,Car
Fix,GPS,37.3958009355,-122.1017324679,-5.947114466633788,0.0,6.8550806,306.71463,1677859676999,0.24964254,180.0,1294485051941000,4.1466227,Car
Fix,FLP,37.3958009,-122.1017325,-5.900000095367432,3.94862e-11,6.911,,1677859678913,0.24964254,,1294485051941000,1.6855488,Car
Fix,GPS,37.3958009355,-122.1017324679,-5.771624706604771,0.0,6.8818917,306.71463,1677859677999,0.2514397,180.0,1294486051921000,4.1750736,Car
Fix,FLP,37.3958009,-122.1017325,-5.900000095367432,1.71695e-11,6.911,,1677859679913,0.2514397,,1294486051921000,1.6955987,Car
Fix,GPS,37.3958009355,-122.1017324679,-5.6250243490567895,0.0,6.7973433,306.71463,1677859678999,0.25102815,180.0,1294487051907000,4.195059,Car
Fix,FLP,37.3958009,-122.1017325,-5.900000095367432,7.5409e-12,6.883,,1677859680913,0.25102815,,1294487051907000,1.7055488,Car
Fix,GPS,37.3958009355,-122.1017324679,-5.470663609781542,0.0,7.1054688,306.71463,1677859679999,0.25175714,180.0,1294488051965000,4.1872745,Car
Fix,FLP,37.3958009,-122.1017325,-5.900000095367432,3.0936e-12,6.921,,1677859681913,0.25175714,,1294488051965000,1.7155488,Car
Fix,GPS,37.3958009355,-122.1017324679,-5.305987084618498,0.0,7.1633563,306.71463,1677859680999,0.25892857,180.0,1294489052189000,4.207346,Car
Fix,FLP,37.3958009,-122.1017325,-5.900000095367432,1.4434e-12,6.96,,1677859682914,0.25892857,,1294489052189000,1.7255487,Car
Fix,GPS,37.3958009355,-122.1017324679,-5.257953988208762,0.0,7.118673,306.71463,1677859681999,0.25476998,180.0,1294490051955000,4.198549,Car
Fix,FLP,37.3958009,-122.1017325,-5.900000095367432,6.597e-13,7.013,,1677859683913,0.25476998,,1294490051955000,1.7355487,Car
Fix,GPS,37.3958009355,-122.1017324679,-5.3577653369004095,0.0,7.0415783,306.71463,1677859682999,0.25423777,180.0,1294491051967000,4.2084255,Car
Fix,FLP,37.3958009,-122.1017325,-5.900000095367432,2.834e-13,7.045,,1677859684913,0.25423777,,1294491051967000,1.7455487,Car
Fix,GPS,37.3958009355,-122.1017324679,-5.632485511645604,0.0,5.974016,306.71463,1677859683999,0.25579005,180.0,1294492051980000,3.8929803,Car
Fix,FLP,37.3958009,-122.1017325,-5.900000095367432,1.423e-13,6.88,,1677859685913,0.25579005,,1294492051980000,1.7555487,Car
Fix,GPS,37.3958009355,-122.1017324679,-5.794784056652413,0.0,5.3239937,306.71463,1677859684999,0.25742835,180.0,1294493052002000,3.6729748,Car
Fix,FLP,37.3958009,-122.1017325,-5.900000095367432,5.98e-14,6.524,,1677859686914,0.25742835,,1294493052002000,1.7655587,Car
Fix,GPS,37.3958009355,-122.1017324679,-5.888330162517551,0.0,4.9204493,306.71463,1677859685999,0.25625676,168.13535,1294494052008000,3.5045044,Car
Fix,FLP,37.3958009,-122.1017325,-5.900000095367432,2.13e-14,6.257,,1677859687914,0.25625676,,1294494052008000,1.7755487,Car
Fix,GPS,37.3958009355,-122.1017324679,-5.96923268785465,0.0,4.6117325,306.71463,1677859686999,0.2549876,180.0,1294495052310000,3.3620145,Car
Fix,FLP,37.3958009,-122.1017325,-5.900000095367432,6.7e-15,5.574,,1677859688914,0.2549876,,1294495052310000,1.7855587,Car
Fix,GPS,37.3957847671,-122.1017406671,-7.878506028182497,0.00047719738,2.4574363,300.26184,1677859687999,0.025668433,2.7817588,1294496052076000,2.750681,Car
Fix,FLP,37.39579,-122.1017381,-5.900000095367432,0.0004772018,4.946,,1677859689914,0.025668433,,1294496052076000,1.7955487,Car
Fix,GPS,37.3957847707,-122.1017406714,-7.880842667056628,0.0005141014,2.5256233,300.2591,1677859688999,0.025145426,2.783438,1294497052316000,2.7415214,Car
Fix,FLP,37.3957865,-122.1017399,-5.900000095367432,0.0005141008,4.531,,1677859690914,0.025145426,,1294497052316000,1.8055587,Car
Fix,GPS,37.3957847728,-122.1017406702,-7.881084466951066,0.00087494915,2.6033008,300.25623,1677859689999,0.025595006,2.7853403,1294498052089000,2.7528872,Car
Fix,FLP,37.3957853,-122.1017404,-5.900000095367432,0.00087494205,3.987,,1677859691914,0.025595006,,1294498052089000,1.8155488,Car
Fix,GPS,37.3957847725,-122.1017406748,-7.88316123400339,0.0004065345,2.6786668,300.2566,1677859690999,0.02560527,2.7872908,1294499052156000,2.7634895,Car
Fix,FLP,37.395785,-122.1017406,-5.900000095367432,0.00040654372,3.783,,1677859692914,0.02560527,,1294499052156000,1.8255588,Car
Fix,GPS,37.3957847744,-122.1017406749,-7.891572920092658,0.000553436,2.7527027,300.25674,1677859691999,0.025637986,2.7893617,1294500052445000,2.7747805,Car
Fix,FLP,37.3957849,-122.1017407,-5.900000095367432,0.0005534331,3.64,,1677859693915,0.025637986,,1294500052445000,1.8355488,Car
Fix,GPS,37.3957847696,-122.1017406768,-7.898248536206146,0.00048718383,2.8247998,300.25793,1677859692999,0.025640104,2.7914662,1294501052163000,2.7854397,Car
Fix,FLP,37.3957848,-122.1017407,-5.900000095367432,0.00048718514,3.64,,1677859694915,0.025640104,,1294501052163000,1.8455487,Car
Fix,GPS,37.3957847632,-122.1017406771,-7.896593035123461,0.0004540761,2.8944077,300.2633,1677859693999,0.025606638,2.7934725,1294502052380000,2.794383,Car
Fix,FLP,37.3957848,-122.1017407,-5.900000095367432,0.00045407674,3.64,,1677859695914,0.025606638,,1294502052380000,1.8555487,Car
Fix,GPS,37.3957790992,-122.1017290662,-7.400828439424778,0.3821961,2.4178598,300.28214,1677859694999,0.06101833,2.7978585,1294503052186000,2.2897801,Car
Fix,FLP,37.3957809,-122.1017328,-5.900000095367432,0.38215098,3.9,300.002,1677859696914,0.06101833,2.7978585,1294503052186000,1.8655587,Car
Fix,GPS,37.3957801066,-122.1017329815,-7.1009552942935,1.8352042,2.1452913,300.35156,1677859695999,0.10759056,2.7630095,1294504052207000,2.1453588,Car
Fix,FLP,37.3957809,-122.1017342,-5.900000095367432,1.8344939,3.9,300.00177,1677859697914,0.10759056,2.7630095,1294504052207000,1.8755587,Car
Fix,GPS,37.395788775,-122.1017544699,-6.785127565907867,3.636073,1.9863957,300.42322,1677859696999,0.15853198,2.666364,1294505052231000,2.1254911,Car
