Fix,Provider,LatitudeDegrees,LongitudeDegrees,AltitudeMeters,SpeedMps,AccuracyMeters,BearingDegrees,UnixTimeMillis,SpeedAccuracyMps,BearingAccuracyDegrees,elapsedRealtimeNanos,VerticalAccuracyMeters,TransitType
Fix,FLP,37.3876812,-122.0871686,2.135408229998138,28.156094,20.881,231.7741,1676390854494,,,426052173000000,2.239635,Car
Fix,NLP,37.3874846,-122.0874828,-1.3000000715255735,,24.448,,1676390854494,,,426052173000000,1.0864636,Car
Fix,GPS,37.3876555989,-122.0875982777,-0.2219994843882289,6.8359327,6.055785,296.9308,1676390854141,0.48982102,180.0,426052397059344,11.099458,Car
Fix,FLP,37.387657,-122.0875636,2.097827220038873,25.816795,17.175,236.54752,1676390854718,0.48982102,180.0,426052397059344,2.2419224,Car
Fix,GPS,37.3876829232,-122.0876566729,1.4740835517476938,7.803263,8.742479,302.93256,1676390855141,0.42762542,10.0,426053409500913,10.597059,Car
Fix,FLP,37.3876642,-122.0876381,2.1872093554268304,7.720915,12.793,299.61868,1676390855730,0.42762542,10.0,426053409500913,2.2538083,Car
Fix,GPS,37.3877253179,-122.0877296776,0.8787983808801816,7.9369173,8.439871,303.08643,1676390856141,0.54885775,10.0,426054421701679,10.24235,Car
Fix,FLP,37.3877111,-122.0877216,2.507672393370875,7.925084,11.27,302.8342,1676390856741,0.54885775,10.0,426054421701679,2.2640064,Car
Fix,FLP,37.3877529,-122.0877913,2.417271130321552,8.103193,9.704,303.92642,1676390857580,0.44969755,10.0,426055259377542,2.2721663,Car
Fix,GPS,37.3878056361,-122.0878750079,0.5315506515455066,8.042055,7.953326,303.8983,1676390858000,0.42328495,10.0,426056289907002,9.899607,Car
Fix,FLP,37.3878006,-122.0878725,1.887579786831882,8.047218,9.485,303.0626,1676390858610,0.42328495,10.0,426056289907002,2.2821317,Car
Fix,NLP,37.3880448,-122.0878117,-0.1999998986721038,,39.051,,1676390859560,,,426057239000000,1.6065326,Car
Fix,FLP,37.3878333,-122.087935,1.5579995275210017,8.018591,8.966,303.0035,1676390859560,0.42328495,10.0,426057239000000,2.1691067,Car
Fix,GPS,37.387849729,-122.0879537343,-0.0053343774004935,7.999673,7.798724,303.21417,1676390859000,0.44157875,10.0,426057277164367,9.775851,Car
Fix,GPS,37.3878915651,-122.0880293901,-0.1944564441153715,8.132033,7.7019625,303.62683,1676390860000,0.47505188,10.0,426058222499000,9.598708,Car
Fix,FLP,37.3878859,-122.0880238,-0.1999998986721038,8.127858,9.389,302.99945,1676390860543,0.47505188,10.0,426058222499000,2.1743946,Car
Fix,GPS,37.3879348372,-122.0881066432,-0.2637192801665413,8.243483,7.536405,302.72736,1676390861000,0.45235205,10.0,426059222464000,9.323393,Car
Fix,FLP,37.3879307,-122.0881041,-0.1999998986721038,8.241737,9.693,302.05255,1676390861543,0.45235205,10.0,426059222464000,2.1840246,Car
Fix,GPS,37.3879816149,-122.0881926563,-0.5790461751861721,8.968089,7.1813793,303.05887,1676390862000,0.43248641,10.0,426060222762000,8.934059,Car
Fix,FLP,37.3879769,-122.0881887,1.5016319255766248,8.932026,9.513,302.8808,1676390862543,0.43248641,10.0,426060222762000,2.1947079,Car
Fix,GPS,37.3880310481,-122.0882800044,-0.6926212657674217,9.354611,6.8044147,302.1843,1676390863000,0.4108226,10.0,426061222742000,8.524588,Car
Fix,FLP,37.3880268,-122.0882775,1.5874530185879117,9.337782,9.323,302.02417,1676390863543,0.4108226,10.0,426061222742000,2.2066097,Car
Fix,GPS,37.3880805535,-122.0883700011,-1.010438387957015,10.030468,6.3994493,302.2055,1676390864000,0.4109457,10.0,426062222506000,8.079495,Car
Fix,FLP,37.3880772,-122.088369,2.005906805177762,9.99332,9.101,301.9342,1676390864543,0.4109457,10.0,426062222506000,2.2170098,Car
Fix,GPS,37.3881317585,-122.0884710211,-1.2456769816862017,10.808854,6.1371646,301.7101,1676390865000,0.43590406,10.0,426063222612000,7.826751,Car
Fix,FLP,37.3881293,-122.0884689,1.946997009610886,10.764138,6.811,300.9835,1676390865543,0.43590406,10.0,426063222612000,2.2266297,Car
Fix,GPS,37.3881859628,-122.0885795465,-1.6109788344803913,11.395883,5.99767,302.0057,1676390866000,0.42352626,10.0,426064222621000,7.619605,Car
Fix,FLP,37.3881837,-122.0885773,1.8164828041518144,11.349671,6.503,301.8431,1676390866542,0.42352626,10.0,426064222621000,2.2370098,Car
Fix,GPS,37.3882422482,-122.0886939065,-1.657618365550467,12.108303,5.9512815,301.20416,1676390867000,0.4258021,10.0,426065222566000,7.4446225,Car
Fix,FLP,37.3882407,-122.0886914,1.7179636879814204,12.059321,6.411,300.98868,1676390867543,0.4258021,10.0,426065222566000,2.2466197,Car
Fix,GPS,37.3883021084,-122.0888168188,-1.6028473080114898,12.49414,5.952404,301.5782,1676390868000,0.438659,10.0,426066222574000,7.400982,Car
Fix,FLP,37.3883002,-122.0888138,1.6097971147513237,12.463787,6.206,300.95468,1676390868543,0.438659,10.0,426066222574000,2.2570097,Car
Fix,GPS,37.3883634327,-122.0889411284,-1.539279840682883,12.645942,5.947786,302.17734,1676390869000,0.4799836,10.0,426067222839000,7.341356,Car
Fix,FLP,37.3883616,-122.0889388,1.5732340790533677,12.6278305,5.997,301.8785,1676390869543,0.4799836,10.0,426067222839000,2.2666297,Car
Fix,GPS,37.3884251472,-122.089064144,-1.437241927414025,12.994709,5.756177,302.0266,1676390870000,0.053315118,10.0,426068222764000,7.0142403,Car
Fix,FLP,37.388424,-122.0890628,1.5473353577839042,12.96642,5.921,301.94547,1676390870543,0.053315118,10.0,426068222764000,2.2770097,Car
Fix,GPS,37.3884903659,-122.0891914987,-0.7833436748835014,13.208436,5.4872885,302.07123,1676390871000,0.036804028,10.0,426069222884000,6.791629,Car
Fix,FLP,37.388489,-122.0891902,1.4970615959461997,13.19127,5.818,301.97726,1676390871543,0.036804028,10.0,426069222884000,2.2874198,Car
Fix,GPS,37.3885564135,-122.0893218869,-0.6907289231074641,13.342632,5.274249,301.82568,1676390872000,0.06420558,10.0,426070222619000,6.595625,Car
Fix,FLP,37.388555,-122.0893204,1.5224523473837088,13.342177,5.683,301.1142,1676390872542,0.06420558,10.0,426070222619000,2.2961998,Car
Fix,GPS,37.388620042,-122.089453257,-0.5444735859550437,13.427782,5.0814753,301.89536,1676390873000,0.062571734,10.0,426071222642000,6.417334,Car
Fix,FLP,37.3886191,-122.0894522,1.5224523473837088,13.424447,5.509,301.01495,1676390873543,0.062571734,10.0,426071222642000,2.3066099,Car
Fix,GPS,37.3886849786,-122.0895840921,-0.8513675326848599,13.548759,4.908033,301.49817,1676390874000,0.049302302,10.0,426072222607000,6.2609363,Car
Fix,FLP,37.388684,-122.0895836,1.5630777083142142,13.541448,5.409,301.00174,1676390874543,0.049302302,10.0,426072222607000,2.3169997,Car
Fix,GPS,37.3887510921,-122.089720194,-0.6356133592525713,13.876251,4.773064,301.41034,1676390875000,0.037179362,10.0,426073222673000,6.123426,Car
Fix,FLP,37.3887499,-122.0897187,1.5981172389346767,13.851199,5.213,300.9697,1676390875542,0.037179362,10.0,426073222673000,2.3272498,Car
Fix,GPS,37.3888190947,-122.0898579731,-0.5008728792457561,14.1195135,4.773117,301.67337,1676390876000,0.031118816,10.0,426074222936000,6.0019145,Car
Fix,FLP,37.3888177,-122.0898566,1.731675042586012,14.100249,4.961,300.98123,1676390876543,0.031118816,10.0,426074222936000,2.3372297,Car
Fix,GPS,37.3888867104,-122.0899975028,-0.314169337523124,14.399636,4.77317,301.71478,1676390877000,0.03087466,10.0,426075222691000,5.887191,Car
Fix,FLP,37.3888857,-122.0899963,1.7570664987291238,14.375637,4.861,300.9705,1676390877543,0.03087466,10.0,426075222691000,2.3462298,Car
Fix,GPS,37.3889574621,-122.090138015,-0.1065592878906695,14.652723,4.7732234,301.64502,1676390878000,0.04302333,10.0,426076222716000,5.767227,Car
Fix,FLP,37.388956,-122.0901374,1.7570664987291238,14.631274,4.8,300.9842,1676390878543,0.04302333,10.0,426076222716000,2.3572497,Car
Fix,GPS,37.3890288683,-122.0902816604,0.1934403397743943,14.851678,4.773276,301.52863,1676390879000,0.04518299,1.0,426077222739000,5.651149,Car
Fix,FLP,37.3890275,-122.0902811,1.7560508390195402,14.851487,4.773,300.99994,1676390879543,0.04518299,1.0,426077222739000,2.3672698,Car
Fix,GPS,37.3891008827,-122.0904255371,0.5980316699470233,15.018414,4.773329,301.52756,1676390880000,0.049463753,1.0,426078223016000,5.554052,Car
Fix,FLP,37.3890995,-122.0904254,1.8129279707140995,15.018188,4.773,300.9996,1676390880543,0.049463753,1.0,426078223016000,2.3762197,Car
Fix,GPS,37.3891729027,-122.0905699087,0.5038499783534282,15.168926,4.4674344,301.6337,1676390881000,0.05575281,1.0,426079222939000,5.473732,Car
Fix,FLP,37.3891717,-122.0905703,1.834256993761869,15.1687155,4.711,300.99963,1676390881542,0.05575281,1.0,426079222939000,2.3862298,Car
Fix,GPS,37.3892461488,-122.0907172619,0.6400113518403284,15.274413,4.7734346,301.89325,1676390882000,0.049455684,1.0,426080222783000,5.388549,Car
Fix,FLP,37.3892448,-122.0907174,-0.1999998986721038,15.274266,4.711,300.99973,1676390882542,0.049455684,1.0,426080222783000,1.4893881,Car
Fix,GPS,37.3893196383,-122.0908652735,0.5683644341295302,15.349917,4.773487,301.90787,1676390883000,0.04946845,1.0,426081222782000,5.3109026,Car
Fix,FLP,37.3893183,-122.0908654,1.9195736241245989,15.349812,4.711,300.99982,1676390883543,0.04946845,1.0,426081222782000,2.4062397,Car
Fix,GPS,37.389393065,-122.0910145627,0.5985679908040024,15.455089,5.051825,301.8892,1676390884000,0.050341856,1.0,426082222834000,5.2309594,Car
Fix,FLP,37.3893919,-122.0910146,1.9195736241245989,15.454939,4.767,300.99973,1676390884543,0.050341856,1.0,426082222834000,2.4162397,Car
Fix,GPS,37.3894673205,-122.0911640855,0.5536062091259474,15.49315,4.773592,302.0389,1676390885000,0.05648161,1.0,426083222823000,5.1594152,Car
Fix,FLP,37.3894661,-122.0911643,1.8560939064470572,15.492912,4.768,301.99777,1676390885543,0.05648161,1.0,426083222823000,2.4262197,Car
Fix,GPS,37.3895401373,-122.0913129462,0.8724721624098788,15.457635,4.7736444,302.0861,1676390886000,0.055981085,1.0,426084222974000,5.0967574,Car
Fix,FLP,37.3895401,-122.091313,-0.1999998986721038,15.457687,4.829,302.0001,1676390886543,0.055981085,1.0,426084222974000,1.5294181,Car
Fix,GPS,37.3896137271,-122.0914605209,0.9871992042300716,15.341237,4.773697,301.9364,1676390887000,0.04526946,1.0,426085222854000,5.010479,Car
Fix,FLP,37.3896137,-122.0914608,-0.1999998986721038,15.341582,4.829,301.00244,1676390887543,0.04526946,1.0,426085222854000,1.6117221,Car
Fix,GPS,37.3896863199,-122.0916078428,1.181989874576004,15.230177,4.3677773,301.682,1676390888000,0.04873655,1.0,426086222853000,4.9512854,Car
Fix,FLP,37.3896858,-122.0916084,1.6905410454911411,15.230332,4.748,301.0003,1676390888543,0.04873655,1.0,426086222853000,2.4562197,Car
Fix,NLP,37.3896005,-122.0911738,-0.6000000238418579,,37.32,,1676390888354,,,426086033000000,1.0,Car
Fix,GPS,37.3897576714,-122.0917525373,1.024379477344367,15.062694,4.812354,301.3945,1676390889000,0.047600664,1.0,426087223117000,4.8894606,Car
Fix,FLP,37.3897617,-122.0917627,-0.6000000238418579,15.062883,4.645,301.00034,1676390889544,0.047600664,1.0,426087223117000,1.301491,Car
Fix,GPS,37.389828516,-122.0918980284,1.1168091796304125,14.8692255,4.7512445,301.4968,1676390890000,0.5595547,1.9895611,426088223061000,4.933664,Car
Fix,FLP,37.3898295,-122.0919015,-0.6000000238418579,14.871921,4.641,300.99966,1676390890544,0.5595547,1.9895611,426088223061000,1.2345821,Car
Fix,GPS,37.3898983327,-122.0920406916,0.9640074202346708,14.837771,5.1637607,301.4473,1676390891000,0.6269701,2.2223618,426089222920000,5.0401273,Car
Fix,FLP,37.3898983,-122.0920424,-0.6000000238418579,14.838301,4.715,301.00006,1676390891543,0.6269701,2.2223618,426089222920000,1.305471,Car
Fix,GPS,37.3899678536,-122.0921841013,0.906722835452422,14.839185,5.717534,301.33496,1676390892000,0.62283814,2.2072837,426090223327000,5.2069216,Car
Fix,FLP,37.3899676,-122.092185,-0.6000000238418579,14.839146,4.863,301.00012,1676390892544,0.62283814,2.2072837,426090223327000,1.1457007,Car
Fix,GPS,37.3900378507,-122.0923277755,1.0312589895767197,14.923281,6.1124396,301.24973,1676390893000,0.62413114,2.1988661,426091223057000,5.4275217,Car
Fix,FLP,37.3900373,-122.0923283,-0.6000000238418579,14.921848,5.311,301.0003,1676390893544,0.62413114,2.1988661,426091223057000,1.3391662,Car
Fix,GPS,37.3901076372,-122.0924708254,1.1307051484806343,14.900793,6.420579,301.34906,1676390894000,0.62769324,2.2155943,426092223031000,5.695213,Car
Fix,FLP,37.3901071,-122.0924718,-0.6000000238418579,14.901137,5.496,301.00006,1676390894544,0.62769324,2.2155943,426092223031000,1.3492262,Car
Fix,GPS,37.3901783637,-122.0926132713,1.4281669059908986,14.778164,6.661155,301.93607,1676390895000,0.6245798,2.2231383,426093223467000,5.979925,Car
Fix,FLP,37.3901775,-122.0926146,-0.6000000238418579,14.780236,6.015,300.9999,1676390895544,0.6245798,2.2231383,426093223467000,1.3591661,Car
Fix,GPS,37.3902507941,-122.0927549452,1.651090676034915,14.799149,6.893797,302.11536,1676390896000,0.6383909,2.2648025,426094223017000,6.2912464,Car
Fix,FLP,37.3902487,-122.0927563,-0.6000000238418579,14.798924,6.361,301.98322,1676390896543,0.6383909,2.2648025,426094223017000,1.294572,Car
Fix,GPS,37.3903246279,-122.0928968521,2.274413127939967,14.956596,7.1432667,302.15314,1676390897000,0.63238543,2.2211554,426095223016000,6.6156497,Car
Fix,FLP,37.3903222,-122.0928976,-0.6000000238418579,14.953881,6.491,302.00034,1676390897544,0.63238543,2.2211554,426095223016000,1.4930104,Car
Fix,GPS,37.3903964198,-122.0930371703,2.4015317482056293,15.138009,7.290724,301.43085,1676390898000,0.6636167,2.3154662,426096223039000,6.915303,Car
Fix,FLP,37.3903951,-122.093039,-0.6000000238418579,15.134244,6.753,301.019,1676390898543,0.6636167,2.3154662,426096223039000,1.5030204,Car
Fix,GPS,37.3904698544,-122.0931798252,1.8665509768666868,15.19773,7.423462,300.67117,1676390899000,0.66615844,2.31712,426097223361000,7.193576,Car
Fix,FLP,37.3904678,-122.0931826,-0.6000000238418579,15.196243,7.082,300.01947,1676390899544,0.66615844,2.31712,426097223361000,1.4769801,Car
Fix,GPS,37.3905427608,-122.0933268232,1.6442063388449877,15.345119,7.3773193,300.84653,1676390900000,0.6656262,2.2936635,426098223066000,7.3750105,Car
Fix,FLP,37.3905398,-122.093329,-0.6000000238418579,15.342226,7.131,300.00116,1676390900544,0.6656262,2.2936635,426098223066000,1.4869702,Car
Fix,GPS,37.3906167716,-122.0934748595,1.510157346099738,15.342035,7.357072,301.55164,1676390901000,0.62039715,2.1391551,426099223309000,7.52815,Car
Fix,FLP,37.3906133,-122.0934769,-0.6000000238418579,15.342147,7.318,300.9842,1676390901544,0.62039715,2.1391551,426099223309000,1.4969702,Car
Fix,GPS,37.3906903744,-122.0936196256,1.859049074847952,15.195963,7.330494,304.06525,1676390902000,0.6329464,2.20024,426100223431000,7.686415,Car
Fix,FLP,37.3906877,-122.0936224,-0.6000000238418579,15.198505,7.355,303.9483,1676390902544,0.6329464,2.20024,426100223431000,1.354572,Car
Fix,GPS,37.3907709045,-122.0937553198,2.225428047135087,14.803686,7.497365,306.73474,1676390903000,0.63760656,2.2750616,426101223243000,7.8964767,Car
Fix,FLP,37.3907678,-122.0937598,-0.6000000238418579,14.810645,7.396,305.96344,1676390903544,0.63760656,2.2750616,426101223243000,1.5368526,Car
Fix,GPS,37.390857445,-122.0938852316,2.453252767273613,14.264447,7.6503544,309.39563,1676390904000,0.665671,2.4712472,426102223139000,8.121196,Car
Fix,FLP,37.3908521,-122.0938899,-0.6000000238418579,14.274726,7.439,308.9404,1676390904544,0.665671,2.4712472,426102223139000,1.5468626,Car
Fix,GPS,37.3909448936,-122.0940014932,2.9998014952001792,13.621071,7.6666546,310.3622,1676390905000,0.6908766,2.6930058,426103223142000,8.298075,Car
Fix,FLP,37.3909393,-122.094008,-0.6000000238418579,13.634497,7.5,309.97775,1676390905544,0.6908766,2.6930058,426103223142000,1.445481,Car
Fix,GPS,37.3910239115,-122.0941092863,4.651215362151441,12.902518,7.6339345,309.97632,1676390906000,0.6366216,2.6579597,426104223312000,8.371687,Car
Fix,FLP,37.3910212,-122.0941171,-0.6000000238418579,12.915286,7.555,309.0184,1676390906544,0.6366216,2.6579597,426104223312000,1.4554709,Car
Fix,GPS,37.3910977595,-122.0942159647,5.678903530828676,12.018035,7.634988,309.54196,1676390907000,0.6332599,2.81489,426105223169000,8.475355,Car
Fix,FLP,37.3910962,-122.0942227,-0.6000000238418579,12.033599,7.568,308.99997,1676390907544,0.6332599,2.81489,426105223169000,1.4654709,Car
Fix,GPS,37.3911630423,-122.0943098643,7.063179549144152,11.028153,7.715107,309.24084,1676390908000,0.6353004,3.1121778,426106223126000,8.604132,Car
Fix,FLP,37.3911636,-122.0943186,-1.3000000715255735,11.045826,7.633,308.9995,1676390908544,0.6353004,3.1121778,426106223126000,1.5669801,Car
Fix,GPS,37.3912185868,-122.0943990201,7.710766991813482,9.712487,7.6851015,309.5592,1676390909000,0.6328535,3.5204778,426107223208000,8.692962,Car
Fix,FLP,37.391222,-122.0944067,-3.021470321158194,9.735756,7.667,308.99863,1676390909543,0.6328535,3.5204778,426107223208000,1.5769801,Car
Fix,GPS,37.3912661447,-122.0944650366,8.77350320510621,8.324006,7.640745,310.76453,1676390910000,0.6219229,4.031534,426108223232000,8.767439,Car
Fix,FLP,37.3912711,-122.0944775,-3.765205563560979,8.347677,7.662,309.97916,1676390910543,0.6219229,4.031534,426108223232000,1.3256906,Car
Fix,GPS,37.3913085909,-122.0945182405,9.78353763643177,7.4534445,7.557356,311.59793,1676390911000,0.61123145,4.4209185,426109223460000,8.845871,Car
Fix,FLP,37.3913135,-122.0945326,-5.059821686099241,7.4677863,7.646,310.98123,1676390911543,0.61123145,4.4209185,426109223460000,1.326386,Car
Fix,GPS,37.3913441278,-122.0945672947,10.58734411922627,6.1342072,7.5948896,310.1065,1676390912000,0.60712856,5.365848,426110223562000,8.923018,Car
Fix,FLP,37.3913502,-122.0945807,-5.103985209803795,6.155578,7.638,310.018,1676390912544,0.60712856,5.365848,426110223562000,1.336396,Car
Fix,GPS,37.3913738904,-122.0946089534,10.592277893797968,4.784791,7.618327,309.3809,1676390913000,0.6160657,6.8178215,426111223259000,9.015875,Car
Fix,FLP,37.3913794,-122.0946205,-1.3000000715255735,4.80701,7.619,309.01764,1676390913544,0.6160657,6.8178215,426111223259000,1.4645821,Car
Fix,GPS,37.3913962663,-122.0946340974,9.248272281076773,3.6752315,7.596596,309.5555,1676390914000,0.5360247,7.804418,426112223553000,9.046729,Car
Fix,FLP,37.391401,-122.0946472,-1.3000000715255735,3.6892715,7.601,308.9983,1676390914544,0.5360247,7.804418,426112223553000,1.4745921,Car
Fix,GPS,37.3914123707,-122.0946511605,8.62572029724208,2.606586,7.552142,306.52475,1676390915000,0.50227416,10.217369,426113223370000,9.072383,Car
Fix,FLP,37.3914143,-122.0946602,-1.3000000715255735,2.6263237,7.586,306.06873,1676390915544,0.50227416,10.217369,426113223370000,1.545471,Car
Fix,NLP,37.3912683,-122.0945216,-2.299999713897705,,29.292,,1676390915463,,,426113142000000,1.2470359,Car
Fix,GPS,37.391418269,-122.0946518332,7.642020895354155,1.7363061,7.4121094,307.27594,1676390916000,0.45884442,13.95982,426114223323000,9.069818,Car
Fix,FLP,37.3914244,-122.0946683,-2.299999713897705,1.7437216,7.559,306.98273,1676390916544,0.45884442,13.95982,426114223323000,1.2364967,Car
Fix,GPS,37.3914202664,-122.0946530964,6.83571057578242,1.1705699,7.2785892,307.59027,1676390917000,0.40207428,18.079748,426115223321000,9.006872,Car
Fix,FLP,37.3914264,-122.0946671,-2.299999713897705,1.1745539,7.528,306.99622,1676390917544,0.40207428,18.079748,426115223321000,1.3830426,Car
Fix,GPS,37.3914169959,-122.0946503988,6.3838388567234565,0.48884675,7.0749907,307.59027,1676390918000,0.43050316,39.996487,426116223349000,8.893909,Car
Fix,FLP,37.3914239,-122.0946623,-2.299999713897705,0.49377188,7.452,306.96658,1676390918544,0.43050316,39.996487,426116223349000,1.3916423,Car
Fix,GPS,37.3914144008,-122.0946507992,5.689937413761547,0.0,6.9256477,307.59027,1676390919000,0.3992535,135.69743,426117223359000,8.750427,Car
Fix,FLP,37.3914196,-122.0946576,-2.299999713897705,0.002048439,7.393,,1676390919544,0.3992535,,426117223359000,1.4016523,Car
Fix,GPS,37.3914144008,-122.0946507992,5.252704987150271,0.0,6.496231,307.59027,1676390920000,0.39180472,180.0,426118223424000,8.573425,Car
Fix,NLP,37.3914508,-122.0945168,-2.400000095367432,,49.606,,1676390920540,,,426118219000000,1.4425138,Car
Fix,FLP,37.3914189,-122.0946567,-2.400000095367432,0.0017060997,9.095,,1676390920540,0.3992535,,426118219000000,1.3620974,Car
Fix,GPS,37.3914144008,-122.0946507992,3.881022416384846,0.0,6.1045475,307.59027,1676390921000,0.37730268,33.511284,426119223402000,8.046718,Car
Fix,FLP,37.3914151,-122.0946518,-2.400000095367432,2.3618056e-06,8.958,,1676390921544,0.37730268,,426119223402000,1.3444829,Car
Fix,GPS,37.3914144008,-122.0946507992,4.261217331846827,0.0,5.8468447,307.59027,1676390922000,0.3778053,10.681378,426120223721000,7.756359,Car
Fix,FLP,37.3914147,-122.0946512,-2.400000095367432,8.828717e-07,8.719,,1676390922544,0.3778053,,426120223721000,1.3552059,Car
Fix,GPS,37.3914144008,-122.0946507992,4.536970900587525,0.0,5.655842,307.59027,1676390923000,0.3842872,18.19631,426121223424000,7.5293317,Car
Fix,FLP,37.3914145,-122.0946509,-2.400000095367432,3.494362e-07,8.483,,1676390923544,0.3842872,,426121223424000,1.3667707,Car
Fix,GPS,37.3914092064,-122.0946500107,4.771882186803509,0.6577612,5.5773377,307.59027,1676390924000,0.40673104,40.948097,426122223410000,7.379733,Car
Fix,FLP,37.3914111,-122.0946503,-2.400000095367432,0.6517875,8.258,306.97903,1676390924543,0.40673104,40.948097,426122223410000,1.3766807,Car
Fix,GPS,37.3914126327,-122.0946525838,5.300421653845143,1.5495658,5.919341,321.90646,1676390925000,0.4448403,15.30593,426123223465000,7.3153996,Car
Fix,FLP,37.3914134,-122.094654,-2.400000095367432,1.5415087,5.82,320.94492,1676390925544,0.4448403,15.30593,426123223465000,1.3866808,Car
Fix,NLP,37.3914461,-122.0945491,-2.1999998092651367,,38.319,,1676390925591,,,426123270000000,1.4463447,Car
Fix,GPS,37.3914236435,-122.0946623854,5.921344444472517,2.2325056,6.148432,327.3201,1676390926000,0.4759515,11.462792,426124223446000,7.2952332,Car
Fix,FLP,37.3914238,-122.0946633,-2.1999998092651367,2.225323,5.945,326.95505,1676390926544,0.4759515,11.462792,426124223446000,1.3767675,Car
Fix,GPS,37.3914442135,-122.0946821329,5.930295942615846,3.3694966,6.373316,322.78937,1676390927000,0.52214664,8.372445,426125223462000,7.3055897,Car
Fix,FLP,37.3914427,-122.09468,-2.1999998092651367,3.355558,6.006,322.03635,1676390927544,0.52214664,8.372445,426125223462000,1.3868251,Car
Fix,GPS,37.3914754723,-122.094716769,5.5718047021188575,5.080513,6.489783,319.46564,1676390928000,0.571404,6.0364656,426126223480000,7.2991605,Car
Fix,FLP,37.3914719,-122.0947114,-2.1999998092651367,5.055803,6.171,319.02625,1676390928544,0.571404,6.0364656,426126223480000,1.3968289,Car
Fix,GPS,37.3915192487,-122.0947698754,4.7236500892045,6.43879,6.6677036,319.7144,1676390929000,0.56809163,4.7665534,426127223478000,7.359186,Car
Fix,FLP,37.3915138,-122.0947611,-2.1999998092651367,6.419282,6.353,318.99857,1676390929544,0.56809163,4.7665534,426127223478000,1.4068152,Car
Fix,FLP,37.3915521,-122.0948034,-2.1999998092651367,6.4108996,8.254,318.99536,1676390930544,0.56809163,4.7665534,426128223000000,1.6706372,Car
Fix,NLP,37.3914789,-122.0947306,-2.1999998092651367,,34.415,,1676390930544,,,426128223000000,2.4185548,Car
Fix,GPS,37.3915723148,-122.0948264615,4.529612000315898,7.3992796,6.841221,321.4781,1676390930000,0.57524115,4.2148023,426128223502000,7.4770107,Car
Fix,GPS,37.3916288178,-122.0948855711,4.294459225033748,8.3512945,7.0511894,321.88635,1676390931000,0.63472295,4.0076494,426129223713000,7.6345887,Car
Fix,FLP,37.3916225,-122.094878,-2.1999998092651367,8.334737,8.847,320.99762,1676390931544,0.63472295,4.0076494,426129223713000,1.7016861,Car
Fix,GPS,37.3916930581,-122.0949513245,3.9613801214447606,8.829716,7.1232233,320.7272,1676390932000,0.61047333,3.721105,426130223674000,7.7765064,Car
Fix,FLP,37.3916877,-122.0949452,-2.1999998092651367,8.821853,8.972,320.0148,1676390932543,0.61047333,3.721105,426130223674000,1.7220283,Car
Fix,GPS,37.3917578947,-122.095019208,3.936485731684889,9.025317,7.2716804,320.3901,1676390933000,0.6570538,3.883205,426131223554000,8.06593,Car
Fix,FLP,37.3917537,-122.0950148,-2.1999998092651367,9.021675,9.102,320.0,1676390933544,0.6570538,3.883205,426131223554000,1.7323127,Car
Fix,GPS,37.3918229799,-122.0950878115,3.583886649715259,8.930363,7.405058,320.45706,1676390934000,0.6303875,3.7397933,426132223793000,8.28094,Car
Fix,FLP,37.3918198,-122.0950845,-2.1999998092651367,8.932059,9.225,320.00015,1676390934543,0.6303875,3.7397933,426132223793000,1.7424432,Car
Fix,GPS,37.3918895636,-122.0951577201,3.2575863276439208,8.982728,7.431245,320.4565,1676390935000,0.63931054,3.78969,426133223556000,8.497022,Car
Fix,FLP,37.3918858,-122.095154,-2.1999998092651367,8.981973,7.256,319.99997,1676390935544,0.63931054,3.78969,426133223556000,1.7524532,Car
Fix,GPS,37.3919584855,-122.0952281154,3.2292323456124907,9.473523,7.5153046,321.2814,1676390936000,0.6393174,3.5949633,426134223575000,8.720028,Car
Fix,FLP,37.3919536,-122.0952241,-2.1999998092651367,9.464916,7.299,320.98267,1676390936544,0.6393174,3.5949633,426134223575000,1.7624432,Car
Fix,GPS,37.3920284681,-122.0952969104,2.9479354969655684,9.11264,7.585469,322.37375,1676390937000,0.63980925,3.7368681,426135223614000,8.948222,Car
Fix,FLP,37.3920245,-122.0952944,-2.1999998092651367,9.118955,7.388,321.98224,1676390937544,0.63980925,3.7368681,426135223614000,1.7724432,Car
Fix,GPS,37.3920932227,-122.09535902,3.296584745099591,8.465478,7.6165905,323.23178,1676390938000,0.6365476,4.0003276,426136223610000,9.075795,Car
Fix,FLP,37.3920913,-122.0953585,-2.1999998092651367,8.476956,7.51,322.98257,1676390938544,0.6365476,4.0003276,426136223610000,1.8130643,Car
Fix,GPS,37.3921520339,-122.095413599,3.924595700723394,7.7569847,7.7278624,324.01834,1676390939000,0.609805,4.186605,426137223654000,9.162798,Car
Fix,FLP,37.3921521,-122.0954148,-2.1999998092651367,7.768575,7.546,323.98413,1676390939543,0.609805,4.186605,426137223654000,1.8230844,Car
Fix,GPS,37.3922093946,-122.0954632916,4.222861253871235,7.1813483,7.774434,326.03622,1676390940000,0.6259379,4.6098485,426138223643000,9.272669,Car
Fix,FLP,37.392209,-122.0954648,-2.1999998092651367,7.191155,7.643,325.966,1676390940544,0.6259379,4.6098485,426138223643000,1.8330643,Car
Fix,GPS,37.3922649613,-122.0955076717,3.7470366170606697,6.857315,7.7823157,325.94,1676390941000,0.62708396,4.850122,426139223727000,9.406777,Car
Fix,FLP,37.3922639,-122.0955089,-2.1999998092651367,6.863072,7.697,325.01846,1676390941544,0.62708396,4.850122,426139223727000,1.8430543,Car
Fix,GPS,37.3923192222,-122.095552825,4.070742887709265,6.934656,7.723593,324.19138,1676390942000,0.5906469,4.487453,426140223926000,9.254679,Car
Fix,FLP,37.392317,-122.0955531,-2.1999998092651367,6.933642,7.725,324.01508,1676390942544,0.5906469,4.487453,426140223926000,1.8530643,Car
Fix,GPS,37.3923727199,-122.0956016334,3.888595623823407,6.784471,7.7062683,323.07474,1676390943000,0.5837582,4.53515,426141223687000,9.174342,Car
Fix,FLP,37.3923703,-122.0956005,-2.1999998092651367,6.7867484,7.742,323.0157,1676390943544,0.5837582,4.53515,426141223687000,1.8648783,Car
Fix,GPS,37.3924227755,-122.0956469968,3.9946853186182767,6.5482106,7.6590023,323.18936,1676390944000,0.5902411,4.7981677,426142223817000,9.156206,Car
Fix,FLP,37.3924211,-122.0956469,-2.1999998092651367,6.5518737,7.729,323.00104,1676390944544,0.5902411,4.7981677,426142223817000,1.8748783,Car
Fix,FLP,37.3924675,-122.0956904,-2.1999998092651367,5.9703817,7.72,323.00162,1676390945544,0.5867354,5.2520432,426143223891000,1.8848583,Car
Fix,GPS,37.3924668853,-122.0956894861,4.301499787230935,5.9615006,7.7322206,323.40237,1676390945000,0.5867354,5.2520432,426143223891000,9.213642,Car
Fix,GPS,37.3925051777,-122.0957238387,4.844750204786882,5.2680483,7.798132,324.94708,1676390946000,0.60732687,6.118575,426144223941000,9.333183,Car
Fix,FLP,37.3925076,-122.0957272,-2.1999998092651367,5.2792196,7.723,323.9849,1676390946544,0.60732687,6.118575,426144223941000,1.8948683,Car
Fix,GPS,37.3925380731,-122.0957502631,5.269241615840648,4.5315094,7.9095345,326.60614,1676390947000,0.60059845,7.032181,426145224453000,9.4162,Car
Fix,FLP,37.3925419,-122.095756,-2.1999998092651367,4.5430474,7.761,325.96802,1676390947545,0.60059845,7.032181,426145224453000,1.9048983,Car
Fix,GPS,37.3925663504,-122.0957685544,5.03294673714182,3.5947978,7.900719,326.86612,1676390948000,0.5974812,8.860699,426146223765000,9.544612,Car
Fix,FLP,37.3925708,-122.0957762,-2.1999998092651367,3.609521,7.8,326.00577,1676390948543,0.5974812,8.860699,426146223765000,1.8820382,Car
Fix,GPS,37.3925843917,-122.0957811679,4.56695688016586,2.5978084,7.7728186,326.8379,1676390949000,0.5390208,10.857921,426147223835000,9.588272,Car
Fix,FLP,37.3925905,-122.0957895,-2.1999998092651367,2.6104145,7.822,326.00916,1676390949544,0.5390208,10.857921,426147223835000,1.8920482,Car
Fix,GPS,37.3925957934,-122.0957890142,4.376377902323868,1.8374124,7.6955214,326.64346,1676390950000,0.49052858,13.808874,426148223812000,9.650899,Car
Fix,FLP,37.3926023,-122.0957969,-2.1999998092651367,1.8453519,7.801,326.009,1676390950544,0.49052858,13.808874,426148223812000,1.9020382,Car
Fix,GPS,37.3926019074,-122.0957935041,4.365249217009939,0.9478843,7.740262,326.64346,1676390951000,0.5183152,45.93316,426149224105000,9.726384,Car
Fix,FLP,37.3926085,-122.0958005,-2.1999998092651367,0.9645474,7.804,325.87112,1676390951545,0.5183152,45.93316,426149224105000,1.9120282,Car
Fix,GPS,37.3926012821,-122.0957920362,4.642246924030572,0.47873628,7.79297,326.64346,1676390952000,0.4688267,59.069626,426150223848000,9.760326,Car
Fix,FLP,37.392608,-122.0957988,-2.1999998092651367,0.48380023,7.802,325.99213,1676390952544,0.4688267,59.069626,426150223848000,1.9220482,Car
Fix,GPS,37.392598288,-122.0957881018,4.679253116718988,0.5137776,7.7928247,326.64346,1676390953000,0.4529325,73.46188,426151223840000,9.728357,Car
Fix,FLP,37.3926046,-122.0957946,-2.1999998092651367,0.5132392,7.759,326.00916,1676390953544,0.4529325,73.46188,426151223840000,1.9320883,Car
Fix,GPS,37.3925961523,-122.0957853192,4.628442590895569,0.0,7.696826,326.64346,1676390954000,0.44680843,61.326984,426152223838000,9.567712,Car
Fix,FLP,37.3926018,-122.0957911,-2.1999998092651367,0.002833286,7.743,,1676390954544,0.44680843,,426152223838000,1.9420382,Car
Fix,NLP,37.3927132,-122.095367,-4.0,,27.247,,1676390954418,,,426152097000000,4.739203,Car
Fix,GPS,37.3925961523,-122.0957853192,4.912374489824445,0.0,7.320649,326.64346,1676390955000,0.43622226,23.150854,426153223923000,9.046277,Car
Fix,FLP,37.3925979,-122.0957871,-4.0,4.0352047e-06,7.673,,1676390955544,0.43622226,,426153223923000,1.9562695,Car
Fix,GPS,37.3925961523,-122.0957853192,4.834094376933281,0.0,6.9752264,326.64346,1676390956000,0.42894712,9.407669,426154223929000,8.799402,Car
Fix,FLP,37.3925969,-122.0957861,-4.0,3.030456e-06,7.573,,1676390956544,0.42894712,,426154223929000,1.9662795,Car
Fix,GPS,37.3925967679,-122.095785911,4.827101762631948,0.6463613,6.7206674,326.64346,1676390957000,0.4366422,12.47216,426155224141000,8.593515,Car
Fix,FLP,37.3925969,-122.095786,-4.0,0.64275986,7.367,325.9194,1676390957545,0.4366422,12.47216,426155224141000,1.9856309,Car
Fix,GPS,37.392599981,-122.0957873538,4.752337010199426,0.72602445,6.913602,326.64346,1676390958000,0.45082885,21.403795,426156223898000,8.523512,Car
Fix,FLP,37.3926007,-122.0957886,-4.0,0.7254359,7.22,325.99258,1676390958544,0.45082885,21.403795,426156223898000,1.9956409,Car
Fix,NLP,37.3925837,-122.0955667,-0.6999999284744263,,38.898,,1676390959402,,,426157082000000,3.8133419,Car
Fix,FLP,37.3926046,-122.0957917,-4.0,0.7248834,8.77,325.9879,1676390959403,0.45082885,21.403795,426157082000000,1.9829917,Car
Fix,GPS,37.3926006279,-122.0957920232,4.685059750881876,0.48032036,7.0692444,326.64346,1676390959000,0.45167926,42.878937,426157223913000,8.426355,Car
Fix,FLP,37.3926027,-122.0957921,-4.0,0.4821008,8.844,326.0015,1676390959543,0.45167926,42.878937,426157223913000,1.9849688,Car
Fix,GPS,37.3925975101,-122.0957943719,5.284430769574129,0.41291645,7.2012796,326.64346,1676390960000,0.43281865,81.04577,426158223945000,8.431265,Car
Fix,FLP,37.3926015,-122.0957947,-4.0,0.41370687,8.824,325.98517,1676390960544,0.43281865,81.04577,426158223945000,1.9932472,Car
Fix,GPS,37.3925935622,-122.095800421,5.174575674744326,0.0,7.167206,326.64346,1676390961000,0.4260722,44.25877,426159224074000,8.233563,Car
Fix,FLP,37.3925985,-122.095799,-4.0,0.0020856077,8.856,,1676390961545,0.4260722,,426159224074000,2.0030668,Car
Fix,GPS,37.3925935622,-122.095800421,4.151584785123585,0.0,6.78904,326.64346,1676390962000,0.42031512,117.16105,426160223981000,7.8445883,Car
Fix,FLP,37.3925956,-122.0957998,-4.0,4.0055234e-06,8.561,,1676390962544,0.42031512,,426160223981000,2.0125766,Car
Fix,GPS,37.3925935622,-122.095800421,3.5557588625772385,0.0,6.5033526,326.64346,1676390963000,0.4207599,180.0,426161224146000,7.572296,Car
Fix,FLP,37.3925944,-122.0958002,-4.0,3.406221e-06,8.799,,1676390963545,0.4207599,,426161224146000,2.0226765,Car
Fix,FLP,37.3925943,-122.0958002,-4.0,6.192676e-05,8.78,,1676390964426,0.4207599,,426162105000000,2.018498,Car
Fix,NLP,37.3925747,-122.0955726,-1.3000000715255735,,48.851,,1676390964426,,,426162105000000,3.5198355,Car
Fix,GPS,37.3925935622,-122.095800421,3.5757883993433057,0.0,6.3081594,326.64346,1676390964000,0.43358964,180.0,426162223998000,7.3570027,Car
Fix,FLP,37.3925939,-122.0958003,-4.0,2.7142829e-05,8.653,,1676390964544,0.43358964,,426162223998000,2.0202677,Car
Fix,GPS,37.3925935622,-122.095800421,4.015446334722005,0.0,6.137892,326.64346,1676390965000,0.43667394,180.0,426163224052000,7.160957,Car
Fix,FLP,37.3925937,-122.0958004,-4.0,8.2419547e-07,8.476,,1676390965545,0.43667394,,426163224052000,2.0281882,Car
Fix,GPS,37.3925935622,-122.095800421,4.510953879726051,0.0,5.998789,326.64346,1676390966000,0.42723066,180.0,426164224119000,6.994076,Car
Fix,FLP,37.3925936,-122.0958004,-4.0,2.4679196e-07,8.281,,1676390966545,0.42723066,,426164224119000,2.0365763,Car
Fix,GPS,37.3925935622,-122.095800421,4.924776471741394,0.0,5.8663907,326.64346,1676390967000,0.4206978,180.0,426165224395000,6.832142,Car
Fix,FLP,37.3925936,-122.0958004,-4.0,8.8543594e-08,8.128,,1676390967545,0.4206978,,426165224395000,2.0459728,Car
Fix,GPS,37.3925935622,-122.095800421,5.245599687104712,0.0,5.7656975,326.64346,1676390968000,0.42211863,49.29704,426166224090000,6.687235,Car
Fix,FLP,37.3925936,-122.0958004,-4.0,3.2713388e-08,7.79,,1676390968545,0.42211863,,426166224090000,2.045347,Car
Fix,NLP,37.3926047,-122.0954739,-1.3000000715255735,,51.831,,1676390969466,,,426167145000000,10.202934,Car
Fix,FLP,37.3925936,-122.0958004,-3.712217419065709,4.9678476e-07,7.969,,1676390969466,0.42211863,,426167145000000,2.2481036,Car
Fix,GPS,37.3925935622,-122.095800421,5.398750684771019,0.0,5.707896,326.64346,1676390969000,0.4325906,59.339077,426167224104000,6.569187,Car
Fix,FLP,37.3925936,-122.0958004,-3.717293222701869,1.6046795e-07,7.869,,1676390969545,0.4325906,,426167224104000,2.2485583,Car
Fix,GPS,37.3925935622,-122.095800421,5.626477952679421,0.0,5.6514425,326.64346,1676390970000,0.434258,102.936844,426168224117000,6.468013,Car
Fix,FLP,37.3925936,-122.0958004,-3.756884386463476,5.7628466e-09,7.787,,1676390970545,0.434258,,426168224117000,2.2536538,Car
Fix,GPS,37.3925935622,-122.095800421,5.7545842048142894,0.0,5.6089306,326.64346,1676390971000,0.42700723,38.070686,426169224105000,6.3969517,Car
Fix,FLP,37.3925936,-122.0958004,-3.8218540995397774,1.6812585e-09,7.476,,1676390971545,0.42700723,,426169224105000,2.2597024,Car
Fix,GPS,37.3925935622,-122.095800421,5.613996671696233,0.0,5.575256,326.64346,1676390972000,0.4408933,91.29726,426170224387000,6.341575,Car
Fix,FLP,37.3925936,-122.0958004,-3.864997773736992,6.224224e-10,7.416,,1676390972545,0.4408933,,426170224387000,2.267651,Car
Fix,GPS,37.3925935622,-122.095800421,5.54800587645444,0.0,5.5601826,326.64346,1676390973000,0.4356677,172.37064,426171224159000,6.2940607,Car
Fix,FLP,37.3925936,-122.0958004,-3.881747611440609,2.312981e-10,7.64,,1676390973545,0.4356677,,426171224159000,2.277631,Car
Fix,FLP,37.3925936,-122.0958004,-3.881747611440609,3.049639e-09,7.674,,1676390974498,0.4356677,,426172177000000,2.6052501,Car
Fix,NLP,37.3927188,-122.0957475,-1.3000000715255735,,116.1,,1676390974498,,,426172177000000,14.467153,Car
Fix,GPS,37.3925935622,-122.095800421,5.505793765850958,0.0,5.5516367,326.64346,1676390974000,0.43417126,166.42166,426172224146000,6.2522902,Car
Fix,GPS,37.3925935622,-122.095800421,5.480819791029472,0.0,5.5343056,326.64346,1676390975000,0.41477445,171.76056,426173224175000,6.1973925,Car
Fix,FLP,37.3925936,-122.0958004,-3.885808173157845,2.80504e-11,7.629,,1676390975545,0.41477445,,426173224175000,2.614559,Car
Fix,GPS,37.3925935622,-122.095800421,5.358867463060089,0.0,5.51656,326.64346,1676390976000,0.42367288,72.285904,426174224194000,6.149068,Car
Fix,FLP,37.3925936,-122.0958004,-3.853831196830015,8.362e-12,7.614,,1676390976545,0.42367288,,426174224194000,2.73896,Car
Fix,GPS,37.3925935622,-122.095800421,5.287651854331489,0.0,5.490008,326.64346,1676390977000,0.4170281,35.035316,426175224385000,6.110781,Car
Fix,FLP,37.3925936,-122.0958004,-3.851800908534948,2.984e-12,7.31,,1676390977545,0.4170281,,426175224385000,2.7531419,Car
Fix,GPS,37.3925935622,-122.095800421,5.341774520624651,0.0,5.4764853,326.64346,1676390978000,0.4185911,180.0,426176224321000,6.063415,Car
Fix,FLP,37.3925936,-122.0958004,-3.833528291935554,1.0273e-12,7.585,,1676390978545,0.4185911,,426176224321000,2.7631419,Car
Fix,NLP,37.3928374,-122.0958241,-4.199999809265137,,116.1,,1676390979511,,,426177190000000,12.127045,Car
Fix,FLP,37.3925936,-122.0958004,-4.199999809265137,1.46555e-11,7.599,,1676390979511,0.4185911,,426177190000000,8.169367,Car
Fix,GPS,37.3925935622,-122.095800421,5.355502008077228,0.0,5.4754324,326.64346,1676390979000,0.43150085,180.0,426177224217000,6.0162053,Car
Fix,GPS,37.3925935622,-122.095800421,5.343760252182865,0.0,5.473929,326.64346,1676390980000,0.42714104,136.65025,426178224278000,5.975095,Car
Fix,FLP,37.3925936,-122.0958004,-4.199999809265137,1.483e-13,7.576,,1676390980545,0.42714104,,426178224278000,8.215259,Car
Fix,GPS,37.3925935622,-122.095800421,5.292825941236456,0.0,5.488031,326.64346,1676390981000,0.447754,102.5678,426179224284000,5.9495707,Car
Fix,FLP,37.3925936,-122.0958004,-4.199999809265137,5.08e-14,7.572,,1676390981545,0.447754,,426179224284000,5.2544727,Car
Fix,GPS,37.3925935622,-122.095800421,5.266715324064769,0.0,5.5099497,326.64346,1676390982000,0.4415357,180.0,426180224868000,5.9228196,Car
Fix,FLP,37.3925936,-122.0958004,-4.199999809265137,1.89e-14,7.575,,1676390982545,0.4415357,,426180224868000,5.264483,Car
Fix,GPS,37.3925935622,-122.095800421,5.23677841028142,0.0,5.515427,326.64346,1676390983000,0.46170193,180.0,426181224473000,5.89874,Car
Fix,FLP,37.3925936,-122.0958004,-4.199999809265137,7.1e-15,7.581,,1676390983545,0.46170193,,426181224473000,5.239194,Car
Fix,NLP,37.3926994,-122.0954645,-4.0,,77.6,,1676390984561,,,426182240000000,6.476497,Car
Fix,GPS,37.3925935622,-122.095800421,5.271701278438751,0.0,5.5162444,326.64346,1676390984000,0.4719418,44.032787,426182224385000,5.876141,Car
Fix,FLP,37.3925936,-122.0958004,-4.0,9.09e-14,8.14,,1676390984561,0.46170193,,426182240000000,5.499599,Car
Fix,GPS,37.3925935622,-122.095800421,5.340944011383806,0.0,5.509148,326.64346,1676390985000,0.47318882,116.05371,426183224319000,5.8502755,Car
Fix,FLP,37.3925936,-122.0958004,-4.0,5.76e-14,7.742,,1676390985545,0.47318882,,426183224319000,5.494592,Car
Fix,GPS,37.3925935622,-122.095800421,5.3818501285651,0.0,5.5427403,326.64346,1676390986000,0.47802976,180.0,426184224346000,5.835425,Car
Fix,FLP,37.3925936,-122.0958004,-4.0,7e-16,7.751,,1676390986545,0.47802976,,426184224346000,5.4962835,Car
Fix,GPS,37.3925935622,-122.095800421,5.460523590464555,0.0,5.9919524,326.64346,1676390987000,0.4903535,180.0,426185224785000,5.8205395,Car
Fix,FLP,37.3925936,-122.0958004,-4.0,1e-16,7.5,,1676390987545,0.4903535,,426185224785000,5.496538,Car
Fix,GPS,37.3925935622,-122.095800421,5.517335223008373,0.0,7.3080916,326.64346,1676390988000,0.52119744,120.02477,426186224363000,5.805903,Car
Fix,FLP,37.3925936,-122.0958004,-4.0,0.0,7.757,,1676390988545,0.52119744,,426186224363000,5.5067563,Car
Fix,GPS,37.3925935622,-122.095800421,5.600034446768589,0.0,5.9923863,326.64346,1676390989000,0.5023547,180.0,426187224393000,5.7943463,Car
Fix,NLP,37.3927318,-122.0955453,-1.399999976158142,,40.627,,1676390989575,,,426187254000000,4.0678015,Car
Fix,FLP,37.3925936,-122.0958004,-4.0,5e-16,9.009,,1676390989575,0.52119744,,426187254000000,5.3986044,Car
Fix,GPS,37.3925935622,-122.095800421,5.639489731679269,0.0,5.992603,326.64346,1676390990000,0.4895534,52.975338,426188224453000,5.7832475,Car
Fix,FLP,37.3925936,-122.0958004,-4.0,3e-16,8.65,,1676390990545,0.4895534,,426188224453000,5.407917,Car
Fix,GPS,37.3925935622,-122.095800421,5.662408199375791,0.0,5.658479,326.64346,1676390991000,0.47860327,51.957615,426189224493000,5.771155,Car
Fix,FLP,37.3925936,-122.0958004,-4.0,0.0,8.67,,1676390991545,0.47860327,,426189224493000,5.4176273,Car
Fix,GPS,37.3925935622,-122.095800421,5.757794021330611,0.0,5.654375,326.64346,1676390992000,0.4747004,26.240038,426190224871000,5.7567186,Car
Fix,FLP,37.3925936,-122.0958004,-4.0,0.0,8.613,,1676390992545,0.4747004,,426190224871000,5.42742,Car
Fix,GPS,37.3925935622,-122.095800421,5.8563281484779495,0.0,5.659552,326.64346,1676390993000,0.47532332,75.877884,426191224457000,5.742935,Car
Fix,FLP,37.3925936,-122.0958004,-4.0,0.0,8.339,,1676390993545,0.47532332,,426191224457000,5.4374824,Car
Fix,GPS,37.3925935622,-122.095800421,5.866399800502019,0.0,5.679329,326.64346,1676390994000,0.42904824,49.217293,426192224499000,5.7198644,Car
Fix,FLP,37.3925936,-122.0958004,-4.0,0.0,8.222,,1676390994545,0.42904824,,426192224499000,5.4474225,Car
Fix,NLP,37.3926162,-122.0956139,-1.3000000715255735,,40.478,,1676390994577,,,426192256000000,6.155497,Car
Fix,GPS,37.3925935622,-122.095800421,5.927254521002306,0.0,5.691837,326.64346,1676390995000,0.44796145,37.067722,426193224493000,5.704354,Car
Fix,FLP,37.3925936,-122.0958004,-4.0,0.0,5.738,,1676390995545,0.44796145,,426193224493000,5.3917656,Car
Fix,GPS,37.3925992454,-122.0957976428,6.013324043718496,0.51466835,5.656422,326.64346,1676390996000,0.42140183,11.311349,426194224510000,5.6373935,Car
Fix,FLP,37.3925972,-122.0957986,-4.0,0.51209277,5.738,325.92203,1676390996544,0.42140183,11.311349,426194224510000,5.4022603,Car
Fix,GPS,37.3926062617,-122.0958005027,6.22070839398924,1.024021,6.1084313,322.17215,1676390997000,0.44691014,23.278671,426195224521000,5.7124376,Car
Fix,FLP,37.3926042,-122.0958011,-4.0,1.0194813,5.791,322.0141,1676390997545,0.44691014,23.278671,426195224521000,5.412356,Car
Fix,GPS,37.3926175059,-122.0958060693,6.407261861900188,1.3312126,6.4398623,328.04474,1676390998000,0.46990955,18.639837,426196224549000,5.84108,Car
Fix,FLP,37.392615,-122.095807,-4.0,1.3280958,5.943,327.95322,1676390998545,0.46990955,18.639837,426196224549000,5.4095263,Car
Fix,GPS,37.3926320473,-122.0958145424,6.823666960044228,1.826061,6.6455855,322.58072,1676390999000,0.4935567,14.435214,426197224597000,5.991933,Car
Fix,FLP,37.3926291,-122.0958147,-4.0,1.820675,6.105,322.04437,1676390999545,0.4935567,14.435214,426197224597000,5.419536,Car
Fix,NLP,37.3926183,-122.0954523,-3.299999713897705,,36.938,,1676390999636,,,426197316000000,3.7283967,Car
Fix,FLP,37.3926308,-122.0958154,-3.299999713897705,1.8207184,6.396,322.048,1676390999637,0.4935567,14.435214,426197316000000,4.7960677,Car
Fix,GPS,37.3926491549,-122.0958293256,7.140323092300704,2.3343155,6.8910265,320.1994,1676391000000,0.49467337,11.31338,426198224567000,6.1395373,Car
Fix,FLP,37.3926463,-122.0958284,-3.299999713897705,2.329078,6.595,320.01932,1676391000545,0.49467337,11.31338,426198224567000,4.7911644,Car
Fix,GPS,37.3926749774,-122.0958547297,6.9250264361954486,3.6813698,6.991212,316.50388,1676391001000,0.52338684,7.659251,426199225026000,6.272213,Car
Fix,FLP,37.3926695,-122.0958506,-3.299999713897705,3.6650028,6.818,316.0308,1676391001546,0.52338684,7.659251,426199225026000,4.780557,Car
Fix,GPS,37.3927082048,-122.095895447,5.787303149874254,4.475136,7.083906,315.34906,1676391002000,0.53362525,6.4427567,426200224609000,6.4202156,Car
Fix,FLP,37.3927016,-122.0958884,-3.299999713897705,4.465042,6.981,315.01083,1676391002545,0.53362525,6.4427567,426200224609000,4.790547,Car
Fix,GPS,37.3927469691,-122.095942827,4.659917666341824,5.299456,7.165537,312.50742,1676391003000,0.5782818,5.851689,426201224607000,6.625519,Car
Fix,FLP,37.3927395,-122.0959346,-3.299999713897705,5.2872796,7.102,312.03842,1676391003545,0.5782818,5.851689,426201224607000,4.7975416,Car
Fix,GPS,37.3927923123,-122.0960003887,3.854429846132605,6.294029,7.187751,312.42844,1676391004000,0.6082753,5.1792693,426202224617000,6.87168,Car
Fix,FLP,37.3927831,-122.095991,-3.299999713897705,6.2780266,7.192,312.0019,1676391004545,0.6082753,5.1792693,426202224617000,4.807522,Car
Fix,NLP,37.3929835,-122.0961513,-4.199999809265137,,62.088,,1676391004667,,,426202346000000,2.920897,Car
Fix,FLP,37.3927891,-122.0959983,-4.199999809265137,6.2785153,7.347,312.0036,1676391004667,0.6082753,5.1792693,426202346000000,4.5005317,Car
Fix,GPS,37.3928448628,-122.0960621055,3.583693067595027,7.2720685,7.220783,315.12286,1676391005000,0.6600394,4.7883296,426203224586000,7.111134,Car
Fix,FLP,37.3928348,-122.0960543,-4.199999809265137,7.2560186,7.402,314.9566,1676391005545,0.6600394,4.7883296,426203224586000,4.5088377,Car
Fix,GPS,37.3929024143,-122.0961307824,3.2130272765396986,8.071109,7.2580433,315.28186,1676391006000,0.6683551,4.3600655,426204224615000,7.3046703,Car
Fix,FLP,37.3928928,-122.0961226,-4.199999809265137,8.056001,7.381,314.99985,1676391006544,0.6683551,4.3600655,426204224615000,4.518858,Car
Fix,GPS,37.3929646897,-122.0962080911,3.48889139804254,8.758232,7.287439,314.9391,1676391007000,0.646226,3.941298,426205224617000,7.4520206,Car
Fix,FLP,37.3929555,-122.0961988,-4.199999809265137,8.74592,7.48,314.01718,1676391007545,0.646226,3.941298,426205224617000,4.611787,Car
Fix,GPS,37.3930315984,-122.0962868412,3.0105853983523416,9.542991,7.3671427,316.10532,1676391008000,0.6842121,3.7690845,426206224629000,7.694338,Car
Fix,FLP,37.393022,-122.0962792,-4.199999809265137,9.527365,7.514,315.96393,1676391008545,0.6842121,3.7690845,426206224629000,4.6225157,Car
Fix,GPS,37.3931003407,-122.0963679186,2.0984804993478754,9.497964,7.412053,314.6059,1676391009000,0.6779267,3.768492,426207224706000,7.915053,Car
Fix,FLP,37.3930927,-122.0963617,-4.199999809265137,9.498754,7.551,314.03912,1676391009545,0.6779267,3.768492,426207224706000,4.632116,Car
Fix,NLP,37.39253,-122.0967905,-4.400000095367432,,110.0,,1676391009691,,,426207370000000,10.528577,Car
Fix,FLP,37.3931011,-122.0963715,-4.400000095367432,9.498265,7.64,314.04077,1676391009691,0.6779267,3.768492,426207370000000,5.298554,Car
Fix,GPS,37.3931735016,-122.0964512788,1.1965091118406206,10.441315,7.476468,316.38248,1676391010000,0.653628,3.3493242,426208225043000,8.146733,Car
Fix,FLP,37.3931637,-122.0964451,-4.400000095367432,10.426387,7.683,315.97128,1676391010546,0.653628,3.3493242,426208225043000,5.4694324,Car
Fix,GPS,37.3932521033,-122.0965414064,1.596660899851142,10.844921,7.390622,316.25546,1676391011000,0.59023476,2.9471498,426209224749000,8.296387,Car
Fix,FLP,37.3932426,-122.0965349,-4.400000095367432,10.838814,7.705,315.99997,1676391011545,0.59023476,2.9471498,426209224749000,5.5448294,Car
Fix,GPS,37.3933305499,-122.0966358928,1.7837242164705855,11.706516,7.3270693,316.1823,1676391012000,0.5905867,2.7317867,426210224721000,8.429097,Car
Fix,FLP,37.3933226,-122.0966289,-4.400000095367432,11.693385,7.712,316.00006,1676391012545,0.5905867,2.7317867,426210224721000,5.5488496,Car
Fix,GPS,37.3934144364,-122.0967378871,1.6202422763974054,12.298632,7.299732,315.30276,1676391013000,0.59642315,2.6062083,426211225096000,8.457991,Car
Fix,FLP,37.3934072,-122.0967304,-4.400000095367432,12.2894,7.701,315.01492,1676391013546,0.59642315,2.6062083,426211225096000,5.5509663,Car
Fix,GPS,37.3935000298,-122.0968491674,1.432613282986299,12.687673,7.2398624,314.44647,1676391014000,0.5904403,2.4863338,426212224735000,8.366395,Car
Fix,FLP,37.3934936,-122.0968402,-4.400000095367432,12.681816,7.672,314.01498,1676391014545,0.5904403,2.4863338,426212224735000,5.5604563,Car
Fix,GPS,37.3935841711,-122.0969621307,1.2224462008723158,12.975178,7.2156687,312.9834,1676391015000,0.595354,2.4348814,426213224787000,8.291853,Car
Fix,FLP,37.3935792,-122.0969539,-4.400000095367432,12.970696,7.325,312.0303,1676391015545,0.595354,2.4348814,426213224787000,5.5704565,Car
Fix,GPS,37.3936642011,-122.0970811186,1.2439109679959293,13.070783,7.1698513,312.06464,1676391016000,0.5896348,2.4337192,426214224787000,8.226535,Car
Fix,FLP,37.3936612,-122.0970732,-4.400000095367432,13.069416,7.25,312.00027,1676391016545,0.5896348,2.4337192,426214224787000,5.5804663,Car
Fix,GPS,37.39374459,-122.097200827,1.0477140886825076,13.105457,7.1049857,310.73737,1676391017000,0.60552007,2.48675,426215225083000,8.048932,Car
Fix,FLP,37.3937425,-122.0971931,-4.400000095367432,13.104833,7.206,310.03177,1676391017546,0.60552007,2.48675,426215225083000,5.5904465,Car
Fix,GPS,37.3938202539,-122.0973198837,1.5391412912636682,13.2307,7.180888,309.1484,1676391018000,0.63365185,2.5823853,426216224940000,8.069537,Car
Fix,FLP,37.3938194,-122.0973141,-4.400000095367432,13.228516,7.202,309.01776,1676391018545,0.63365185,2.5823853,426216224940000,5.600456,Car
Fix,GPS,37.3938963479,-122.0974453678,1.9010873417031775,13.571197,7.149168,307.3204,1676391019000,0.6099085,2.4249825,426217224838000,7.983748,Car
Fix,FLP,37.3938954,-122.0974389,-4.400000095367432,13.565475,7.164,307.032,1676391019545,0.6099085,2.4249825,426217224838000,5.6104665,Car
Fix,GPS,37.3939684054,-122.0975783791,2.415984321733664,13.774073,7.1121554,305.32324,1676391020000,0.6038198,2.3670933,426218225108000,7.931962,Car
Fix,FLP,37.3939686,-122.0975711,-4.400000095367432,13.770565,7.143,305.03168,1676391020546,0.6038198,2.3670933,426218225108000,5.620466,Car
Fix,GPS,37.3940379577,-122.0977108029,2.849035277487993,13.970856,7.1161404,304.11295,1676391021000,0.5967305,2.3051457,426219224869000,7.886805,Car
Fix,FLP,37.3940388,-122.0977056,-4.400000095367432,13.967667,7.132,304.01572,1676391021545,0.5967305,2.3051457,426219224869000,5.6304564,Car
Fix,GPS,37.3941075456,-122.0978503475,3.267208322470638,14.173444,7.16073,302.9767,1676391022000,0.5990621,2.284699,426220224931000,7.857009,Car
Fix,FLP,37.3941082,-122.0978443,-4.400000095367432,14.16995,7.137,302.031,1676391022545,0.5990621,2.284699,426220224931000,5.640456,Car
Fix,GPS,37.3941765223,-122.0979929903,3.3062568308749327,14.399363,7.2330475,301.54205,1676391023000,0.62667954,2.3614872,426221225158000,7.8793206,Car
Fix,FLP,37.3941762,-122.0979874,-4.400000095367432,14.395324,7.154,301.0175,1676391023546,0.62667954,2.3614872,426221225158000,5.6504664,Car
Fix,GPS,37.3942444392,-122.09814104,3.5270561721661218,14.604348,7.3427095,299.94818,1676391024000,0.63327354,2.3593333,426222225172000,7.9418797,Car
Fix,FLP,37.3942437,-122.0981348,-4.400000095367432,14.600386,7.193,299.03482,1676391024546,0.63327354,2.3593333,426222225172000,5.660446,Car
Fix,GPS,37.3943109604,-122.0982959223,3.847719821090288,14.630153,7.4172297,299.13663,1676391025000,0.61607975,2.294004,426223225186000,8.034067,Car
Fix,FLP,37.3943094,-122.0982884,-4.400000095367432,14.629825,7.254,299.00043,1676391025546,0.61607975,2.294004,426223225186000,5.6704464,Car
Fix,GPS,37.3943809721,-122.0984530093,3.515618400138815,14.695717,7.4257007,299.35748,1676391026000,0.6004192,2.2021754,426224224918000,8.08859,Car
Fix,FLP,37.3943775,-122.0984441,-4.400000095367432,14.69487,7.316,299.00003,1676391026544,0.6004192,2.2021754,426224224918000,5.680456,Car
Fix,GPS,37.3944512919,-122.0986098727,2.799436482058109,14.752939,7.328323,299.37872,1676391027000,0.58957523,2.1738808,426225225250000,8.110298,Car
Fix,FLP,37.394447,-122.0986009,-4.400000095367432,14.752243,7.349,299.00006,1676391027546,0.58957523,2.1738808,426225225250000,5.6904564,Car
Fix,GPS,37.3945211888,-122.0987614492,2.1351287792669247,15.2207985,7.3156085,299.0476,1676391028000,0.59795785,2.1209204,426226224963000,8.151215,Car
Fix,FLP,37.3945168,-122.098755,-4.400000095367432,15.213471,7.343,299.00082,1676391028545,0.59795785,2.1209204,426226224963000,5.700456,Car
Fix,GPS,37.3945874458,-122.0989195241,1.7313171974818715,15.4835205,7.1338935,298.4219,1676391029000,0.5883494,2.079603,426227225016000,8.097052,Car
Fix,FLP,37.3945856,-122.0989135,-4.400000095367432,15.479312,7.327,298.0152,1676391029546,0.5883494,2.079603,426227225016000,5.7104564,Car
Fix,FLP,37.394652,-122.0990737,-4.400000095367432,15.3803625,7.257,298.00003,1676391030545,0.5922297,2.115179,426228225265000,5.720466,Car
Fix,GPS,37.3946527396,-122.0990777616,1.5748383283965173,15.378678,7.083434,298.32132,1676391030000,0.5922297,2.115179,426228225265000,8.078722,Car
Fix,GPS,37.394717609,-122.0992326584,0.913942997460884,15.258866,7.0784397,297.73087,1676391031000,0.58954275,2.1201231,426229225264000,8.078045,Car
Fix,FLP,37.3947173,-122.0992304,-4.400000095367432,15.260708,7.187,297.01523,1676391031546,0.58954275,2.1201231,426229225264000,5.7304564,Car
Fix,GPS,37.3947826039,-122.099386856,0.3364330791668895,15.1118,7.229486,298.11655,1676391032000,0.6225663,2.2016597,426230225237000,8.205,Car
Fix,FLP,37.3947813,-122.0993858,-4.400000095367432,15.114504,7.194,297.98337,1676391032546,0.6225663,2.2016597,426230225237000,5.740456,Car
Fix,GPS,37.3948526321,-122.099541684,-1.4162082376475948,15.06947,7.236395,299.13818,1676391033000,0.60043067,2.171173,426231225315000,8.171718,Car
Fix,FLP,37.3948493,-122.0995396,-4.400000095367432,15.070339,7.152,298.98407,1676391033546,0.60043067,2.171173,426231225315000,5.7504663,Car
Fix,GPS,37.3949205394,-122.0996996997,-2.0854602157565933,15.398804,7.3182306,298.2857,1676391034000,0.62051415,2.2080805,426232225061000,8.215766,Car
Fix,FLP,37.394918,-122.0996949,-4.400000095367432,15.393098,7.188,298.01675,1676391034546,0.62051415,2.2080805,426232225061000,5.760456,Car
Fix,GPS,37.3949888952,-122.0998623288,-3.567713782116156,15.854455,7.3358383,299.95193,1676391035000,0.59475404,2.0368736,426233225301000,8.227348,Car
Fix,FLP,37.3949863,-122.0998563,-4.400000095367432,15.847356,7.239,298.9859,1676391035546,0.59475404,2.0368736,426233225301000,5.7704663,Car
Fix,GPS,37.3950614626,-122.1000250102,-3.6297125586986607,16.110165,7.2930565,300.06607,1676391036000,0.6141045,2.0772734,426234225124000,8.249226,Car
Fix,FLP,37.3950588,-122.1000198,-4.400000095367432,16.105907,7.248,299.98386,1676391036546,0.6141045,2.0772734,426234225124000,5.7804465,Car
Fix,GPS,37.3951364153,-122.1001882412,-4.161849365640477,16.242191,7.292803,300.30777,1676391037000,0.6158625,2.0661645,426235225721000,8.255616,Car
Fix,FLP,37.3951341,-122.1001836,-4.400000095367432,16.240004,7.295,299.9999,1676391037546,0.6158625,2.0661645,426235225721000,5.7904563,Car
Fix,GPS,37.3952076186,-122.1003511449,-4.60133803241832,16.262022,7.2956686,300.05066,1676391038000,0.5996718,1.9908915,426236225370000,8.289045,Car
Fix,FLP,37.3952074,-122.1003474,-4.400000095367432,16.261744,7.307,299.9999,1676391038546,0.5996718,1.9908915,426236225370000,5.8004465,Car
Fix,GPS,37.3952786374,-122.1005133407,-4.6013836287703445,16.218931,7.268742,299.4267,1676391039000,0.60054153,2.019137,426237225166000,8.290184,Car
Fix,FLP,37.3952795,-122.1005105,-4.400000095367432,16.219532,7.297,299.01562,1676391039545,0.60054153,2.019137,426237225166000,5.8104563,Car
Fix,GPS,37.3953473749,-122.100676424,-4.419223441636984,16.272148,7.258422,298.9032,1676391040000,0.60938054,2.032956,426238225180000,8.299169,Car
Fix,FLP,37.3953487,-122.1006741,-4.400000095367432,16.271147,7.29,298.01624,1676391040546,0.60938054,2.032956,426238225180000,5.8204565,Car
Fix,GPS,37.3954161906,-122.1008440135,-4.267056036489096,16.452291,7.229953,298.63214,1676391041000,0.60853565,1.9969251,426239225172000,8.341536,Car
Fix,FLP,37.3954168,-122.1008408,-4.400000095367432,16.449348,7.269,298.00037,1676391041546,0.60853565,1.9969251,426239225172000,5.8304763,Car
Fix,GPS,37.3954867585,-122.1010134245,-4.482482141671086,16.613733,7.2033334,299.08353,1676391042000,0.60568386,1.9752307,426240225916000,8.350312,Car
Fix,FLP,37.3954866,-122.1010099,-4.400000095367432,16.611181,7.251,298.98434,1676391042546,0.60568386,1.9752307,426240225916000,5.8404665,Car
Fix,GPS,37.3955587019,-122.1011851416,-4.550778034283683,16.797068,7.1914177,299.22668,1676391043000,0.60514015,1.9438883,426241225416000,8.361653,Car
Fix,FLP,37.3955588,-122.1011804,-4.400000095367432,16.794123,7.23,298.99985,1676391043546,0.60514015,1.9438883,426241225416000,5.850456,Car
Fix,GPS,37.3956327931,-122.1013552629,-5.036089549751572,16.806467,7.1056094,299.49512,1676391044000,0.6007484,1.926917,426242225431000,8.352803,Car
Fix,FLP,37.3956325,-122.1013516,-4.400000095367432,16.806347,7.197,298.9999,1676391044546,0.6007484,1.926917,426242225431000,5.8604565,Car
Fix,NLP,37.3957792,-122.1013531,-4.799999713897705,,56.017,,1676391044346,,,426242026000000,2.8258302,Car
Fix,GPS,37.3957081365,-122.1015238971,-5.527612401558623,16.798683,7.071268,299.93158,1676391045000,0.5931626,1.9161029,426243225249000,8.277413,Car
Fix,FLP,37.3957137,-122.1015368,-4.799999713897705,16.798624,7.151,299.00003,1676391045545,0.5931626,1.9161029,426243225249000,4.8347216,Car
Fix,GPS,37.3957824972,-122.1016883713,-5.426692209324449,16.719044,7.060158,300.34073,1676391046000,0.59087056,1.9240246,426244225279000,8.222526,Car
Fix,FLP,37.3957845,-122.1016948,-4.799999713897705,16.720203,7.122,299.98465,1676391046546,0.59087056,1.9240246,426244225279000,4.822341,Car
Fix,GPS,37.3958570525,-122.1018513796,-5.474699368411558,16.554834,7.076043,300.40665,1676391047000,0.6133592,2.020225,426245225867000,8.191249,Car
Fix,FLP,37.3958582,-122.1018547,-4.799999713897705,16.557547,7.116,299.9996,1676391047546,0.6133592,2.020225,426245225867000,4.877217,Car
Fix,GPS,37.3959324733,-122.1020114795,-5.641081254113851,16.29433,7.1254907,300.93414,1676391048000,0.6208871,2.10823,426246225602000,8.133192,Car
Fix,FLP,37.3959326,-122.1020139,-4.799999713897705,16.298872,7.09,299.99985,1676391048546,0.6208871,2.10823,426246225602000,4.8872166,Car
Fix,GPS,37.3960082739,-122.102171214,-5.250174944894336,16.18383,7.14363,300.3822,1676391049000,0.5851966,1.9567304,426247225310000,8.0975895,Car
Fix,FLP,37.3960072,-122.1021723,-4.799999713897705,16.185581,7.097,299.99997,1676391049546,0.5851966,1.9567304,426247225310000,4.897217,Car
Fix,GPS,37.3960807575,-122.1023276558,-5.141350748248885,15.692769,7.1708746,299.96353,1676391050000,0.58632797,2.033427,426248225649000,8.080706,Car
Fix,FLP,37.3960805,-122.1023292,-4.799999713897705,15.700231,7.115,299.01495,1676391050546,0.58632797,2.033427,426248225649000,4.9072165,Car
Fix,GPS,37.3961476698,-122.1024752892,-5.049073207919962,14.796371,7.186828,299.707,1676391051000,0.5836942,2.1432774,426249225476000,8.059457,Car
Fix,FLP,37.3961482,-122.1024794,-4.799999713897705,14.810131,7.14,298.9991,1676391051546,0.5836942,2.1432774,426249225476000,4.917227,Car
Fix,GPS,37.3962060013,-122.1026093261,-5.088345305940484,13.46235,7.0882015,299.70752,1676391052000,0.5782522,2.3199527,426250225354000,8.017594,Car
Fix,FLP,37.3962089,-122.1026165,-4.799999713897705,13.482373,7.131,298.99786,1676391052546,0.5782522,2.3199527,426250225354000,4.8593574,Car
Fix,GPS,37.3962589411,-122.1027282929,-5.024317664640927,12.215311,7.055767,300.0572,1676391053000,0.605367,2.6680033,426251225531000,8.022791,Car
Fix,FLP,37.3962627,-122.1027377,-4.799999713897705,12.235839,7.128,299.98013,1676391053546,0.605367,2.6680033,426251225531000,4.864842,Car
Fix,GPS,37.3963051794,-122.1028321565,-4.867625840192472,11.174053,6.9446087,299.76456,1676391054000,0.6128587,3.0029085,426252225693000,7.906248,Car
Fix,FLP,37.3963105,-122.102843,-4.799999713897705,11.191607,7.089,299.0159,1676391054546,0.6128587,3.0029085,426252225693000,4.8748417,Car
Fix,GPS,37.3963438748,-122.1029208845,-4.957252182757946,10.247549,6.8876295,299.50558,1676391055000,0.6358826,3.419404,426253225425000,7.816983,Car
Fix,FLP,37.3963504,-122.1029348,-4.799999713897705,10.264341,7.055,298.99872,1676391055546,0.6358826,3.419404,426253225425000,4.884832,Car
Fix,GPS,37.3963715744,-122.102990108,-4.452973601659668,8.333055,6.9085217,300.80124,1676391056000,0.6843045,4.412455,426254225416000,7.850151,Car
Fix,FLP,37.3963817,-122.1030098,-4.799999713897705,8.372257,7.012,299.96817,1676391056546,0.6843045,4.412455,426254225416000,4.8948317,Car
