Fix,Provider,LatitudeDegrees,LongitudeDegrees,AltitudeMeters,SpeedMps,AccuracyMeters,BearingDegrees,UnixTimeMillis,SpeedAccuracyMps,BearingAccuracyDegrees,elapsedRealtimeNanos,VerticalAccuracyMeters,TransitType
Fix,GPS,37.3808414201,-122.074495271,15.04800235352407,0.0,2.790852,,1676164169613,0.4477514,,199364305643899,56.6412,Car
Fix,FLP,37.3808414,-122.0744953,8.432085976106137,0.0,3.9,,1676164171611,0.4477514,,199364305643899,1.761226,Car
Fix,GPS,37.3808336251,-122.0745050631,15.637432864998653,0.0,1.8809165,,1676164170613,0.5905798,,199365311456196,81.26833,Car
Fix,FLP,37.3808351,-122.0745032,5.5,0.55497,2.89,224.95314,1676164172618,0.5905798,,199365311456196,1.4500334,Car
Fix,GPS,37.3808391069,-122.0745096424,20.42432458288297,0.0,14.211209,,1676164171613,0.8915886,,199366375191792,26.687057,Car
Fix,FLP,37.3808333,-122.0745062,5.5,0.3975682,4.75,228.77792,1676164173682,0.8915886,,199366375191792,1.4615985,Car
Fix,GPS,37.3808487618,-122.0744995501,19.39307872143933,0.0,16.222713,,1676164172613,0.9592857,,199367351070048,42.893856,Car
Fix,NLP,37.3808468,-122.0746921,5.5,,20.768,,1676164174565,,,199367259000000,1.3384182,Car
Fix,FLP,37.380835,-122.0745073,9.044922835287815,0.2799994,6.662,240.54774,1676164174658,0.9592857,,199367351070048,1.655863,Car
Fix,GPS,37.3808509168,-122.0744923692,18.08732929021653,0.0,9.27652,,1676164173613,0.6751431,,199368380187358,29.636818,Car
Fix,FLP,37.3808466,-122.0744974,5.5,0.4268842,8.184,27.163172,1676164175687,0.6751431,,199368380187358,1.2114769,Car
Fix,GPS,37.380849341,-122.074485445,14.790704887793918,0.0,5.935749,,1676164174613,0.66414976,,199369409499207,19.343508,Car
Fix,FLP,37.3808494,-122.0744866,5.5,0.652758,8.439,58.380016,1676164176716,0.66414976,,199369409499207,1.2357744,Car
Fix,GPS,37.3808531745,-122.0744825999,17.695196469285257,0.0,4.749664,,1676164175613,0.59710634,,199370400446962,31.213749,Car
Fix,FLP,37.3808531,-122.0744823,7.330726899378419,0.59855026,8.797,50.18194,1676164177707,0.59710634,,199370400446962,1.3696977,Car
Fix,GPS,37.3808505005,-122.0744803373,20.899109297441505,0.0,9.338129,,1676164176613,0.60295606,,199371411978415,19.511456,Car
Fix,FLP,37.3808526,-122.0744792,3.0369627706283424,0.37214932,9.089,70.47906,1676164178718,0.60295606,,199371411978415,1.259403,Car
Fix,GPS,37.3808444951,-122.0744815738,15.64568256487643,0.0,6.849102,,1676164177610,0.6729387,,199372419147687,12.504664,Car
Fix,FLP,37.3808468,-122.0744805,5.5,0.32872522,7.581,162.69708,1676164179726,0.6729387,,199372419147687,1.264573,Car
Fix,NLP,37.3808641,-122.0745093,5.5,,22.334,,1676164179616,,,199372310000000,1.0,Car
Fix,GPS,37.3808362707,-122.0744739162,11.533240777581112,0.0,6.643014,,1676164178610,0.20618796,,199373402079694,8.835551,Car
Fix,FLP,37.3808375,-122.0744751,8.665240881656405,0.72855425,7.1,154.98515,1676164180709,0.20618796,,199373402079694,1.2513509,Car
Fix,GPS,37.3808329793,-122.0744665107,10.910604654519146,0.0,5.2666874,,1676164179610,20.0,,199374413801822,6.700762,Car
Fix,FLP,37.3808328,-122.0744671,10.286445968177356,0.7804115,7.004,138.11626,1676164181720,20.0,,199374413801822,1.2146771,Car
Fix,GPS,37.3808294974,-122.0744647892,12.344024092759032,0.5921391,4.4509354,232.34366,1676164181000,0.2642847,24.13625,199375750510644,5.3353643,Car
Fix,FLP,37.3808299,-122.0744661,10.615743812816977,0.59098214,6.75,231.90404,1676164183056,0.2642847,24.13625,199375750510644,1.2339739,Car
Fix,NLP,37.380836,-122.0747042,5.5,,29.668,,1676164183861,,,199376554000000,1.203689,Car
Fix,FLP,37.3808286,-122.0744668,10.286445968177356,0.5921306,7.112,231.99962,1676164183861,0.2642847,24.13625,199376554000000,1.1947649,Car
Fix,GPS,37.3808265155,-122.0744685111,11.97769187733586,0.0,4.3720245,232.34366,1676164182000,0.27514455,180.0,199376783436874,5.0012207,Car
Fix,FLP,37.3808272,-122.0744683,9.393843470172287,0.004980019,6.838,,1676164184090,0.27514455,,199376783436874,1.2394608,Car
Fix,GPS,37.380825914,-122.0744654976,11.914964000173674,0.0,4.3536906,232.34366,1676164183000,0.26370862,41.170883,199377712369000,4.8247848,Car
Fix,FLP,37.3808264,-122.0744672,5.5,7.184974e-07,6.008,,1676164185019,0.26370862,,199377712369000,1.2462659,Car
Fix,GPS,37.3808223413,-122.0744655329,11.79323881089458,0.0,4.3742123,232.34366,1676164184000,0.2864227,18.093008,199378712351000,4.69915,Car
Fix,FLP,37.3808237,-122.0744661,7.343788214009724,7.435031e-07,5.756,,1676164186019,0.2864227,,199378712351000,1.1999571,Car
Fix,GPS,37.3808204182,-122.0744660893,11.67325945206567,0.0,4.666172,232.34366,1676164185000,0.29383448,56.857536,199379712572000,4.5947123,Car
Fix,FLP,37.3808217,-122.0744658,7.343788214009724,1.887294e-07,5.45,,1676164187019,0.29383448,,199379712572000,1.2118523,Car
Fix,GPS,37.3808221508,-122.0744658895,12.19876277200049,0.0,4.9603944,232.34366,1676164186000,0.22088505,180.0,199380712481000,4.425485,Car
Fix,FLP,37.3808219,-122.0744658,7.549270653158484,1.0282392e-06,5.422,,1676164188018,0.22088505,,199380712481000,1.2224122,Car
Fix,GPS,37.3808244702,-122.074462786,12.81594628983368,0.0,4.960398,232.34366,1676164187000,0.19246621,180.0,199381713723000,4.2875695,Car
Fix,NLP,37.3809057,-122.0745542,5.5,,25.012,,1676164188962,,,199381655000000,1.0,Car
Fix,FLP,37.3808231,-122.0744645,5.5,1.19360675e-05,4.525,,1676164189019,0.19246621,,199381713723000,1.2787893,Car
Fix,GPS,37.3808264001,-122.0744604367,13.132800598595445,0.0,4.450525,232.34366,1676164188000,0.19572964,180.0,199382713010000,4.1024733,Car
Fix,FLP,37.3808247,-122.0744625,5.5,6.247232e-06,4.639,,1676164190020,0.19572964,,199382713010000,1.1387419,Car
Fix,GPS,37.3808263173,-122.0744567411,13.086212603146716,0.0,5.7344656,232.34366,1676164189000,0.20199254,180.0,199383712723000,3.9320168,Car
Fix,FLP,37.3808253,-122.0744604,5.5,1.6051206e-05,4.809,,1676164191019,0.20199254,,199383712723000,1.1592537,Car
Fix,GPS,37.3808256969,-122.0744530691,13.288987055464755,0.0,4.813345,232.34366,1676164190000,0.17952126,180.0,199384712488000,3.826199,Car
Fix,FLP,37.3808255,-122.074457,5.5,1.9224726e-05,4.864,,1676164192018,0.17952126,,199384712488000,1.1457077,Car
Fix,GPS,37.3808260265,-122.0744504336,13.233264393881283,0.0,4.8134613,232.34366,1676164191000,0.1857892,180.0,199385712467000,3.731723,Car
Fix,FLP,37.3808257,-122.074454,5.5,1.5385109e-05,4.955,,1676164193019,0.1857892,,199385712467000,1.1304605,Car
Fix,NLP,37.3808667,-122.0744829,5.5,,29.909,,1676164193960,,,199386653000000,1.0,Car
Fix,GPS,37.3808276277,-122.0744485299,13.608598357252491,0.0,5.661376,232.34366,1676164192000,0.20043732,180.0,199386712638000,3.695815,Car
Fix,FLP,37.3808264,-122.0744519,5.5,1.3952951e-05,5.072,,1676164194019,0.20043732,,199386712638000,1.1405685,Car
Fix,GPS,37.3808314346,-122.074444292,13.667321790968789,0.0,4.9838157,232.34366,1676164193000,0.01616506,180.0,199387712712000,3.498916,Car
Fix,FLP,37.3808288,-122.0744481,5.5,8.460582e-08,5.159,,1676164195019,0.01616506,,199387712712000,1.0679085,Car
Fix,GPS,37.3808303435,-122.0744465439,13.865996664352616,0.0,3.940201,232.34366,1676164194000,0.015417766,180.0,199388712760000,3.2945216,Car
Fix,FLP,37.3808294,-122.0744474,5.5,2.697185e-10,4.978,,1676164196019,0.015417766,,199388712760000,1.0408771,Car
Fix,GPS,37.3808334399,-122.0744497189,13.852545496027528,0.0,3.9401267,232.34366,1676164195000,0.015426402,180.0,199389712555000,3.129937,Car
Fix,FLP,37.3808312,-122.0744484,5.5,3.956764e-10,4.833,,1676164197018,0.015426402,,199389712555000,1.0511861,Car
Fix,GPS,37.3808326533,-122.0744519712,14.210116579667265,0.0,4.1164074,232.34366,1676164196000,0.014479112,180.0,199390712571000,3.0062678,Car
Fix,FLP,37.3808319,-122.07445,5.5,4.166743e-10,4.717,,1676164198019,0.014479112,,199390712571000,1.0599015,Car
Fix,GPS,37.3808316991,-122.0744504769,14.615042329358957,0.0,4.155052,232.34366,1676164197000,0.014511243,180.0,199391712757000,3.0,Car
Fix,FLP,37.3808318,-122.0744502,5.5,4.90498e-11,4.227,,1676164199019,0.014511243,,199391712757000,1.0719804,Car
Fix,NLP,37.3808305,-122.074687,5.5,,18.522,,1676164199010,,,199391703000000,1.0,Car
Fix,GPS,37.3808322148,-122.0744514467,14.7801664516649,0.0,4.254056,232.34366,1676164198000,0.014648163,180.0,199392712775000,3.0,Car
Fix,FLP,37.3808319,-122.0744508,5.5,6.16046e-11,4.093,,1676164200019,0.014648163,,199392712775000,1.0036875,Car
Fix,GPS,37.3808336043,-122.0744523501,14.702027248117007,0.0,4.116374,232.34366,1676164199000,0.014534675,180.0,199393712797000,3.0,Car
Fix,FLP,37.3808327,-122.0744515,5.5,1.965892e-10,4.122,,1676164201018,0.014534675,,199393712797000,1.0136542,Car
Fix,GPS,37.3808339036,-122.0744531287,14.950799978016423,0.0,4.2538548,232.34366,1676164200000,0.014575482,180.0,199394712652000,3.0,Car
Fix,FLP,37.3808332,-122.0744522,5.5,1.808274e-10,4.175,,1676164202018,0.014575482,,199394712652000,1.0234632,Car
Fix,GPS,37.3808345017,-122.0744544467,15.118657803935568,0.0,4.253754,232.34366,1676164201000,0.014044716,180.0,199395712832000,3.0,Car
Fix,FLP,37.3808338,-122.0744532,5.5,2.215415e-10,4.198,,1676164203019,0.014044716,,199395712832000,1.0330669,Car
Fix,GPS,37.3808354621,-122.0744557126,15.105129941624586,0.0,4.253654,232.34366,1676164202000,0.014696252,180.0,199396712853000,3.0,Car
Fix,FLP,37.3808346,-122.0744543,5.5,2.60446e-10,4.226,,1676164204019,0.014696252,,199396712853000,1.0419769,Car
Fix,NLP,37.3808526,-122.0744921,5.5,,26.469,,1676164204027,,,199396721000000,1.0,Car
Fix,GPS,37.3808365956,-122.0744559875,15.207830913719022,0.0,4.2535534,232.34366,1676164203000,0.014760408,180.0,199397712943000,3.0,Car
Fix,FLP,37.3808356,-122.0744552,5.5,1.03726245e-08,4.248,,1676164205019,0.014760408,,199397712943000,0.99680525,Car
Fix,GPS,37.3808375211,-122.0744573917,15.21667786336742,0.0,4.1163187,232.34366,1676164204000,0.013998316,180.0,199398712879000,3.0,Car
Fix,FLP,37.3808364,-122.0744562,5.5,2.404547e-10,4.248,,1676164206019,0.013998316,,199398712879000,0.99693286,Car
Fix,GPS,37.3808383456,-122.0744586823,15.208153423251034,0.0,4.253352,232.34366,1676164205000,0.014058322,180.0,199399712985000,3.0,Car
Fix,FLP,37.3808372,-122.0744573,5.5,2.421721e-10,4.248,,1676164207019,0.014058322,,199399712985000,1.0070416,Car
Fix,GPS,37.3808380289,-122.0744587874,15.224878313053996,0.0,4.253252,232.34366,1676164206000,0.014085512,180.0,199400712997000,3.0,Car
Fix,FLP,37.3808376,-122.074458,5.5,1.397932e-10,4.248,,1676164208019,0.014085512,,199400712997000,1.0171204,Car
Fix,GPS,37.3808388819,-122.0744600803,15.229963620864003,0.0,4.253151,232.34366,1676164207000,0.014157094,180.0,199401712954000,3.0,Car
Fix,FLP,37.3808382,-122.0744589,5.5,2.039896e-10,4.248,,1676164209018,0.014157094,,199401712954000,1.0249144,Car
Fix,NLP,37.3808497,-122.0745664,5.5,,19.55,,1676164209091,,,199401784000000,1.0902202,Car
Fix,FLP,37.3808384,-122.0744593,5.5,6.256785e-08,4.384,,1676164209091,0.014157094,,199401784000000,0.9871053,Car
Fix,GPS,37.3808379947,-122.0744605304,15.26663174241762,0.0,4.253051,232.34366,1676164208000,0.01490789,180.0,199402713020000,3.0,Car
Fix,FLP,37.3808382,-122.0744598,5.5,5.6688034e-08,4.384,,1676164210020,0.01490789,,199402713020000,1.0074528,Car
Fix,GPS,37.3808374032,-122.074459967,15.354166151687036,0.0,4.2529507,232.34366,1676164209000,0.014786261,180.0,199403712960000,3.0,Car
Fix,FLP,37.3808379,-122.0744599,5.5,6.36989e-11,4.406,,1676164211019,0.014786261,,199403712960000,1.0076085,Car
Fix,GPS,37.3808370416,-122.0744592066,15.383447852216465,0.0,4.2528505,232.34366,1676164210000,0.015185355,180.0,199404712926000,3.0,Car
Fix,FLP,37.3808375,-122.0744596,5.5,9.33613e-11,4.384,,1676164212018,0.015185355,,199404712926000,1.0188396,Car
Fix,GPS,37.3808361785,-122.0744580976,15.456830614043136,0.0,4.2527504,232.34366,1676164211000,0.015232187,180.0,199405713088000,3.0,Car
Fix,FLP,37.3808369,-122.0744589,5.5,1.967152e-10,4.406,,1676164213020,0.015232187,,199405713088000,1.0287919,Car
Fix,GPS,37.38083638,-122.074458765,15.41587025114236,0.0,4.2526503,232.34366,1676164212000,0.015302936,180.0,199406713636000,3.0,Car
Fix,FLP,37.3808367,-122.0744589,5.5,3.51817e-11,4.406,,1676164214019,0.015302936,,199406713636000,1.036109,Car
Fix,NLP,37.3808356,-122.0746544,5.5,,17.461,,1676164214073,,,199406766000000,1.0,Car
Fix,GPS,37.3808358864,-122.0744590448,15.310985605072185,0.0,4.25255,232.34366,1676164213000,0.015309294,180.0,199407713038000,3.0,Car
Fix,FLP,37.3808363,-122.0744589,5.5,2.0645905e-08,4.366,,1676164215020,0.015309294,,199407713038000,0.9920189,Car
Fix,GPS,37.3808357682,-122.0744592548,15.407954853164137,0.0,4.2524495,232.34366,1676164214000,0.17857394,180.0,199408712826000,3.0,Car
Fix,FLP,37.3808361,-122.0744591,5.5,8.299529e-09,4.35,,1676164216019,0.17857394,,199408712826000,0.9914205,Car
Fix,GPS,37.3808356841,-122.0744588772,15.56792125539585,0.0,4.25235,232.34366,1676164215000,0.19422258,180.0,199409712847000,3.0,Car
Fix,FLP,37.3808359,-122.074459,5.5,6.282649e-07,4.349,,1676164217019,0.19422258,,199409712847000,1.0044155,Car
Fix,GPS,37.3808355282,-122.0744589606,15.706460446845124,0.0,4.2522497,232.34366,1676164216000,0.19337037,180.0,199410713136000,3.0,Car
Fix,FLP,37.3808357,-122.074459,5.5,5.8073016e-07,4.365,,1676164218019,0.19337037,,199410713136000,1.014054,Car
Fix,GPS,37.3808353779,-122.0744594857,15.786552911084222,0.0,4.2521496,232.34366,1676164217000,0.1950815,53.30747,199411713031000,3.0,Car
Fix,FLP,37.3808355,-122.0744593,5.5,3.826492e-08,4.349,,1676164219019,0.1950815,,199411713031000,1.0241036,Car
Fix,NLP,37.3808694,-122.0745959,5.5,,24.548,,1676164219050,,,199411744000000,1.0,Car
Fix,GPS,37.3808353471,-122.0744595097,15.911871019017028,0.0,4.2520494,232.34366,1676164218000,0.19921193,132.32932,199412712907000,3.0,Car
Fix,FLP,37.3808354,-122.0744595,5.5,3.5375336e-07,4.309,,1676164220019,0.19921193,,199412712907000,0.97025436,Car
Fix,GPS,37.3808353011,-122.0744595505,16.05778970382365,0.0,4.340373,232.34366,1676164219000,0.20130332,107.886826,199413712949000,3.0,Car
Fix,FLP,37.3808353,-122.0744596,5.5,1.11938965e-08,4.333,,1676164221018,0.20130332,,199413712949000,0.9855505,Car
Fix,GPS,37.3808352541,-122.0744595833,16.223915556927974,0.0,4.3405137,232.34366,1676164220000,0.19675677,180.0,199414712894000,3.0,Car
Fix,FLP,37.3808353,-122.0744596,5.5,3.396294e-09,4.348,,1676164222018,0.19675677,,199414712894000,0.98861694,Car
Fix,GPS,37.3808352207,-122.0744595867,16.384377185562357,0.0,4.340654,232.34366,1676164221000,0.19420514,180.0,199415713125000,3.0,Car
Fix,FLP,37.3808352,-122.0744596,5.5,3.6254062e-09,4.347,,1676164223019,0.19420514,,199415713125000,0.99950856,Car
Fix,GPS,37.3808351866,-122.0744595727,16.53688174917463,0.0,4.3407946,232.34366,1676164222000,0.19456565,180.0,199416713157000,3.0,Car
Fix,FLP,37.3808352,-122.0744596,5.5,1.1423773e-09,4.378,,1676164224019,0.19456565,,199416713157000,1.0095085,Car
Fix,NLP,37.3808854,-122.0745085,5.5,,25.585,,1676164224149,,,199416842000000,1.0,Car
Fix,FLP,37.3808352,-122.0744596,5.5,9.1636274e-08,4.605,,1676164224149,0.19456565,,199416842000000,0.9524567,Car
Fix,GPS,37.3808351363,-122.0744595788,16.733529559376567,0.0,4.156415,232.34366,1676164223000,0.19805156,77.40671,199417713157000,3.0,Car
Fix,FLP,37.3808351,-122.0744596,5.5,6.157006e-07,4.589,,1676164225019,0.19805156,,199417713157000,0.95945615,Car
Fix,GPS,37.3808350859,-122.0744595699,16.959435305022932,0.0,4.1564136,232.34366,1676164224000,0.19734535,180.0,199418713303000,3.0,Car
Fix,FLP,37.3808351,-122.0744596,5.5,1.7360862e-09,4.558,,1676164226020,0.19734535,,199418713303000,0.96986395,Car
Fix,GPS,37.3808350357,-122.0744595379,17.153243891734178,0.0,4.156412,232.34366,1676164225000,0.18859527,180.0,199419713266000,3.0,Car
Fix,FLP,37.380835,-122.0744595,5.5,7.487208e-09,4.527,,1676164227019,0.18859527,,199419713266000,0.984707,Car
Fix,GPS,37.3808349808,-122.0744595018,17.359394614406632,0.0,4.15641,232.34366,1676164226000,0.18718982,180.0,199420713364000,3.0,Car
Fix,FLP,37.380835,-122.0744595,5.5,2.173731e-09,4.496,,1676164228019,0.18718982,,199420713364000,0.98948616,Car
Fix,GPS,37.3808349348,-122.0744594785,17.519635144024498,0.0,4.341498,232.34366,1676164227000,0.19188848,180.0,199421713061000,3.0,Car
Fix,FLP,37.3808349,-122.0744595,5.5,3.3015315e-09,4.474,,1676164229020,0.19188848,,199421713061000,0.99949616,Car
Fix,NLP,37.3808626,-122.0745174,5.5,,24.416,,1676164229178,,,199421871000000,1.0,Car
Fix,FLP,37.3808349,-122.0744595,5.5,3.2148267e-07,4.559,,1676164229178,0.19188848,,199421871000000,0.9445791,Car
Fix,GPS,37.3808349009,-122.0744594534,17.66090236601229,0.0,4.1564083,232.34366,1676164228000,0.19446737,180.0,199422713486000,3.0,Car
Fix,FLP,37.3808349,-122.0744595,5.5,1.5235426e-07,4.559,,1676164230020,0.19446737,,199422713486000,0.9515724,Car
Fix,GPS,37.3808348531,-122.0744594135,17.80883228949601,0.0,4.1564074,232.34366,1676164229000,0.19318227,97.1107,199423713078000,3.0,Car
Fix,FLP,37.3808349,-122.0744594,5.5,7.1737327e-09,4.502,,1676164231020,0.19318227,,199423713078000,0.96151805,Car
Fix,GPS,37.3808348148,-122.0744593487,17.95040384891882,0.0,4.1564064,232.34366,1676164230000,0.18563549,180.0,199424713077000,3.0,Car
Fix,FLP,37.3808348,-122.0744593,5.5,8.693187e-09,4.502,,1676164232019,0.18563549,,199424713077000,0.97151494,Car
Fix,GPS,37.3808347657,-122.0744592274,18.09014058082443,0.0,4.1564054,232.34366,1676164231000,0.18790978,180.0,199425713091000,3.0,Car
Fix,FLP,37.3808348,-122.0744592,5.5,8.368752e-09,4.502,,1676164233019,0.18790978,,199425713091000,0.98319983,Car
Fix,GPS,37.3808347218,-122.0744591071,18.221393323123223,0.0,4.156405,232.34366,1676164232000,0.18754108,66.12331,199426713116000,3.0,Car
Fix,FLP,37.3808347,-122.0744591,5.5,9.213986e-09,4.529,,1676164234019,0.18754108,,199426713116000,0.99150926,Car
Fix,NLP,37.380858,-122.0745743,5.5,,25.866,,1676164234225,,,199426918000000,1.0,Car
Fix,FLP,37.3808347,-122.0744591,5.5,7.0003745e-07,4.599,,1676164234225,0.18754108,,199426918000000,0.93831766,Car
Fix,GPS,37.3808346616,-122.0744590661,18.33052499115753,0.0,4.1564045,232.34366,1676164233000,0.19206537,180.0,199427713723000,3.0,Car
Fix,FLP,37.3808347,-122.0744591,5.5,3.6242744e-07,4.599,,1676164235020,0.19206537,,199427713723000,0.94434804,Car
Fix,GPS,37.3808346115,-122.0744590304,18.4462977743153,0.0,4.1564045,232.34366,1676164234000,0.19857518,180.0,199428713145000,3.0,Car
Fix,FLP,37.3808346,-122.074459,5.5,9.352207e-09,4.599,,1676164236020,0.19857518,,199428713145000,0.9543019,Car
Fix,GPS,37.3808345533,-122.0744589909,18.512023344512983,0.0,4.156404,232.34366,1676164235000,0.18814102,63.926678,199429713205000,3.0,Car
Fix,FLP,37.3808346,-122.074459,5.5,2.6318423e-09,4.599,,1676164237020,0.18814102,,199429713205000,0.9643496,Car
Fix,GPS,37.3808344939,-122.0744589412,18.55409904367523,0.0,4.156404,232.34366,1676164236000,0.18710613,180.0,199430713499000,3.0,Car
Fix,FLP,37.3808345,-122.0744589,5.5,7.304899e-09,4.599,,1676164238020,0.18710613,,199430713499000,0.97437066,Car
Fix,GPS,37.3808344594,-122.0744589357,18.509227129214835,0.0,4.156404,232.34366,1676164237000,0.1891429,180.0,199431713472000,3.0,Car
Fix,FLP,37.3808345,-122.0744589,5.5,2.3809195e-09,4.599,,1676164239020,0.1891429,,199431713472000,0.98437065,Car
Fix,NLP,37.3808561,-122.0745722,5.5,,26.653,,1676164239253,,,199431946000000,1.0,Car
Fix,FLP,37.3808345,-122.0744589,5.5,1.9902586e-07,4.659,,1676164239253,0.1891429,,199431946000000,0.9395484,Car
Fix,GPS,37.3808344153,-122.0744589738,18.47688948203104,0.0,4.156404,232.34366,1676164238000,0.19685043,180.0,199432713410000,3.0,Car
Fix,FLP,37.3808344,-122.074459,5.5,1.4439721e-06,4.587,,1676164240020,0.19685043,,199432713410000,0.93806994,Car
Fix,GPS,37.3808343853,-122.0744590336,18.40776580443182,0.0,4.343196,232.34366,1676164239000,0.19864628,180.0,199433713227000,3.0,Car
Fix,FLP,37.3808344,-122.074459,5.5,4.1969552e-09,4.69,,1676164241020,0.19864628,,199433713227000,0.9480637,Car
Fix,GPS,37.380834335,-122.0744591087,18.284437258976432,0.0,4.3433385,232.34366,1676164240000,0.19227338,180.0,199434713551000,3.0,Car
Fix,FLP,37.3808343,-122.0744591,5.5,8.517381e-09,4.722,,1676164242020,0.19227338,,199434713551000,0.95806754,Car
Fix,GPS,37.3808343247,-122.0744591855,18.172699739361622,0.0,4.3434806,232.34366,1676164241000,0.18642133,180.0,199435713272000,3.0,Car
Fix,FLP,37.3808343,-122.0744592,5.5,8.401024e-09,4.667,,1676164243020,0.18642133,,199435713272000,0.96807736,Car
Fix,GPS,37.380834307,-122.0744593063,17.999945426016275,0.0,4.343623,232.34366,1676164242000,0.18854448,180.0,199436713293000,3.0,Car
Fix,FLP,37.3808343,-122.0744593,5.5,8.505535e-09,4.694,,1676164244020,0.18854448,,199436713293000,0.97808737,Car
Fix,NLP,37.3808363,-122.0744818,5.5,,25.39,,1676164244259,,,199436952000000,1.0,Car
Fix,FLP,37.3808343,-122.0744593,5.5,6.1453625e-07,4.829,,1676164244259,0.18854448,,199436952000000,0.932081,Car
Fix,GPS,37.3808342577,-122.0744593454,17.918023928973728,0.0,4.249564,232.34366,1676164243000,0.19100441,180.0,199437713609000,3.0,Car
Fix,FLP,37.3808343,-122.0744593,5.5,3.5316674e-07,4.845,,1676164245019,0.19100441,,199437713609000,0.9428968,Car
Fix,GPS,37.380834195,-122.0744593913,17.8845777279368,0.0,4.2494655,232.34366,1676164244000,0.19152296,28.156229,199438713695000,3.0,Car
Fix,FLP,37.3808342,-122.0744594,5.5,8.567295e-09,4.829,,1676164246020,0.19152296,,199438713695000,0.9468127,Car
Fix,GPS,37.3808341271,-122.0744594799,17.76104882904129,0.0,4.3440504,232.34366,1676164245000,0.18340002,139.43219,199439713349000,3.0,Car
Fix,FLP,37.3808341,-122.0744595,5.5,8.830274e-09,4.76,,1676164247020,0.18340002,,199439713349000,0.9533987,Car
Fix,GPS,37.3808340426,-122.074459528,17.62176263541719,0.0,4.344193,232.34366,1676164246000,0.1836925,180.0,199440713780000,3.0,Car
Fix,FLP,37.380834,-122.0744595,5.5,4.3524184e-09,4.829,,1676164248020,0.1836925,,199440713780000,0.962443,Car
Fix,GPS,37.3808339854,-122.074459557,17.58720421896261,0.0,4.344336,232.34366,1676164247000,0.180104,180.0,199441713748000,3.0,Car
Fix,FLP,37.380834,-122.0744595,5.5,2.3154075e-07,4.829,,1676164249020,0.180104,,199441713748000,0.972443,Car
Fix,NLP,37.380863,-122.0745434,5.5,,24.013,,1676164249331,,,199442024000000,1.0,Car
Fix,FLP,37.380834,-122.0744596,5.5,1.0991112e-06,4.984,,1676164249330,0.180104,,199442024000000,0.9267597,Car
Fix,GPS,37.3808339304,-122.0744595784,17.563465084517045,0.0,4.24907,232.34366,1676164248000,0.18343969,180.0,199442713347000,3.0,Car
Fix,FLP,37.380834,-122.0744596,5.5,2.167504e-06,4.879,,1676164250020,0.18343969,,199442713347000,0.93182194,Car
Fix,GPS,37.3808338806,-122.0744596146,17.592965710361973,0.0,4.3446217,232.34366,1676164249000,0.1896842,98.801476,199443713697000,3.0,Car
Fix,FLP,37.3808339,-122.0744596,5.5,1.5540819e-07,5.0,,1676164251020,0.1896842,,199443713697000,0.9418212,Car
Fix,GPS,37.3808338343,-122.0744596461,17.576238095297672,0.0,4.3447647,232.34366,1676164250000,0.17986828,180.0,199444713410000,3.0,Car
Fix,FLP,37.3808339,-122.0744596,5.5,1.6178132e-07,5.0,,1676164252019,0.17986828,,199444713410000,0.95549905,Car
Fix,GPS,37.3808337828,-122.0744596882,17.54885960404855,0.0,4.3449078,232.34366,1676164251000,0.17900224,180.0,199445713669000,3.0,Car
Fix,FLP,37.3808338,-122.0744596,5.5,2.4210883e-07,4.907,,1676164253019,0.17900224,,199445713669000,0.96075004,Car
Fix,GPS,37.3808337329,-122.0744597171,17.534257687085184,0.0,4.345051,232.34366,1676164252000,0.17649502,180.0,199446713653000,3.0,Car
Fix,FLP,37.3808338,-122.0744597,5.5,1.8808096e-07,4.907,,1676164254020,0.17649502,,199446713653000,0.97075003,Car
Fix,NLP,37.3808577,-122.0745751,5.5,,20.605,,1676164254363,,,199447056000000,1.0,Car
Fix,FLP,37.3808338,-122.0744597,5.5,1.188385e-06,5.07,,1676164254362,0.17649502,,199447056000000,0.92033553,Car
Fix,GPS,37.380833687,-122.0744597189,17.591703513107603,0.0,4.3451943,232.34366,1676164253000,0.17751102,29.30416,199447713456000,3.0,Car
Fix,FLP,37.3808337,-122.0744597,5.5,1.2434949e-06,5.086,,1676164255019,0.17751102,,199447713456000,0.92616177,Car
Fix,GPS,37.3808336274,-122.0744597133,17.683047792652395,0.0,4.248479,232.34366,1676164254000,0.18181455,74.15974,199448713474000,3.0,Car
Fix,FLP,37.3808337,-122.0744597,5.5,1.8504582e-07,4.966,,1676164256020,0.18181455,,199448713474000,0.9362435,Car
Fix,GPS,37.3808335715,-122.0744596936,17.833067417835316,0.0,4.2483807,232.34366,1676164255000,0.17525896,119.93148,199449713482000,3.0,Car
Fix,FLP,37.3808336,-122.0744597,5.5,8.1858495e-08,5.054,,1676164257020,0.17525896,,199449713482000,0.9461752,Car
Fix,GPS,37.380833511,-122.0744596407,17.98471145618841,0.0,3.9357307,232.34366,1676164256000,0.17077576,98.75973,199450713813000,3.0,Car
Fix,FLP,37.3808336,-122.0744597,5.5,2.1493814e-07,4.986,,1676164258020,0.17077576,,199450713813000,0.9561493,Car
Fix,GPS,37.3808334625,-122.0744595599,18.230141703338383,0.0,3.935661,232.34366,1676164257000,0.17204477,180.0,199451713681000,3.0,Car
Fix,FLP,37.3808335,-122.0744596,5.5,1.1827155e-07,4.918,,1676164259020,0.17204477,,199451713681000,0.96987325,Car
Fix,NLP,37.3808558,-122.0745333,5.5,,26.072,,1676164259358,,,199452051000000,1.0,Car
Fix,FLP,37.3808335,-122.0744596,5.5,7.8159206e-07,5.404,,1676164259358,0.17204477,,199452051000000,0.92037296,Car
Fix,GPS,37.3808334257,-122.0744594926,18.422603789486075,0.0,4.2480855,232.34366,1676164258000,0.1778841,180.0,199452713535000,3.0,Car
Fix,FLP,37.3808335,-122.0744596,5.5,3.4729742e-06,4.822,,1676164260020,0.1778841,,199452713535000,0.9250365,Car
Fix,GPS,37.3808333873,-122.0744594589,18.565206994150905,0.0,4.2479877,232.34366,1676164259000,0.17851035,155.69408,199453713916000,3.0,Car
Fix,FLP,37.3808334,-122.0744595,5.5,2.6215983e-07,4.822,,1676164261019,0.17851035,,199453713916000,0.9352599,Car
Fix,GPS,37.3808333478,-122.0744594167,18.674155189607568,0.0,4.247889,232.34366,1676164260000,0.1797889,180.0,199454713598000,3.0,Car
Fix,FLP,37.3808334,-122.0744595,5.5,3.3569248e-07,4.822,,1676164262019,0.1797889,,199454713598000,0.9452854,Car
Fix,GPS,37.3808333104,-122.0744593699,18.73317279776884,0.0,4.247791,232.34366,1676164261000,0.17393537,92.246185,199455713846000,3.0,Car
Fix,FLP,37.3808333,-122.0744594,5.5,1.7963481e-07,4.874,,1676164263019,0.17393537,,199455713846000,0.9495358,Car
Fix,GPS,37.3808332874,-122.0744592988,18.78830679068967,0.0,3.9353142,232.34366,1676164262000,0.17083268,180.0,199456713883000,3.0,Car
Fix,FLP,37.3808333,-122.0744594,5.5,2.6432468e-07,4.874,,1676164264019,0.17083268,,199456713883000,0.961056,Car
Fix,NLP,37.3808389,-122.0745151,5.5,,22.639,,1676164264338,,,199457031000000,1.0,Car
Fix,FLP,37.3808333,-122.0744594,5.5,1.4671265e-06,5.329,,1676164264338,0.17083268,,199457031000000,0.91628635,Car
Fix,GPS,37.3808332927,-122.0744592592,18.89462271699884,0.0,3.9352453,232.34366,1676164263000,0.17440315,180.0,199457713832000,3.0,Car
Fix,FLP,37.3808333,-122.0744593,5.5,1.3660532e-06,4.778,,1676164265019,0.17440315,,199457713832000,0.91799647,Car
Fix,GPS,37.3808332913,-122.0744592294,19.019199235545003,0.0,3.9351761,232.34366,1676164264000,0.17856313,124.54057,199458713886000,3.0,Car
Fix,FLP,37.3808333,-122.0744593,5.5,3.4197623e-07,4.658,,1676164266019,0.17856313,,199458713886000,0.93059826,Car
Fix,GPS,37.3808332861,-122.0744592299,19.028925931370058,0.0,3.9351072,232.34366,1676164265000,0.17404827,90.803375,199459713651000,3.0,Car
Fix,FLP,37.3808333,-122.0744592,5.5,1.6035648e-07,4.674,,1676164267020,0.17404827,,199459713651000,0.9405983,Car
Fix,GPS,37.3808332864,-122.0744592123,19.045537793126915,0.0,3.935038,232.34366,1676164266000,0.17269734,180.0,199460714034000,3.0,Car
Fix,FLP,37.3808333,-122.0744592,5.5,8.245854e-08,4.622,,1676164268020,0.17269734,,199460714034000,0.95034873,Car
Fix,GPS,37.3808332873,-122.0744592084,19.06144253621354,0.0,3.9349697,232.34366,1676164267000,0.17427275,84.28708,199461713659000,3.0,Car
Fix,FLP,37.3808333,-122.0744592,5.5,4.543714e-08,4.523,,1676164269020,0.17427275,,199461713659000,0.96054995,Car
Fix,NLP,37.3808132,-122.074508,5.5,,25.74,,1676164269371,,,199462064000000,1.0,Car
Fix,FLP,37.3808333,-122.0744592,5.5,2.4751898e-07,4.694,,1676164269371,0.17427275,,199462064000000,0.9152256,Car
Fix,GPS,37.3808332858,-122.0744592445,19.03401669747857,0.0,3.9349008,232.34366,1676164268000,0.17723352,180.0,199462713662000,3.0,Car
Fix,FLP,37.3808333,-122.0744592,5.5,2.40554e-07,4.585,,1676164270019,0.17723352,,199462713662000,0.9202712,Car
Fix,GPS,37.3808332819,-122.07445925,19.07614539507975,0.0,3.934832,232.34366,1676164269000,0.18156908,108.57299,199463713867000,3.0,Car
Fix,FLP,37.3808333,-122.0744592,5.5,2.2008714e-07,4.585,,1676164271019,0.18156908,,199463713867000,0.9287258,Car
Fix,GPS,37.3808332729,-122.0744592938,19.06259990948358,0.0,3.9347637,232.34366,1676164270000,0.17400774,180.0,199464713687000,3.0,Car
Fix,FLP,37.3808333,-122.0744593,5.5,1.1216557e-07,4.694,,1676164272020,0.17400774,,199464713687000,0.93325317,Car
Fix,GPS,37.3808332439,-122.0744593239,19.06706112743069,0.0,3.9346952,232.34366,1676164271000,0.17343552,180.0,199465713966000,3.0,Car
Fix,FLP,37.3808333,-122.0744593,5.5,1.0592408e-07,4.585,,1676164273019,0.17343552,,199465713966000,0.9454706,Car
Fix,GPS,37.3808332027,-122.074459362,19.055936167138874,0.0,3.9346268,232.34366,1676164272000,0.17394674,180.0,199466713912000,3.0,Car
Fix,FLP,37.3808332,-122.0744593,5.5,2.2276679e-07,4.694,,1676164274020,0.17394674,,199466713912000,0.9554852,Car
Fix,NLP,37.3808407,-122.074568,5.5,,19.699,,1676164274430,,,199467123000000,1.0,Car
Fix,FLP,37.3808332,-122.0744593,5.5,1.2759898e-06,4.821,,1676164274430,0.17394674,,199467123000000,0.91091233,Car
Fix,GPS,37.3808331403,-122.0744593943,19.08265607854632,0.0,3.9345586,232.34366,1676164273000,0.17780606,145.33891,199467713726000,3.0,Car
Fix,FLP,37.3808332,-122.0744594,5.5,2.5412687e-06,4.821,,1676164275020,0.17780606,,199467713726000,0.9149105,Car
Fix,GPS,37.3808330863,-122.0744594443,19.17447319795701,0.0,3.9344907,232.34366,1676164274000,0.18231672,178.394,199468713933000,3.0,Car
Fix,FLP,37.3808331,-122.0744594,5.5,1.6201663e-07,4.821,,1676164276020,0.18231672,,199468713933000,0.9246991,Car
Fix,GPS,37.3808330191,-122.07445951,19.266067493456774,0.0,4.148225,232.34366,1676164275000,0.1744586,180.0,199469713939000,3.0,Car
Fix,FLP,37.3808331,-122.0744594,5.5,2.8358474e-07,4.856,,1676164277019,0.1744586,,199469713939000,0.9382822,Car
Fix,GPS,37.3808329598,-122.0744595165,19.388297283047773,0.0,3.9343543,232.34366,1676164276000,0.17316867,180.0,199470714042000,3.0,Car
Fix,FLP,37.380833,-122.0744595,5.5,1.4581438e-07,4.856,,1676164278020,0.17316867,,199470714042000,0.9483878,Car
Fix,GPS,37.3808328889,-122.0744595385,19.52259655215604,0.0,4.246226,232.34366,1676164277000,0.17546627,180.0,199471713824000,3.0,Car
Fix,FLP,37.3808329,-122.0744595,5.5,3.704165e-09,4.769,,1676164279020,0.17546627,,199471713824000,0.95839113,Car
Fix,NLP,37.3808578,-122.0745713,5.5,,19.022,,1676164279474,,,199472167000000,1.0,Car
Fix,FLP,37.3808329,-122.0744595,5.5,5.211014e-07,5.055,,1676164279474,0.17546627,,199472167000000,0.91186666,Car
Fix,GPS,37.3808328115,-122.0744595786,19.716909935940297,0.0,4.2461286,232.34366,1676164278000,0.1780016,180.0,199472713865000,3.0,Car
Fix,FLP,37.3808328,-122.0744596,5.5,2.0559926e-06,5.107,,1676164280019,0.1780016,,199472713865000,0.9148819,Car
Fix,GPS,37.380832748,-122.0744596583,19.856246820072016,0.0,4.246031,232.34366,1676164279000,0.18244289,117.37742,199473714152000,3.0,Car
Fix,FLP,37.3808327,-122.0744597,5.5,1.0196504e-08,5.159,,1676164281021,0.18244289,,199473714152000,0.92716026,Car
Fix,GPS,37.3808326815,-122.0744597728,19.910275137289783,0.0,4.2459335,232.34366,1676164280000,0.17507501,180.0,199474713831000,3.0,Car
Fix,FLP,37.3808327,-122.0744598,5.5,7.161343e-09,5.029,,1676164282020,0.17507501,,199474713831000,0.93337756,Car
Fix,GPS,37.3808326226,-122.0744598931,19.92543430044396,0.0,4.2458363,232.34366,1676164281000,0.17670903,180.0,199475713854000,3.0,Car
Fix,FLP,37.3808326,-122.0744599,5.5,7.1693997e-09,5.043,,1676164283019,0.17670903,,199475713854000,0.94341534,Car
Fix,GPS,37.3808325738,-122.0744599986,19.91977319196204,0.0,4.2457395,232.34366,1676164282000,0.17460154,180.0,199476714144000,3.0,Car
Fix,FLP,37.3808326,-122.07446,5.5,6.760825e-09,5.227,,1676164284021,0.17460154,,199476714144000,0.95339257,Car
Fix,NLP,37.380866,-122.07454,5.5,,24.536,,1676164284501,,,199477195000000,1.0,Car
Fix,FLP,37.3808326,-122.07446,5.5,6.181949e-07,5.287,,1676164284501,0.17460154,,199477195000000,0.9090964,Car
Fix,GPS,37.3808325307,-122.0744600695,19.967071006426497,0.0,4.2456417,232.34366,1676164283000,0.17715964,180.0,199477713936000,3.0,Car
Fix,FLP,37.3808325,-122.0744601,5.5,2.1525307e-06,5.287,,1676164285020,0.17715964,,199477713936000,0.9129313,Car
Fix,GPS,37.3808325,-122.0744600975,20.11595416536772,0.0,4.2455444,232.34366,1676164284000,0.18080227,180.0,199478714212000,3.0,Car
Fix,FLP,37.3808325,-122.0744601,5.5,4.5886352e-09,5.287,,1676164286021,0.18080227,,199478714212000,0.92302144,Car
Fix,GPS,37.3808324595,-122.0744601753,20.165816269251582,0.0,4.245447,232.34366,1676164285000,0.17381245,180.0,199479714213000,3.0,Car
Fix,FLP,37.3808325,-122.0744602,5.5,5.459823e-09,5.287,,1676164287021,0.17381245,,199479714213000,0.93302715,Car
Fix,GPS,37.3808324231,-122.0744602056,20.18621000417747,0.0,4.2453504,232.34366,1676164286000,0.17470248,180.0,199480714449000,3.0,Car
Fix,FLP,37.3808324,-122.0744602,5.5,2.709704e-09,5.287,,1676164288020,0.17470248,,199480714449000,0.94122773,Car
Fix,GPS,37.3808323909,-122.0744602136,20.230866379347106,0.0,4.245253,232.34366,1676164287000,0.18123172,180.0,199481714185000,3.0,Car
Fix,FLP,37.3808324,-122.0744602,5.5,9.484342e-10,5.287,,1676164289020,0.18123172,,199481714185000,0.9526706,Car
Fix,NLP,37.3808377,-122.0745357,5.5,,29.946,,1676164289544,,,199482237000000,1.0,Car
Fix,FLP,37.3808324,-122.0744602,5.5,1.2494026e-07,5.378,,1676164289544,0.18123172,,199482237000000,0.9084335,Car
Fix,GPS,37.3808323551,-122.0744602762,20.24008718960787,0.0,4.2451563,232.34366,1676164288000,0.18791525,180.0,199482713980000,3.0,Car
Fix,FLP,37.3808324,-122.0744603,5.5,1.5721589e-06,5.377,,1676164290020,0.18791525,,199482713980000,0.91143775,Car
Fix,GPS,37.3808323153,-122.0744603216,20.237608851482687,0.0,4.3504133,232.34366,1676164289000,0.19227204,154.70247,199483714303000,3.0,Car
Fix,FLP,37.3808323,-122.0744603,5.5,5.354383e-09,5.395,,1676164291020,0.19227204,,199483714303000,0.921885,Car
Fix,GPS,37.380832276,-122.0744603448,20.24602115851612,0.0,4.35056,232.34366,1676164290000,0.18607579,180.0,199484714120000,3.0,Car
Fix,FLP,37.3808323,-122.0744603,5.5,1.1967736e-09,5.246,,1676164292020,0.18607579,,199484714120000,0.92813194,Car
Fix,GPS,37.3808322359,-122.0744603541,20.215601315945545,0.0,4.350707,232.34366,1676164291000,0.18257454,180.0,199485714343000,3.0,Car
Fix,FLP,37.3808322,-122.0744604,5.5,6.4128747e-09,5.261,,1676164293021,0.18257454,,199485714343000,0.9381105,Car
Fix,GPS,37.3808322038,-122.074460333,20.1534783455471,0.0,4.3508534,232.34366,1676164292000,0.17970778,180.0,199486714237000,3.0,Car
Fix,FLP,37.3808322,-122.0744603,5.5,3.5379824e-09,5.448,,1676164294021,0.17970778,,199486714237000,0.94813246,Car
Fix,NLP,37.380856,-122.0746024,5.5,,18.046,,1676164294543,,,199487237000000,1.0,Car
Fix,FLP,37.3808322,-122.0744603,5.5,3.0918576e-07,6.262,,1676164294543,0.17970778,,199487237000000,0.9050087,Car
Fix,GPS,37.3808321604,-122.0744603101,20.1185809758733,0.0,4.3510003,232.34366,1676164293000,0.18215767,180.0,199487714087000,3.0,Car
Fix,FLP,37.3808322,-122.0744603,5.5,2.5767244e-07,5.483,,1676164295020,0.18215767,,199487714087000,0.9080087,Car
Fix,GPS,37.3808320945,-122.0744603005,20.111329230536928,0.0,4.3511477,232.34366,1676164294000,0.19092707,148.96661,199488714406000,3.0,Car
Fix,FLP,37.3808321,-122.0744603,5.5,3.1938059e-09,5.483,,1676164296020,0.19092707,,199488714406000,0.9165389,Car
Fix,GPS,37.3808320802,-122.0744603232,20.15330062796482,0.0,4.7303376,232.34366,1676164295000,0.18320252,120.13142,199489714076000,3.0,Car
Fix,FLP,37.3808321,-122.0744603,5.5,9.279943e-10,5.375,,1676164297021,0.18320252,,199489714076000,0.92657125,Car
Fix,GPS,37.3808320467,-122.0744603524,20.144811918670325,0.0,4.4068584,232.34366,1676164296000,0.17844686,180.0,199490714205000,3.0,Car
Fix,FLP,37.380832,-122.0744604,5.5,5.7420824e-09,5.383,,1676164298021,0.17844686,,199490714205000,0.9377929,Car
Fix,GPS,37.3808320401,-122.0744603432,20.14365478461784,0.0,4.406757,232.34366,1676164297000,0.17854245,178.94423,199491714423000,3.0,Car
Fix,FLP,37.380832,-122.0744603,5.5,3.401686e-09,5.565,,1676164299021,0.17854245,,199491714423000,0.94780546,Car
Fix,NLP,37.3808603,-122.0746208,5.5,,31.356,,1676164299596,,,199492289000000,1.0,Car
Fix,FLP,37.380832,-122.0744603,5.5,3.0558033e-07,5.687,,1676164299596,0.17854245,,199492289000000,0.9050515,Car
Fix,GPS,37.3808319846,-122.0744603044,20.08340757109229,0.0,4.2441883,232.34366,1676164298000,0.18117069,180.0,199492714094000,3.0,Car
Fix,FLP,37.380832,-122.0744603,5.5,2.6022158e-07,5.669,,1676164300020,0.18117069,,199492714094000,0.9065826,Car
Fix,GPS,37.3808319484,-122.0744602195,20.091247116709297,0.0,4.2440915,232.34366,1676164299000,0.18730405,180.0,199493714461000,3.0,Car
Fix,FLP,37.3808319,-122.0744602,5.5,7.2840325e-09,5.651,,1676164301020,0.18730405,,199493714461000,0.9165573,Car
Fix,GPS,37.3808319505,-122.0744601681,20.177461538694757,0.0,4.4064517,232.34366,1676164300000,0.1796231,83.25846,199494714453000,3.0,Car
Fix,FLP,37.380832,-122.0744602,5.5,2.5232338e-09,5.597,,1676164302020,0.1796231,,199494714453000,0.9270015,Car
Fix,GPS,37.3808319488,-122.0744600698,20.274818915120985,0.0,4.40635,232.34366,1676164301000,0.17674372,180.0,199495714189000,3.0,Car
Fix,FLP,37.3808319,-122.0744601,5.5,5.651216e-09,5.427,,1676164303021,0.17674372,,199495714189000,0.93314964,Car
Fix,GPS,37.380831927,-122.0744599366,20.3683635120738,0.0,4.4062486,232.34366,1676164302000,0.17507128,140.28654,199496714574000,3.0,Car
Fix,FLP,37.3808319,-122.07446,5.5,1.0826771e-08,5.597,,1676164304021,0.17507128,,199496714574000,0.94313204,Car
Fix,NLP,37.3808574,-122.0745477,5.5,,19.919,,1676164304643,,,199497337000000,1.0,Car
Fix,FLP,37.3808319,-122.07446,5.5,9.383097e-07,5.7,,1676164304644,0.17507128,,199497337000000,0.89958364,Car
Fix,GPS,37.3808318713,-122.0744598099,20.34733484121587,0.0,4.3524747,232.34366,1676164303000,0.18016636,180.0,199497714183000,3.0,Car
Fix,FLP,37.3808319,-122.0744599,5.5,2.1473434e-06,5.718,,1676164305021,0.18016636,,199497714183000,0.90120256,Car
Fix,GPS,37.3808318094,-122.0744596923,20.348743510139904,0.0,4.3526225,232.34366,1676164304000,0.18197866,180.0,199498714381000,3.0,Car
Fix,FLP,37.3808318,-122.0744598,5.5,1.1236492e-08,5.523,,1676164306020,0.18197866,,199498714381000,0.9111917,Car
Fix,GPS,37.380831857,-122.0744596721,20.35000094077846,0.0,4.731086,232.34366,1676164305000,0.17475857,70.35578,199499714484000,3.0,Car
Fix,FLP,37.3808319,-122.0744597,5.5,2.8969467e-09,5.79,,1676164307020,0.17475857,,199499714484000,0.9223205,Car
Fix,GPS,37.3808319154,-122.0744588618,20.36808455943018,0.0,4.4058433,232.34366,1676164306000,0.17192931,96.48008,199500714213000,3.0,Car
Fix,FLP,37.3808319,-122.0744592,5.5,3.530465e-08,5.79,,1676164308021,0.17192931,,199500714213000,0.9323277,Car
Fix,GPS,37.3808316618,-122.0744584179,20.326220582934106,0.0,4.731236,232.34366,1676164307000,0.17504609,55.010372,199501714391000,3.0,Car
Fix,FLP,37.3808318,-122.0744586,5.5,3.3340527e-08,5.639,,1676164309021,0.17504609,,199501714391000,0.942341,Car
Fix,NLP,37.3808656,-122.0746287,5.5,,16.897,,1676164309709,,,199502402000000,1.0,Car
Fix,FLP,37.3808318,-122.0744586,5.5,2.9115174e-06,6.04,,1676164309709,0.17504609,,199502402000000,0.8998307,Car
Fix,GPS,37.3808318838,-122.0744586689,20.29386185667001,0.0,4.7313113,232.34366,1676164308000,0.1847765,180.0,199502714262000,3.0,Car
Fix,FLP,37.3808318,-122.0744587,5.5,1.9547167e-06,6.103,,1676164310020,0.1847765,,199502714262000,0.9016646,Car
Fix,GPS,37.3808320789,-122.0744585599,20.32814497071301,0.0,4.243129,232.34366,1676164309000,0.18214035,172.75444,199503714279000,3.0,Car
Fix,FLP,37.380832,-122.0744586,5.5,8.283419e-09,5.837,,1676164311021,0.18214035,,199503714279000,0.9110718,Car
Fix,GPS,37.3808320263,-122.0744573104,20.364267813628825,0.0,4.2430325,232.34366,1676164310000,0.17306346,180.0,199504714304000,3.0,Car
Fix,FLP,37.380832,-122.0744577,5.5,6.293705e-08,5.822,,1676164312021,0.17306346,,199504714304000,0.9210863,Car
Fix,GPS,37.380832071,-122.0744562055,20.387039907435668,0.0,4.2429366,232.34366,1676164311000,0.1734399,180.0,199505714550000,3.0,Car
Fix,FLP,37.3808321,-122.0744567,5.5,6.591628e-08,5.976,,1676164313021,0.1734399,,199505714550000,0.93105173,Car
Fix,GPS,37.3808320425,-122.0744560955,20.3931257803993,0.0,4.242841,232.34366,1676164312000,0.17409067,180.0,199506714456000,3.0,Car
Fix,FLP,37.380832,-122.0744563,5.5,2.588936e-08,5.895,,1676164314021,0.17409067,,199506714456000,0.9413939,Car
Fix,NLP,37.380849,-122.0745814,5.5,,25.465,,1676164314705,,,199507399000000,1.0,Car
Fix,FLP,37.380832,-122.0744563,5.5,2.333514e-06,6.93,,1676164314705,0.17409067,,199507399000000,0.8993899,Car
Fix,GPS,37.380831917,-122.0744561432,20.381727360630748,0.0,4.2427444,232.34366,1676164313000,0.18472297,95.771126,199507714341000,3.0,Car
Fix,FLP,37.3808319,-122.0744562,5.5,2.3228708e-06,5.726,,1676164315020,0.18472297,,199507714341000,0.8963239,Car
Fix,GPS,37.380831674,-122.0744562517,20.41528598891872,0.0,4.2426486,232.34366,1676164314000,0.18289733,180.0,199508714590000,3.0,Car
Fix,FLP,37.3808318,-122.0744563,5.5,1.0014262e-08,5.726,,1676164316020,0.18289733,,199508714590000,0.9063129,Car
Fix,GPS,37.3808313343,-122.074456366,20.38013235458268,0.0,4.2425528,232.34366,1676164315000,0.188367,125.85697,199509714704000,3.0,Car
Fix,FLP,37.3808315,-122.0744564,5.5,1.5299225e-08,5.726,,1676164317021,0.188367,,199509714704000,0.91724694,Car
Fix,GPS,37.3808313263,-122.0744559187,20.31127237625705,0.0,4.242457,232.34366,1676164316000,0.17887795,180.0,199510714415000,3.0,Car
Fix,FLP,37.3808313,-122.074456,5.5,2.4911195e-08,5.514,,1676164318021,0.17887795,,199510714415000,0.9273109,Car
Fix,GPS,37.3808317804,-122.0744554307,20.224495639096894,0.0,4.242361,232.34366,1676164317000,0.17277794,107.91893,199511714645000,3.0,Car
Fix,FLP,37.3808317,-122.0744556,5.5,3.1095386e-08,5.725,,1676164319021,0.17277794,,199511714645000,0.9373295,Car
Fix,NLP,37.3808604,-122.0746204,5.5,,19.249,,1676164319786,,,199512479000000,1.0,Car
Fix,GPS,37.3808316215,-122.0744561208,20.159985447441134,0.0,4.2422657,232.34366,1676164318000,0.18186843,74.90138,199512714584000,3.0,Car
Fix,FLP,37.3808317,-122.0744556,5.5,2.767104e-06,5.898,,1676164319786,0.17277794,,199512479000000,0.89652103,Car
Fix,FLP,37.3808316,-122.0744559,5.5,5.668398e-06,5.898,,1676164320021,0.18186843,,199512714584000,0.89649713,Car
Fix,GPS,37.3808307496,-122.0744568904,20.10415682333653,0.0,4.2421694,232.34366,1676164319000,0.18740584,180.0,199513714720000,3.0,Car
Fix,FLP,37.380831,-122.0744566,5.5,7.025023e-08,5.898,,1676164321021,0.18740584,,199513714720000,0.90649825,Car
Fix,GPS,37.3808302257,-122.0744571299,20.05512682994337,0.0,4.242074,232.34366,1676164320000,0.17539819,180.0,199514714718000,3.0,Car
Fix,FLP,37.3808305,-122.0744569,5.5,3.33828e-08,5.898,,1676164322020,0.17539819,,199514714718000,0.91654646,Car
Fix,GPS,37.3808302123,-122.0744569798,19.96031477064973,0.0,4.241978,232.34366,1676164321000,0.17728858,180.0,199515714578000,3.0,Car
Fix,FLP,37.3808303,-122.074457,5.5,6.46309e-09,5.898,,1676164323021,0.17728858,,199515714578000,0.926018,Car
Fix,GPS,37.3808300283,-122.0744571097,19.859898297846488,0.0,4.241883,232.34366,1676164322000,0.17702286,180.0,199516714454000,3.0,Car
Fix,FLP,37.3808301,-122.0744571,5.5,8.513897e-09,5.661,,1676164324021,0.17702286,,199516714454000,0.9359888,Car
Fix,NLP,37.3808324,-122.0745587,5.5,,22.039,,1676164324836,,,199517529000000,1.0,Car
Fix,GPS,37.3808293584,-122.0744580316,19.74838936462937,0.0,4.2417874,232.34366,1676164323000,0.18697618,180.0,199517714525000,3.0,Car
Fix,FLP,37.3808296,-122.0744577,5.5,5.214353e-08,4.242,,1676164325021,0.18697618,,199517714525000,0.94510716,Car
Fix,GPS,37.3808289147,-122.0744587071,19.638100598062408,0.0,4.2416916,232.34366,1676164324000,0.18986405,180.0,199518714716000,3.0,Car
Fix,FLP,37.3808291,-122.0744584,5.5,2.8160274e-08,4.242,,1676164326021,0.18986405,,199518714716000,0.9048739,Car
Fix,GPS,37.3808284481,-122.0744587503,19.57652742749614,0.0,4.241596,232.34366,1676164325000,0.17812842,180.0,199519714927000,3.0,Car
Fix,FLP,37.3808286,-122.0744587,5.5,2.7775965e-08,4.242,,1676164327020,0.17812842,,199519714927000,0.9155639,Car
Fix,GPS,37.3808280093,-122.074458884,19.51067162983784,0.0,4.241501,232.34366,1676164326000,0.1776531,180.0,199520714766000,3.0,Car
Fix,FLP,37.3808282,-122.0744588,5.5,1.7745927e-08,4.242,,1676164328021,0.1776531,,199520714766000,0.9216134,Car
Fix,GPS,37.3808277814,-122.0744584144,19.50572677552899,0.0,4.2414055,232.34366,1676164327000,0.17667417,180.0,199521714724000,3.0,Car
Fix,FLP,37.3808279,-122.0744585,5.5,2.2070404e-08,4.241,,1676164329021,0.17667417,,199521714724000,0.9316271,Car
Fix,GPS,37.3808275678,-122.0744585072,19.50148882000877,0.0,4.24131,232.34366,1676164328000,0.18670413,87.53256,199522714756000,3.0,Car
Fix,FLP,37.3808277,-122.0744585,5.5,8.301349e-09,4.241,,1676164330021,0.18670413,,199522714756000,0.9416299,Car
Fix,NLP,37.3808687,-122.0745108,5.5,,25.094,,1676164329925,,,199522618000000,1.0,Car
Fix,GPS,37.3808274988,-122.0744585155,19.53641308859809,0.0,4.2412148,232.34366,1676164329000,0.19032454,180.0,199523714558000,3.0,Car
Fix,FLP,37.3808276,-122.0744585,5.5,2.4367968e-09,4.241,,1676164331020,0.19032454,,199523714558000,0.9007657,Car
Fix,GPS,37.3808274079,-122.0744584905,19.578585176159745,0.0,4.24112,232.34366,1676164330000,0.18748902,180.0,199524714801000,3.0,Car
Fix,FLP,37.3808275,-122.0744585,5.5,4.4599364e-09,4.241,,1676164332020,0.18748902,,199524714801000,0.9107755,Car
Fix,GPS,37.3808272813,-122.074458482,19.609973689764196,0.0,4.241025,232.34366,1676164331000,0.18555982,180.0,199525714616000,3.0,Car
Fix,FLP,37.3808273,-122.0744585,5.5,4.090544e-09,4.241,,1676164333021,0.18555982,,199525714616000,0.9207884,Car
Fix,GPS,37.3808271614,-122.0744584622,19.625708508990787,0.0,4.2409296,232.34366,1676164332000,0.18394935,180.0,199526714890000,3.0,Car
Fix,FLP,37.3808272,-122.0744585,5.5,3.8888706e-09,4.241,,1676164334021,0.18394935,,199526714890000,0.93078226,Car
Fix,GPS,37.3808265798,-122.0744583451,19.63882296877708,0.0,4.240834,232.34366,1676164333000,0.18940946,180.0,199527714642000,3.0,Car
Fix,NLP,37.3808525,-122.0746045,5.5,,19.888,,1676164334911,,,199527605000000,1.0,Car
Fix,FLP,37.3808268,-122.0744584,5.5,2.1172344e-08,4.241,,1676164335020,0.18940946,,199527714642000,0.9399757,Car
Fix,GPS,37.3808257805,-122.0744580773,19.71906987868717,0.0,3.9305491,232.34366,1676164334000,0.18864875,180.0,199528714652000,3.0,Car
Fix,FLP,37.3808261,-122.0744582,5.5,1.5754852e-08,4.189,,1676164336021,0.18864875,,199528714652000,0.89962834,Car
Fix,GPS,37.3808249269,-122.0744574068,19.86215451275646,0.0,3.9304857,232.34366,1676164335000,0.19435775,55.03881,199529714835000,3.0,Car
Fix,FLP,37.3808253,-122.0744577,5.5,6.2324396e-08,4.137,,1676164337020,0.19435775,,199529714835000,0.90963703,Car
Fix,GPS,37.3808232725,-122.0744561343,19.994532122047215,0.0,3.9304228,232.34366,1676164336000,0.18168697,180.0,199530714695000,3.0,Car
Fix,FLP,37.3808239,-122.0744566,5.5,1.08231276e-07,4.085,,1676164338021,0.18168697,,199530714695000,0.92024463,Car
Fix,GPS,37.380823149,-122.074456006,20.09702389400515,0.0,3.9303598,232.34366,1676164337000,0.18049976,180.0,199531715048000,3.0,Car
Fix,FLP,37.3808234,-122.0744562,5.5,3.704901e-08,4.033,,1676164339022,0.18049976,,199531715048000,0.93025863,Car
Fix,GPS,37.3808230444,-122.0744559412,20.17921066398102,0.0,3.930297,232.34366,1676164338000,0.18701659,180.0,199532714731000,3.0,Car
Fix,FLP,37.3808231,-122.074456,5.5,1.8614843e-08,3.93,,1676164340021,0.18701659,,199532714731000,0.9404457,Car
Fix,NLP,37.3808469,-122.0745839,5.5,,18.211,,1676164339955,,,199532649000000,1.0,Car
Fix,GPS,37.3808229244,-122.0744558314,20.269105964370613,0.0,4.1428185,232.34366,1676164339000,0.19156294,180.0,199533714716000,3.0,Car
Fix,FLP,37.380823,-122.0744559,5.5,5.7420877e-09,3.965,,1676164341021,0.19156294,,199533714716000,0.90003145,Car
Fix,GPS,37.3808227903,-122.0744557447,20.36987591485851,0.0,4.1427355,232.34366,1676164340000,0.18593639,180.0,199534714777000,3.0,Car
Fix,FLP,37.3808229,-122.0744557,5.5,1.0420185e-08,3.99,,1676164342021,0.18593639,,199534714777000,0.90610325,Car
Fix,GPS,37.3808223466,-122.0744549644,20.456066644230653,0.0,4.1426525,232.34366,1676164341000,0.183457,180.0,199535714724000,3.0,Car
Fix,FLP,37.3808225,-122.0744552,5.5,4.4227843e-08,4.036,,1676164343021,0.183457,,199535714724000,0.9161408,Car
Fix,GPS,37.3808218421,-122.0744544552,20.50597096577548,0.0,4.1425695,232.34366,1676164342000,0.18664084,180.0,199536714741000,3.0,Car
Fix,FLP,37.380822,-122.0744547,5.5,4.5331433e-08,4.051,,1676164344020,0.18664084,,199536714741000,0.9261378,Car
Fix,NLP,37.3808542,-122.0745304,5.5,,23.633,,1676164344928,,,199537621000000,1.0318222,Car
Fix,GPS,37.3808212374,-122.0744541493,20.5378799035396,0.0,4.1424866,232.34366,1676164343000,0.1911696,134.97057,199537714750000,3.0,Car
Fix,FLP,37.3808215,-122.0744543,5.5,4.5453536e-08,4.142,,1676164345020,0.1911696,,199537714750000,0.9356111,Car
Fix,GPS,37.380821131,-122.0744540753,20.58244803379335,0.0,4.142404,232.34366,1676164344000,0.20021231,180.0,199538714780000,3.0,Car
Fix,FLP,37.3808212,-122.0744541,5.5,6.33745e-09,4.142,,1676164346021,0.20021231,,199538714780000,0.8989881,Car
Fix,GPS,37.3808210274,-122.0744540001,20.64201546295326,0.0,4.142321,232.34366,1676164345000,0.19271223,92.165985,199539714811000,3.0,Car
Fix,FLP,37.3808211,-122.074454,5.5,1.1899765e-08,4.142,,1676164347021,0.19271223,,199539714811000,0.9086142,Car
Fix,GPS,37.3808209505,-122.0744538932,20.668477289652184,0.0,4.1422386,232.34366,1676164346000,0.18831061,46.391518,199540715068000,3.0,Car
Fix,FLP,37.380821,-122.0744539,5.5,9.364621e-09,4.142,,1676164348022,0.18831061,,199540715068000,0.91901696,Car
Fix,GPS,37.3808208672,-122.0744537762,20.71644660641204,0.0,4.1421556,232.34366,1676164347000,0.18329522,180.0,199541714981000,3.0,Car
Fix,FLP,37.3808209,-122.0744538,5.5,8.974625e-09,4.142,,1676164349021,0.18329522,,199541714981000,0.92944133,Car
Fix,GPS,37.3808204345,-122.0744531434,20.80559159177215,0.0,3.9296722,232.34366,1676164348000,0.18517561,180.0,199542714864000,3.0,Car
Fix,FLP,37.3808206,-122.0744533,5.5,4.353053e-08,4.099,,1676164350020,0.18517561,,199542714864000,0.9386379,Car
Fix,NLP,37.380852,-122.0746059,5.5,,17.829,,1676164349984,,,199542678000000,1.0,Car
Fix,GPS,37.380820642,-122.0744534392,20.859929651576092,0.029825974,3.2431374,232.34366,1676164349000,0.16444774,180.0,199543714923000,3.0,Car
Fix,FLP,37.3808206,-122.0744533,5.5,0.029800493,4.031,,1676164351020,0.16444774,,199543714923000,0.8946033,Car
Fix,GPS,37.3808209372,-122.0744535578,20.815682416726176,0.029694516,3.354353,232.34366,1676164350000,0.1578379,24.635391,199544715186000,3.0,Car
Fix,FLP,37.3808207,-122.0744536,5.5,0.029694576,3.99,,1676164352021,0.1578379,,199544715186000,0.90884256,Car
Fix,GPS,37.3808208639,-122.0744534188,20.740447595436617,0.022740973,3.4381104,232.34366,1676164351000,0.15460989,180.0,199545714957000,3.0,Car
Fix,FLP,37.3808208,-122.0744536,5.5,0.022745986,3.977,,1676164353021,0.15460989,,199545714957000,0.9186534,Car
Fix,GPS,37.3808207842,-122.0744533382,20.68168350729188,0.03459567,3.5086577,232.34366,1676164352000,0.15667152,180.0,199546715199000,3.0,Car
Fix,FLP,37.3808208,-122.0744534,5.5,0.0345851,3.91,,1676164354021,0.15667152,,199546715199000,0.9288809,Car
Fix,GPS,37.3808207369,-122.0744532748,20.562604843198912,0.027402861,3.5540872,232.34366,1676164353000,0.17401196,180.0,199547714927000,3.0,Car
Fix,FLP,37.3808207,-122.0744534,5.5,0.027409568,3.9,,1676164355021,0.17401196,,199547714927000,0.938894,Car
Fix,NLP,37.3808457,-122.0746073,5.5,,28.303,,1676164354978,,,199547671000000,1.0,Car
Fix,GPS,37.3808207629,-122.0744530834,20.42259523939536,0.024213262,3.5538282,232.34366,1676164354000,0.15106134,85.02292,199548714975000,3.0,Car
Fix,FLP,37.3808207,-122.0744533,5.5,0.024215115,3.842,,1676164356021,0.15106134,,199548714975000,0.8989745,Car
Fix,GPS,37.3808207291,-122.074452961,20.31109055344922,0.022015106,3.5745883,232.34366,1676164355000,0.15879118,15.735646,199549715218000,3.0,Car
Fix,FLP,37.3808207,-122.0744532,5.5,0.022016505,3.788,,1676164357022,0.15879118,,199549715218000,0.9089991,Car
Fix,GPS,37.3808197995,-122.0744516425,20.234352141402223,0.064671196,3.5415266,232.34366,1676164356000,0.15153375,180.0,199550715003000,3.0,Car
Fix,FLP,37.38082,-122.0744522,5.5,0.06460647,3.788,,1676164358022,0.15153375,,199550715003000,0.91196126,Car
Fix,GPS,37.3808204795,-122.0744516972,20.23693848986563,0.07109226,3.5401776,232.34366,1676164357000,0.14384066,180.0,199551715600000,3.0,Car
Fix,FLP,37.3808202,-122.074452,5.5,0.07108136,3.788,,1676164359022,0.14384066,,199551715600000,0.9213159,Car
Fix,GPS,37.3808208264,-122.0744520352,20.117595026093205,0.06431272,3.537818,232.34366,1676164358000,0.14430681,19.337637,199552714978000,3.0,Car
Fix,FLP,37.3808205,-122.0744522,5.5,0.06431632,3.765,,1676164360021,0.14430681,,199552714978000,0.9303159,Car
Fix,NLP,37.380853,-122.0744557,5.5,,26.158,,1676164360014,,,199552707000000,1.0,Car
Fix,GPS,37.380820656,-122.0744526212,20.06603509317414,0.047312498,3.534452,232.34366,1676164359000,0.15835741,33.624516,199553715021000,3.0,Car
Fix,FLP,37.3808205,-122.0744526,5.5,0.047323544,3.845,,1676164361021,0.15835741,,199553715021000,0.89325863,Car
Fix,GPS,37.3808205954,-122.0744528208,19.986638433586997,0.041804742,3.547617,232.34366,1676164360000,0.16913916,22.550442,199554715061000,3.0,Car
Fix,FLP,37.3808205,-122.0744529,5.5,0.041808777,3.853,,1676164362021,0.16913916,,199554715061000,0.90366435,Car
Fix,GPS,37.38082092,-122.074452532,19.900521342060813,0.045088314,3.528612,232.34366,1676164361000,0.15765277,18.489689,199555715077000,3.0,Car
Fix,FLP,37.3808207,-122.0744527,5.5,0.045086198,3.9,,1676164363022,0.15765277,,199555715077000,0.9137607,Car
Fix,GPS,37.3808206369,-122.0744523535,19.822416523210144,0.048176095,3.5455441,232.34366,1676164362000,0.15491872,51.892223,199556715142000,3.0,Car
Fix,FLP,37.3808206,-122.0744526,5.5,0.048174057,3.9,,1676164364022,0.15491872,,199556715142000,0.9241579,Car
Fix,GPS,37.3808207398,-122.0744531464,19.718748568153117,0.049551405,3.5488024,232.34366,1676164363000,0.15596193,180.0,199557715091000,3.0,Car
Fix,FLP,37.3808206,-122.0744531,5.5,0.049549792,3.9,,1676164365022,0.15596193,,199557715091000,0.9334129,Car
Fix,NLP,37.3808281,-122.07454,5.5,,26.597,,1676164365039,,,199557732000000,1.0,Car
Fix,GPS,37.3808204844,-122.0744537941,19.680239511954536,0.06564276,3.5573215,232.34366,1676164364000,0.16131198,50.44169,199558715094000,3.0,Car
Fix,FLP,37.3808204,-122.0744537,5.5,0.06563102,3.879,,1676164366021,0.16131198,,199558715094000,0.8910448,Car
Fix,GPS,37.3808205153,-122.0744539083,19.516151826183187,0.05487949,3.5609,232.34366,1676164365000,0.16197895,180.0,199559715427000,3.0,Car
Fix,FLP,37.3808204,-122.074454,5.5,0.054893836,3.879,,1676164367022,0.16197895,,199559715427000,0.90105164,Car
Fix,GPS,37.380820043,-122.0744549197,19.432115816905203,0.042860523,3.5967321,232.34366,1676164366000,0.15769306,180.0,199560715152000,3.0,Car
Fix,FLP,37.38082,-122.0744548,5.5,0.042873077,3.879,,1676164368021,0.15769306,,199560715152000,0.91383207,Car
Fix,GPS,37.3808201747,-122.0744561271,19.32325048375076,0.03376099,3.576471,232.34366,1676164367000,0.1551321,180.0,199561715438000,3.0,Car
Fix,FLP,37.3808201,-122.0744558,5.5,0.033768903,3.879,,1676164369022,0.1551321,,199561715438000,0.9236938,Car
Fix,GPS,37.3808201363,-122.0744561911,19.25486618679773,0.028046124,3.5995383,232.34366,1676164368000,0.16331589,46.699013,199562715166000,3.0,Car
Fix,FLP,37.38082,-122.0744562,5.5,0.02805007,3.879,,1676164370022,0.16331589,,199562715166000,0.93272555,Car
Fix,NLP,37.3808312,-122.0744324,5.5,,24.001,,1676164370075,,,199562768000000,1.0,Car
Fix,GPS,37.3808199898,-122.0744572156,19.204713639711706,0.031742215,3.5717802,232.34366,1676164369000,0.15949737,180.0,199563715231000,3.0,Car
Fix,FLP,37.38082,-122.0744569,5.5,0.03174053,4.014,,1676164371022,0.15949737,,199563715231000,0.8935689,Car
Fix,GPS,37.3808195489,-122.0744577475,19.284947042295837,0.021156713,3.6395564,232.34366,1676164370000,0.16284108,180.0,199564715249000,3.0,Car
Fix,FLP,37.3808196,-122.0744575,5.5,0.021164924,3.998,,1676164372022,0.16284108,,199564715249000,0.90304464,Car
Fix,GPS,37.3808195383,-122.074457781,19.33147081881221,0.03181994,3.6351266,232.34366,1676164371000,0.16109118,180.0,199565715229000,3.0,Car
Fix,FLP,37.3808195,-122.0744578,5.5,0.03181051,3.97,,1676164373022,0.16109118,,199565715229000,0.913049,Car
Fix,GPS,37.3808195318,-122.0744578843,19.2844871715682,0.022307426,3.5833144,232.34366,1676164372000,0.15969273,15.765649,199566715251000,3.0,Car
Fix,FLP,37.3808194,-122.074458,5.5,0.022313584,3.96,,1676164374021,0.15969273,,199566715251000,0.91941667,Car
Fix,GPS,37.3808190305,-122.0744589871,19.21483824909013,0.032763876,3.6270728,232.34366,1676164373000,0.16143693,180.0,199567715412000,3.0,Car
Fix,FLP,37.3808191,-122.0744587,5.5,0.032754485,3.97,,1676164375022,0.16143693,,199567715412000,0.9253954,Car
Fix,NLP,37.3808572,-122.0745493,5.5,,24.669,,1676164375041,,,199567734000000,1.0,Car
Fix,GPS,37.3808185042,-122.0744597019,19.11935890335259,0.05195822,3.6764617,232.34366,1676164374000,0.15925564,68.60591,199568715329000,3.0,Car
Fix,FLP,37.3808186,-122.0744595,5.5,0.051944766,3.896,,1676164376022,0.15925564,,199568715329000,0.8867316,Car
Fix,GPS,37.3808179199,-122.0744611316,18.911983379936096,0.064291604,3.6427727,232.34366,1676164375000,0.1579276,32.043346,199569715535000,3.0,Car
Fix,FLP,37.380818,-122.0744607,5.5,0.06428345,3.896,,1676164377022,0.1579276,,199569715535000,0.89966726,Car
Fix,GPS,37.3808169924,-122.0744621575,18.763311012859724,0.106220685,3.6486218,232.34366,1676164376000,0.15166596,47.670673,199570715267000,3.0,Car
Fix,FLP,37.3808172,-122.0744619,5.5,0.10618879,3.94,231.99806,1676164378022,0.15166596,47.670673,199570715267000,0.909636,Car
Fix,GPS,37.3808158554,-122.0744616983,18.700298029715093,0.17012022,3.6032288,232.34366,1676164377000,0.14439313,20.497839,199571715283000,3.0,Car
Fix,FLP,37.3808161,-122.0744621,5.5,0.17008097,3.94,231.99791,1676164379021,0.14439313,20.497839,199571715283000,0.9186188,Car
Fix,GPS,37.3808155159,-122.074454663,18.76273155733803,0.41817543,3.6256766,105.81656,1676164378000,0.16279927,13.3853655,199572715632000,3.0,Car
Fix,FLP,37.3808154,-122.0744576,5.5,0.4175429,3.894,105.023,1676164380021,0.16279927,13.3853655,199572715632000,0.92964876,Car
Fix,NLP,37.3808517,-122.0745104,5.5,,30.142,,1676164380099,,,199572792000000,1.0,Car
Fix,FLP,37.3808154,-122.0744561,5.5,0.41756386,3.974,105.02212,1676164380098,0.16279927,13.3853655,199572792000000,0.8795674,Car
Fix,GPS,37.380814446,-122.0744455883,18.861109958489,0.8981039,3.6192489,110.58984,1676164379000,0.17429954,6.2782393,199573715403000,3.0,Car
Fix,FLP,37.3808144,-122.0744477,5.5,0.89754003,3.974,110.00523,1676164381022,0.17429954,6.2782393,199573715403000,0.88859683,Car
Fix,GPS,37.3808119904,-122.0744256443,18.6738203846791,1.3704717,3.6574283,102.65169,1676164380000,0.17642,4.284756,199574715680000,3.0,Car
Fix,FLP,37.3808119,-122.0744297,5.5,1.3697708,3.974,102.00675,1676164382022,0.17642,4.284756,199574715680000,0.8963042,Car
Fix,GPS,37.3808167689,-122.0744091182,18.384996913446766,1.5110023,3.7183406,93.97315,1676164381000,0.17480455,4.5857077,199575715370000,3.0,Car
Fix,FLP,37.3808144,-122.0744108,5.5,1.5107633,3.974,93.00598,1676164383021,0.17480455,4.5857077,199575715370000,0.90628976,Car
Fix,GPS,37.3808263128,-122.0743914707,17.974750493315504,1.6349075,3.5000844,82.38811,1676164382000,0.19335096,6.6202583,199576715418000,3.0,Car
Fix,FLP,37.3808222,-122.0743922,5.5,1.6346393,3.974,82.01725,1676164384021,0.19335096,6.6202583,199576715418000,0.91623306,Car
Fix,GPS,37.380834181,-122.0743825417,17.51284321473188,1.5152049,3.424921,81.86812,1676164383000,0.26176032,12.44978,199577715814000,3.0,Car
