Fix,Provider,LatitudeDegrees,LongitudeDegrees,AltitudeMeters,SpeedMps,AccuracyMeters,BearingDegrees,UnixTimeMillis,SpeedAccuracyMps,BearingAccuracyDegrees,elapsedRealtimeNanos,VerticalAccuracyMeters,TransitType
Fix,FLP,37.3860478,-122.0838001,-5.241548437237888,0.0,4.446,,1677973380764,0.017089961,,1408189815000000,0.9259126,Car
Fix,GPS,37.3860477893,-122.083800117,1.9595384682179025,0.0,3.9390209,204.43593,1677973381000,0.01722627,66.35125,1408190730949000,3.0,Car
Fix,FLP,37.3860478,-122.0838001,-5.538774962138547,0.0,4.277,,1677973381679,0.01722627,,1408190730949000,0.98297447,Car
Fix,GPS,37.3860477893,-122.083800117,2.1118856975325286,0.0,3.9390433,204.43593,1677973382000,0.018084105,180.0,1408191730955000,3.0,Car
Fix,FLP,37.3860478,-122.0838001,-5.869241754750803,0.0,4.192,,1677973382679,0.018084105,,1408191730955000,0.9439051,Car
Fix,GPS,37.3860477893,-122.083800117,2.2431171674170023,0.0,3.9390657,204.43593,1677973383000,0.016256215,180.0,1408192730966000,3.0,Car
Fix,FLP,37.3860478,-122.0838001,-5.699405945543951,0.0,4.108,,1677973383679,0.016256215,,1408192730966000,1.0029261,Car
Fix,GPS,37.3860477893,-122.083800117,2.5174404893736737,0.0,4.448516,204.43593,1677973384000,0.019689387,178.992,1408193731018000,3.0,Car
Fix,FLP,37.3860478,-122.0838001,-5.824225366589275,0.0,4.129,,1677973384680,0.019689387,,1408193731018000,0.9595287,Car
Fix,GPS,37.3860477893,-122.083800117,2.7404930667401586,0.0,3.7902312,204.43593,1677973385000,0.020424007,180.0,1408194731071000,3.0,Car
Fix,FLP,37.3860478,-122.0838001,-5.4732939402876255,0.0,4.165,,1677973385680,0.020424007,,1408194731071000,0.97766906,Car
Fix,NLP,37.3864016,-122.0841992,4.800000190734863,,37.171,,1677973385706,,,1408194757000000,7.5800557,Car
Fix,FLP,37.3860478,-122.0838001,-5.563841781563752,0.0,4.076,,1677973386680,0.023402948,,1408195731041000,0.9358994,Car
Fix,GPS,37.3860477893,-122.083800117,2.9961428202292213,0.0,3.7901638,204.43593,1677973386000,0.023402948,180.0,1408195731041000,3.0,Car
Fix,GPS,37.3860477893,-122.083800117,3.21512658360669,0.0,3.871602,204.43593,1677973387000,0.019978574,180.0,1408196731072000,3.0,Car
Fix,FLP,37.3860478,-122.0838001,-5.606813299073444,0.0,4.072,,1677973387680,0.019978574,,1408196731072000,1.0011555,Car
Fix,GPS,37.3860477893,-122.083800117,3.423776555888685,0.0,3.8716388,204.43593,1677973388000,0.01997275,180.0,1408197731083000,3.0,Car
Fix,FLP,37.3860478,-122.0838001,-5.746980778305719,0.0,4.084,,1677973388680,0.01997275,,1408197731083000,0.9501469,Car
Fix,GPS,37.3860477893,-122.083800117,3.653413680224592,0.0,3.7899613,204.43593,1677973389000,0.30734286,146.53,1408198731295000,3.0,Car
Fix,FLP,37.3860478,-122.0838001,-5.774604751881036,0.0,4.015,,1677973389681,0.30734286,,1408198731295000,0.9680732,Car
Fix,GPS,37.3860477893,-122.083800117,3.94427157362654,0.0,4.1642184,204.43593,1677973390000,0.3376285,148.40167,1408199731154000,3.0,Car
Fix,FLP,37.3860478,-122.0838001,-5.779720292636206,0.0,4.0,,1677973390680,0.3376285,,1408199731154000,1.0232817,Car
Fix,NLP,37.386198,-122.0837476,-0.6999999284744263,,56.032,,1677973390807,,,1408199858000000,3.5195537,Car
Fix,FLP,37.3860478,-122.0838001,-5.775627860279542,0.0,4.262,,1677973390807,0.3376285,,1408199858000000,0.9360222,Car
Fix,GPS,37.3860477893,-122.083800117,4.222011387481008,0.0,3.7898266,204.43593,1677973391000,0.32089996,76.69537,1408200731108000,3.0,Car
Fix,FLP,37.3860478,-122.0838001,-5.763862106216479,0.0,4.262,,1677973391680,0.32089996,,1408200731108000,0.9403138,Car
Fix,GPS,37.3860477893,-122.083800117,4.4138258105831385,0.0,3.9392743,204.43593,1677973392000,0.3271178,180.0,1408201731320000,3.0,Car
Fix,FLP,37.3860478,-122.0838001,-5.766419880233045,0.0,4.269,,1677973392680,0.3271178,,1408201731320000,0.99588096,Car
Fix,GPS,37.3860477893,-122.083800117,4.681526277645743,0.0,3.7896922,204.43593,1677973393000,0.3108526,180.0,1408202731116000,3.0,Car
Fix,FLP,37.3860478,-122.0838001,-5.777162522646108,0.0,4.222,,1677973393680,0.3108526,,1408202731116000,0.9584324,Car
Fix,GPS,37.3860477893,-122.083800117,4.949461400093405,0.0,3.7896254,204.43593,1677973394000,0.31655464,180.0,1408203731126000,3.0,Car
Fix,FLP,37.3860478,-122.0838001,-5.766419880233045,0.0,4.181,,1677973394680,0.31655464,,1408203731126000,0.97112274,Car
Fix,GPS,37.3860477893,-122.083800117,5.252399251340473,0.0,3.7895586,204.43593,1677973395000,0.31634775,121.41447,1408204731166000,3.0,Car
Fix,FLP,37.3860478,-122.0838001,-5.966435411643211,0.0,4.184,,1677973395680,0.31634775,,1408204731166000,1.025451,Car
Fix,GPS,37.3860477893,-122.083800117,5.554785572661436,0.0,3.789492,204.43593,1677973396000,0.30905023,180.0,1408205731199000,3.0,Car
Fix,FLP,37.3860478,-122.0838001,-6.001220238358101,0.0,3.913,,1677973396680,0.30905023,,1408205731199000,0.98944217,Car
Fix,NLP,37.386229,-122.083756,-0.5000001192092896,,32.562,,1677973397341,,,1408206392000000,2.334888,Car
Fix,FLP,37.3860478,-122.0838001,-5.933185075833492,0.0,5.138,,1677973397341,0.30905023,,1408206392000000,0.9324312,Car
Fix,GPS,37.3860477893,-122.083800117,5.882019200382754,0.0,4.447146,204.43593,1677973397000,0.3234156,109.72763,1408206731210000,3.0,Car
Fix,FLP,37.3860478,-122.0838001,-5.935742798615991,0.0,5.051,,1677973397680,0.3234156,,1408206731210000,0.9808631,Car
Fix,GPS,37.3860477893,-122.083800117,6.172836842896672,0.0,4.1631804,204.43593,1677973398000,0.3218977,86.22088,1408207731695000,3.0,Car
Fix,FLP,37.3860478,-122.0838001,-5.8032517402396095,0.0,5.466,,1677973398680,0.3218977,,1408207731695000,0.9392001,Car
Fix,GPS,37.3860477893,-122.083800117,6.4756761741021664,0.0,3.9181018,204.43593,1677973399000,0.30192626,180.0,1408208731522000,3.0,Car
Fix,FLP,37.3860478,-122.0838001,-5.7208913870432525,0.0,5.469,,1677973399680,0.30192626,,1408208731522000,0.9567662,Car
Fix,GPS,37.3860477893,-122.083800117,6.7294114391372615,0.0,3.9520583,204.43593,1677973400000,0.30652025,180.0,1408209731247000,3.0,Car
Fix,FLP,37.3860478,-122.0838001,-5.710148673118752,0.0,5.478,,1677973400680,0.30652025,,1408209731247000,1.0198444,Car
Fix,NLP,37.3861897,-122.0838344,-0.5000001192092896,,48.638,,1677973400860,,,1408209911000000,4.8205037,Car
Fix,FLP,37.3860478,-122.0838001,-5.710148673118752,0.0,5.594,,1677973400860,0.30652025,,1408209911000000,0.93618125,Car
Fix,GPS,37.3860477893,-122.083800117,6.926076934782468,0.0,3.9585276,204.43593,1677973401000,0.30417055,180.0,1408210731463000,3.0,Car
Fix,FLP,37.3860478,-122.0838001,-5.710148673118752,0.0,5.602,,1677973401680,0.30417055,,1408210731463000,0.95235914,Car
Fix,GPS,37.3860477893,-122.083800117,7.090628462125957,0.0,4.162664,204.43593,1677973402000,0.32258785,180.0,1408211731308000,3.0,Car
Fix,FLP,37.3860478,-122.0838001,-5.716798926205868,0.0,4.407,,1677973402680,0.32258785,,1408211731308000,1.0158963,Car
Fix,GPS,37.3860477893,-122.083800117,7.174328419693752,0.0,4.4465137,204.43593,1677973403000,0.30204582,180.0,1408212731619000,3.0,Car
Fix,FLP,37.3860478,-122.0838001,-5.753631002417414,0.0,4.412,,1677973403680,0.30204582,,1408212731619000,1.015834,Car
Fix,GPS,37.3860477893,-122.083800117,7.300446702237718,0.0,4.4464083,204.43593,1677973404000,0.30864966,180.0,1408213731539000,3.0,Car
Fix,FLP,37.3860478,-122.0838001,-5.743911442337087,0.0,4.542,,1677973404680,0.30864966,,1408213731539000,0.9751136,Car
Fix,GPS,37.3860477893,-122.083800117,7.432986553118452,0.0,4.162277,204.43593,1677973405000,0.3117449,126.614494,1408214731347000,3.0,Car
Fix,FLP,37.3860478,-122.0838001,-5.730610973591894,0.0,4.577,,1677973405680,0.3117449,,1408214731347000,0.9923616,Car
Fix,NLP,37.3862137,-122.0838934,-0.5000001192092896,,46.493,,1677973405900,,,1408214951000000,3.4286563,Car
Fix,FLP,37.3860478,-122.0838001,-5.7285647457724735,0.0,4.699,,1677973405900,0.3117449,,1408214951000000,1.0045717,Car
Fix,GPS,37.3860477893,-122.083800117,7.629710727120752,0.0,4.162148,204.43593,1677973406000,0.33825672,167.89499,1408215731697000,3.0,Car
Fix,FLP,37.3860478,-122.0838001,-5.719356714461817,0.0,4.732,,1677973406680,0.33825672,,1408215731697000,0.95087814,Car
Fix,GPS,37.3860477893,-122.083800117,7.828947267687767,0.0,4.7986255,204.43593,1677973407000,0.35680354,35.533543,1408216731398000,3.0,Car
Fix,FLP,37.3860478,-122.0838001,-5.706567765443843,0.0,4.838,,1677973407680,0.35680354,,1408216731398000,0.96090615,Car
Fix,GPS,37.3860477893,-122.083800117,7.997533458361824,0.0,4.161891,204.43593,1677973408000,0.33634204,46.558956,1408217731410000,3.0,Car
Fix,FLP,37.3860478,-122.0838001,-5.698382827920483,0.0,4.742,,1677973408680,0.33634204,,1408217731410000,0.978152,Car
Fix,GPS,37.3860477893,-122.083800117,8.164517614442241,0.0,4.1736107,204.43593,1677973409000,0.33809844,180.0,1408218731550000,3.0,Car
Fix,FLP,37.3860478,-122.0838001,-5.678432009500668,0.0,4.746,,1677973409680,0.33809844,,1408218731550000,1.0416114,Car
Fix,GPS,37.3860477893,-122.083800117,8.319410619208814,0.0,4.797516,204.43593,1677973410000,0.3630727,108.154434,1408219731408000,3.0,Car
Fix,FLP,37.3860478,-122.0838001,-5.660527388778675,0.0,4.852,,1677973410680,0.3630727,,1408219731408000,0.9910069,Car
Fix,NLP,37.3861884,-122.08393,-0.5000001192092896,,46.213,,1677973410923,,,1408219974000000,3.9027526,Car
Fix,FLP,37.3860478,-122.0838001,-5.678432009500668,0.0,5.007,,1677973410923,0.3630727,,1408219974000000,0.9542852,Car
Fix,GPS,37.3860477893,-122.083800117,8.462832438719033,0.0,4.2482734,204.43593,1677973411000,0.3523512,162.20557,1408220731469000,3.0,Car
Fix,FLP,37.3860478,-122.0838001,-5.6774088893375065,0.0,4.899,,1677973411680,0.3523512,,1408220731469000,0.9675336,Car
Fix,GPS,37.3860477893,-122.083800117,8.567721208103386,0.0,4.796777,204.43593,1677973412000,0.3620196,180.0,1408221731441000,3.0,Car
Fix,FLP,37.3860478,-122.0838001,-5.699917504309646,0.0,5.021,,1677973412680,0.3620196,,1408221731441000,1.0312352,Car
Fix,GPS,37.3860477893,-122.083800117,8.689425142125112,0.0,4.7964077,204.43593,1677973413000,0.36229664,180.0,1408222731758000,3.0,Car
Fix,FLP,37.3860478,-122.0838001,-5.741865217738408,0.0,5.127,,1677973413680,0.36229664,,1408222731758000,0.98018926,Car
Fix,GPS,37.3860477893,-122.083800117,8.857970514525352,0.0,4.796038,204.43593,1677973414000,0.3501881,99.30955,1408223731483000,3.0,Car
Fix,FLP,37.3860478,-122.0838001,-5.723449174060036,0.0,5.08,,1677973414680,0.3501881,,1408223731483000,0.98918927,Car
Fix,GPS,37.3860477893,-122.083800117,8.982250295212976,0.0,4.392358,204.43593,1677973415000,0.3335158,85.23725,1408224731516000,3.0,Car
Fix,FLP,37.3860478,-122.0838001,-5.74288833010008,0.0,5.11,,1677973415680,0.3335158,,1408224731516000,1.0074748,Car
Fix,NLP,37.3862737,-122.0839935,1.7000000476837158,,46.437,,1677973415953,,,1408225004000000,7.127827,Car
Fix,FLP,37.3860478,-122.0838001,-5.756188779528223,0.0,5.108,,1677973415953,0.3335158,,1408225004000000,1.0255555,Car
Fix,GPS,37.3860477893,-122.083800117,9.13456705965332,0.0,4.3675594,204.43593,1677973416000,0.2905713,180.0,1408225731542000,3.0,Car
Fix,FLP,37.3860478,-122.0838001,-5.762838996394585,0.0,5.476,,1677973416680,0.2905713,,1408225731542000,1.0316639,Car
Fix,GPS,37.3860477893,-122.083800117,9.286119298336708,0.0,4.445037,204.43593,1677973417000,0.27986476,21.592897,1408226731450000,3.0,Car
Fix,FLP,37.3860478,-122.0838001,-5.8267831223395845,0.0,5.432,,1677973417680,0.27986476,,1408226731450000,0.9796615,Car
Fix,GPS,37.3860477893,-122.083800117,9.446732252162183,0.0,4.238278,204.43593,1677973418000,0.28936207,35.722202,1408227731496000,3.0,Car
Fix,FLP,37.3860478,-122.0838001,-5.86156852371689,0.0,5.144,,1677973418680,0.28936207,,1408227731496000,0.9865746,Car
Fix,GPS,37.3860477893,-122.083800117,9.67926769262862,0.0,4.444826,204.43593,1677973419000,0.4116685,15.734633,1408228731704000,3.0,Car
Fix,FLP,37.3860478,-122.0838001,-5.838037238449999,0.0,5.144,,1677973419680,0.4116685,,1408228731704000,1.0070708,Car
Fix,GPS,37.3860276055,-122.0837933731,10.017002864719826,1.3156607,4.4447193,170.08788,1677973420000,0.62769634,25.600353,1408229731532000,3.0,Car
Fix,FLP,37.3860414,-122.083798,-5.652342406674109,0.34711877,5.114,175.46457,1677973420680,0.62769634,25.600353,1408229731532000,1.0714265,Car
Fix,NLP,37.3861495,-122.0842982,2.38418582e-08,,41.471,,1677973420875,,,1408229926000000,4.504843,Car
Fix,FLP,37.3860386,-122.0837972,-5.605278605779319,0.3486587,5.283,175.46155,1677973420875,0.62769634,25.600353,1408229926000000,1.0379966,Car
Fix,GPS,37.385989932,-122.0838077747,10.31822455946065,2.7032082,4.9099565,180.8513,1677973421000,0.6579418,13.045857,1408230731510000,3.2338214,Car
Fix,FLP,37.386016,-122.0838012,-5.562818647530385,1.9560287,4.715,179.82832,1677973421680,0.6579418,13.045857,1408230731510000,0.982708,Car
Fix,GPS,37.3859306228,-122.0838310914,10.495006412438466,3.780209,5.4072227,183.0662,1677973422000,0.7462163,10.7618,1408231731564000,3.5471485,Car
Fix,FLP,37.385972,-122.0838121,-5.424694416448361,3.1079507,4.866,181.90138,1677973422680,0.7462163,10.7618,1408231731564000,1.0008647,Car
Fix,GPS,37.3858469808,-122.0838587183,9.716957016996208,6.3171744,5.654558,190.34854,1677973423000,0.46732673,4.0901346,1408232731596000,3.855023,Car
Fix,FLP,37.3859089,-122.0838324,-5.3673977768313605,5.280094,5.2,188.1214,1677973423680,0.46732673,4.0901346,1408232731596000,1.0106107,Car
Fix,GPS,37.3857694708,-122.0838730854,9.558908757805266,6.652449,5.6823955,180.77885,1677973424000,0.46236852,3.9615664,1408233731637000,4.172738,Car
Fix,FLP,37.3858287,-122.0838514,-5.424694416448361,6.3997464,5.244,181.28418,1677973424680,0.46236852,3.9615664,1408233731637000,1.0751139,Car
Fix,GPS,37.3857008719,-122.0838658769,9.023919137777504,6.943265,5.887154,167.18169,1677973425000,0.50458,4.362623,1408234731604000,4.5061784,Car
Fix,FLP,37.3857445,-122.083856,-5.3673977768313605,6.8038864,5.582,170.03423,1677973425680,0.50458,4.362623,1408234731604000,1.0847038,Car
Fix,NLP,37.3860811,-122.0842387,2.38418582e-08,,50.062,,1677973426012,,,1408235063000000,3.9930089,Car
Fix,FLP,37.3857213,-122.0838535,-5.361258828123951,6.808003,5.94,170.06046,1677973426012,0.50458,4.362623,1408235063000000,0.98616344,Car
Fix,GPS,37.3856315757,-122.083841277,8.55029551571222,7.476085,6.01678,150.975,1677973426000,0.6803085,5.34189,1408235731644000,4.826136,Car
Fix,FLP,37.3856635,-122.0838384,-5.358700931513504,7.191118,6.063,156.139,1677973426680,0.6803085,5.34189,1408235731644000,0.9890802,Car
Fix,GPS,37.3855755857,-122.0837858065,7.1331626965547175,7.831738,6.0633645,140.16267,1677973427000,0.6016476,4.297895,1408236731686000,5.0445666,Car
Fix,FLP,37.3855941,-122.0837937,-5.388884062199622,7.6389256,6.289,143.63872,1677973427680,0.6016476,4.297895,1408236731686000,1.0114559,Car
Fix,GPS,37.3855252276,-122.0837099062,6.764195519731402,8.924204,6.139943,130.21883,1677973428000,0.60242087,3.6627512,1408237731679000,5.2990947,Car
Fix,FLP,37.385534,-122.0837261,-5.366374619024143,8.572425,6.664,132.9608,1677973428680,0.60242087,3.6627512,1408237731679000,1.0763841,Car
Fix,GPS,37.3854780728,-122.0836125723,6.039299035892224,9.978756,6.2041206,125.34722,1677973429000,0.6155179,3.2758791,1408238731934000,5.541157,Car
Fix,FLP,37.3854803,-122.0836356,-5.127975473648789,9.611013,6.751,126.77486,1677973429680,0.6155179,3.2758791,1408238731934000,1.0859641,Car
Fix,GPS,37.3854279722,-122.0835009645,5.851680611212914,10.729055,6.338105,123.13804,1677973430000,0.5622861,2.800678,1408239731645000,5.7558384,Car
Fix,FLP,37.3854282,-122.0835283,-4.905941038250347,10.484795,6.826,123.74515,1677973430680,0.5622861,2.800678,1408239731645000,1.0476954,Car
Fix,GPS,37.3853709681,-122.0833808208,5.6339647700437165,11.591659,6.420229,122.84563,1677973431000,0.56659126,2.6269186,1408240731655000,5.9620934,Car
Fix,FLP,37.3853736,-122.0834095,-4.767294458330525,11.34379,6.233,122.364525,1677973431680,0.56659126,2.6269186,1408240731655000,1.0437099,Car
Fix,GPS,37.3853074915,-122.0832557901,6.274886629691334,13.006514,6.558261,125.89502,1677973432000,0.5791244,2.3821068,1408241731715000,6.14538,Car
Fix,FLP,37.3853132,-122.0832827,-4.366690271081659,12.622213,6.332,124.45691,1677973432680,0.5791244,2.3821068,1408241731715000,1.0621905,Car
Fix,GPS,37.3852317639,-122.0831214252,7.349339605992622,13.927489,6.620393,127.715195,1677973433000,0.54738337,2.1401477,1408242731726000,6.263298,Car
Fix,FLP,37.3852411,-122.0831477,-4.29813030839928,13.651047,6.428,126.49253,1677973433680,0.54738337,2.1401477,1408242731726000,1.0718006,Car
Fix,GPS,37.385150065,-122.0829793982,8.001362754734691,14.353685,6.483733,127.156364,1677973434000,0.54752487,2.069437,1408243731724000,6.3713665,Car
Fix,FLP,37.3851606,-122.0830059,-4.127239622877532,14.207825,6.437,126.89279,1677973434680,0.54752487,2.069437,1408243731724000,1.1363741,Car
Fix,GPS,37.3850694958,-122.0828359108,8.668000156860414,14.541616,6.4119434,126.13334,1677973435000,0.5414861,1.987722,1408244731753000,6.4445744,Car
Fix,FLP,37.3850783,-122.0828608,-4.019791614543443,14.4766,6.498,126.18278,1677973435680,0.5414861,1.987722,1408244731753000,1.1459641,Car
Fix,GPS,37.3849919471,-122.0826891298,8.652868354038803,14.54855,6.325915,124.08193,1677973436000,0.5750392,2.1309378,1408245731760000,6.5070796,Car
Fix,FLP,37.3849981,-122.0827126,-3.9031322305433065,14.535007,6.48,124.50319,1677973436681,0.5750392,2.1309378,1408245731760000,1.1084855,Car
Fix,GPS,37.3849189562,-122.0825394733,8.662982220301378,14.900553,6.3338366,122.512596,1677973437000,0.5584958,2.051308,1408246731813000,6.5380387,Car
Fix,FLP,37.3849225,-122.0825615,-3.815124963195423,14.820643,6.435,122.54157,1677973437680,0.5584958,2.051308,1408246731813000,1.0986702,Car
Fix,GPS,37.3848460559,-122.0823859512,9.103811812441034,14.967012,6.466145,122.70218,1677973438000,0.5728059,2.1058893,1408247731800000,6.6075654,Car
Fix,FLP,37.384849,-122.082407,-3.753724001501269,14.938086,6.404,122.11746,1677973438680,0.5728059,2.1058893,1408247731800000,1.1221906,Car
Fix,GPS,37.3847758076,-122.0822315347,8.468730775814542,15.3060665,6.513528,122.52661,1677973439000,0.5500815,1.9508549,1408248731790000,6.635093,Car
Fix,FLP,37.3847767,-122.0822511,-3.6964160348691593,15.230525,6.41,122.018524,1677973439680,0.5500815,1.9508549,1408248731790000,1.1317905,Car
Fix,GPS,37.384701951,-122.0820803401,8.415897510189215,15.298276,6.5012894,123.36335,1677973440000,0.53686327,1.8988172,1408249731826000,6.642245,Car
Fix,FLP,37.384703,-122.0820957,-3.646271245363153,15.287962,6.428,122.78766,1677973440680,0.53686327,1.8988172,1408249731826000,1.196374,Car
Fix,GPS,37.3846232904,-122.0819238056,8.459430922601223,15.245067,6.5048375,122.14512,1677973441000,0.55403596,1.9842165,1408250731803000,6.649738,Car
Fix,FLP,37.3846267,-122.0819401,-3.6769721722056943,15.258385,6.464,122.17092,1677973441680,0.55403596,1.9842165,1408250731803000,1.2059541,Car
Fix,GPS,37.3845520161,-122.0817704741,8.335752136275861,15.044529,6.455679,121.25972,1677973442000,0.5843621,2.0950031,1408251731822000,6.6505933,Car
Fix,FLP,37.3845534,-122.081785,-3.6769721722056943,15.098675,6.488,121.27126,1677973442680,0.5843621,2.0950031,1408251731822000,1.1682254,Car
Fix,GPS,37.3844839075,-122.0816180877,8.061813641009037,15.000372,6.492209,120.89689,1677973443000,0.59164137,2.1267915,1408252732220000,6.6900253,Car
Fix,FLP,37.3844836,-122.0816308,-3.6769721722056943,15.025998,6.493,120.29535,1677973443681,0.59164137,2.1267915,1408252732220000,1.1638498,Car
Fix,GPS,37.3844174651,-122.0814640858,7.816767274459552,15.503093,6.474058,121.3941,1677973444000,0.5467819,1.9085307,1408253731905000,6.7120094,Car
Fix,FLP,37.3844157,-122.0814759,-3.627850635738312,15.403694,6.485,120.85085,1677973444680,0.5467819,1.9085307,1408253731905000,1.1688302,Car
Fix,GPS,37.3843487309,-122.0813103874,7.154889951618098,15.716646,6.3731365,121.35977,1677973445000,0.56165004,1.9033545,1408254731906000,6.7108097,Car
Fix,FLP,37.384346,-122.0813197,-3.438525377094884,15.647706,6.46,120.96425,1677973445680,0.56165004,1.9033545,1408254731906000,1.1919405,Car
Fix,GPS,37.384277335,-122.0811593208,6.297478752214976,15.903433,6.312502,121.54114,1677973446000,0.56570274,1.9019097,1408255731929000,6.695268,Car
Fix,FLP,37.3842749,-122.0811641,-3.323904781510244,15.845773,6.421,120.99023,1677973446680,0.56570274,1.9019097,1408255731929000,1.2019506,Car
Fix,GPS,37.384202411,-122.0810058647,5.933821614041279,15.985242,6.221007,122.38677,1677973447000,0.5855553,1.9783041,1408256732255000,6.6413755,Car
Fix,FLP,37.3842015,-122.0810086,-3.3019015429406338,15.952566,6.374,121.75939,1677973447681,0.5855553,1.9783041,1408256732255000,1.2661141,Car
Fix,GPS,37.3841271586,-122.0808458535,5.790199857140105,15.845177,6.1877413,121.94867,1677973448000,0.5865943,1.9979465,1408257732014000,6.607058,Car
Fix,FLP,37.3841267,-122.0808514,-3.280921657477755,15.871564,6.343,121.1745,1677973448681,0.5865943,1.9979465,1408257732014000,1.2282354,Car
Fix,GPS,37.3840528905,-122.0806844686,6.251408601697335,15.460986,6.1532364,122.31003,1677973449000,0.5955182,2.0856352,1408258731969000,6.578451,Car
Fix,FLP,37.3840528,-122.0806901,-3.2727343709772683,15.467672,6.249,121.986046,1677973449680,0.5955182,2.0856352,1408258731969000,1.2382454,Car
Fix,GPS,37.3839792417,-122.0805317041,6.77440541090716,15.513778,6.0642347,121.55401,1677973450000,0.56797916,1.9550409,1408259731980000,6.540995,Car
Fix,FLP,37.3839792,-122.0805355,-3.229239278482438,15.513068,6.187,121.0135,1677973450680,0.56797916,1.9550409,1408259731980000,1.2288202,Car
Fix,GPS,37.3839093883,-122.0803794175,6.998151801384697,15.478717,6.0303164,121.48687,1677973451000,0.56372255,1.9425474,1408260732270000,6.5244617,Car
Fix,FLP,37.3839086,-122.0803815,-3.0736785279085908,15.479231,6.131,120.99997,1677973451681,0.56372255,1.9425474,1408260732270000,1.2388202,Car
Fix,GPS,37.3838368061,-122.0802258388,6.698824826300531,15.392696,6.0748944,120.379326,1677973452000,0.58537644,2.05315,1408261732263000,6.519187,Car
Fix,FLP,37.3838368,-122.0802279,-2.9610998834556312,15.393932,6.102,120.014755,1677973452681,0.58537644,2.05315,1408261732263000,1.2619505,Car
Fix,GPS,37.3837635711,-122.0800707318,6.078308789502271,15.714489,6.1171474,120.95728,1677973453000,0.5727613,1.9499955,1408262732024000,6.504536,Car
Fix,FLP,37.3837651,-122.0800731,-2.828562194117417,15.709891,6.087,120.00071,1677973453681,0.5727613,1.9499955,1408262732024000,1.2719406,Car
Fix,GPS,37.3836882476,-122.0799159151,5.8144990248867225,15.731793,6.1864014,121.62747,1677973454000,0.5752422,1.9589108,1408263732053000,6.507055,Car
Fix,FLP,37.3836906,-122.0799171,-2.769712746949778,15.731605,6.094,120.98594,1677973454681,0.5752422,1.9589108,1408263732053000,1.336114,Car
Fix,GPS,37.3836130985,-122.0797651606,5.62066599967392,15.7171755,6.357601,122.686005,1677973455000,0.6280383,2.1121302,1408264732227000,6.5875835,Car
Fix,FLP,37.383615,-122.0797649,-2.769712746949778,15.717551,6.153,121.98317,1677973455681,0.6280383,2.1121302,1408264732227000,1.346124,Car
Fix,GPS,37.3835351906,-122.0796140496,5.588160924301752,15.776741,6.5079017,123.350525,1677973456000,0.6392811,2.1471038,1408265732062000,6.6836967,Car
Fix,FLP,37.3835372,-122.079614,-2.735938096582757,15.775817,6.212,122.98271,1677973456681,0.6392811,2.1471038,1408265732062000,1.3082254,Car
Fix,GPS,37.3834519896,-122.079468044,5.043539634857685,15.862401,6.4894447,123.11497,1677973457000,0.6072316,2.0769339,1408266732053000,6.715702,Car
Fix,FLP,37.3834552,-122.0794664,-2.726726804879945,15.861003,6.288,123.00025,1677973457681,0.6072316,2.0769339,1408266732053000,1.3119606,Car
Fix,GPS,37.383373063,-122.0793179025,4.826580706085896,15.638675,6.4526467,122.28013,1677973458000,0.595632,2.0629163,1408267732360000,6.761084,Car
Fix,FLP,37.3833749,-122.079317,-2.709327670945065,15.642066,6.398,122.01564,1677973458681,0.595632,2.0629163,1408267732360000,1.3088301,Car
Fix,GPS,37.3832936334,-122.0791704673,4.661214887604116,15.311564,6.300732,121.65179,1677973459000,0.5693032,1.9844853,1408268732288000,6.7585397,Car
Fix,FLP,37.3832962,-122.0791691,-2.6990928695504195,15.316165,6.421,121.014244,1677973459681,0.5693032,1.9844853,1408268732288000,1.3319505,Car
Fix,GPS,37.383218395,-122.0790317183,4.769794882054351,14.832105,6.181602,121.39342,1677973460000,0.5738816,2.0815132,1408269732120000,6.725434,Car
Fix,FLP,37.3832211,-122.0790274,-2.726726804879945,14.839153,6.381,120.99997,1677973460681,0.5738816,2.0815132,1408269732120000,1.3419605,Car
Fix,GPS,37.3831470487,-122.0789022962,5.227003217318591,14.179618,6.111516,120.95772,1677973461000,0.5702141,2.1579967,1408270732136000,6.6786056,Car
Fix,FLP,37.3831491,-122.078895,-2.805022464412552,14.188908,6.307,120.0142,1677973461681,0.5702141,2.1579967,1408270732136000,1.4061241,Car
Fix,GPS,37.3830830432,-122.0787770596,5.781806288309701,13.277455,6.0553536,120.56612,1677973462000,0.55618817,2.219813,1408271732360000,6.632892,Car
Fix,FLP,37.3830839,-122.078769,-2.898157533331592,13.289761,6.22,119.99896,1677973462681,0.55618817,2.219813,1408271732360000,1.4161241,Car
Fix,GPS,37.3830247929,-122.0786595242,6.1303004875626,12.475358,6.0610642,121.06341,1677973463000,0.57203126,2.4605203,1408272732471000,6.6165323,Car
Fix,FLP,37.3830245,-122.0786516,-2.9836157322887686,12.487108,6.142,120.983925,1677973463681,0.57203126,2.4605203,1408272732471000,1.3782355,Car
Fix,GPS,37.3829720859,-122.0785490155,6.65622526570496,11.316445,6.167762,120.62413,1677973464000,0.5911356,2.8203745,1408273732207000,6.619077,Car
Fix,FLP,37.38297,-122.0785418,-3.093635494795606,11.334426,6.146,120.0144,1677973464681,0.5911356,2.8203745,1408273732207000,1.3882354,Car
Fix,GPS,37.3829259813,-122.0784503313,6.842306499588107,9.995548,6.215644,119.89002,1677973465000,0.59107417,3.201566,1408274732539000,6.63653,Car
Fix,FLP,37.3829233,-122.0784426,-3.2159348525517046,10.016168,6.122,119.01468,1677973465681,0.59107417,3.201566,1408274732539000,1.3919505,Car
Fix,GPS,37.3828869583,-122.078363936,7.067199020599005,8.5947485,6.2593822,119.34433,1677973466000,0.59063447,3.717688,1408275732479000,6.6204343,Car
Fix,FLP,37.3828841,-122.0783559,-3.3699578861539763,8.616718,6.151,118.99681,1677973466681,0.59063447,3.717688,1408275732479000,1.3888402,Car
Fix,GPS,37.3828543243,-122.0782932215,7.228114618128339,7.108053,6.2398725,119.83652,1677973467000,0.5759098,4.3789854,1408276732603000,6.5960584,Car
Fix,FLP,37.3828513,-122.0782844,-3.49941693636422,7.130217,6.188,118.99571,1677973467681,0.5759098,4.3789854,1408276732603000,1.3988302,Car
Fix,GPS,37.3828271314,-122.07824314,7.880565409476422,5.5163126,6.1822314,120.11327,1677973468000,0.5296379,5.0770187,1408277732323000,6.5723886,Car
Fix,FLP,37.3828244,-122.0782318,-3.550585974741722,5.536122,6.187,119.97839,1677973468681,0.5296379,5.0770187,1408277732323000,1.4219506,Car
Fix,GPS,37.3828067818,-122.0782057873,8.044499837972209,4.3292203,6.1591225,119.30054,1677973469000,0.51537144,6.3097258,1408278732592000,6.517228,Car
Fix,FLP,37.382804,-122.0781949,-3.60021964603542,4.343245,6.211,119.008446,1677973469681,0.51537144,6.3097258,1408278732592000,1.4319406,Car
Fix,GPS,37.3827914925,-122.0781792249,7.918041426171916,3.2541947,6.1143622,118.93735,1677973470000,0.47825015,7.773551,1408279732260000,6.436037,Car
Fix,FLP,37.3827929,-122.078177,-3.6877174702577022,3.285383,6.186,118.01859,1677973470681,0.47825015,7.773551,1408279732260000,1.4961141,Car
Fix,GPS,37.3827818917,-122.0781614227,7.896136576634341,2.3584814,5.9756174,120.308784,1677973471000,0.41571254,9.4371395,1408280732331000,6.3439927,Car
Fix,FLP,37.3827807,-122.0781545,-3.691810913542774,2.3656344,6.156,119.97494,1677973471681,0.41571254,9.4371395,1408280732331000,1.5061342,Car
Fix,GPS,37.382775725,-122.0781469193,7.787364398718949,1.4908636,5.889158,119.923874,1677973472000,0.36015248,12.66654,1408281732408000,6.251834,Car
Fix,FLP,37.3827736,-122.078141,-3.719441603865995,1.4958849,6.109,119.00125,1677973472681,0.36015248,12.66654,1408281732408000,1.4682254,Car
Fix,GPS,37.3827743898,-122.0781367266,7.299101714338697,0.8272574,5.8583117,119.923874,1677973473000,0.37879133,13.706707,1408282732321000,6.146178,Car
Fix,FLP,37.3827717,-122.0781328,-3.699997794164645,0.8306103,6.062,118.94892,1677973473681,0.37879133,13.706707,1408282732321000,1.4782354,Car
Fix,GPS,37.3827733521,-122.0781330399,7.248240459267274,0.0,5.8370514,119.923874,1677973474000,0.3578074,67.09927,1408283732334000,6.054172,Car
Fix,FLP,37.3827714,-122.0781299,-3.691810913542774,0.0034268852,6.018,,1677973474681,0.3578074,,1408283732334000,1.4819505,Car
Fix,GPS,37.3827754933,-122.0781361213,7.367634669698043,0.4810288,5.3779516,119.923874,1677973475000,0.3340963,139.24123,1408284732352000,5.8752627,Car
Fix,FLP,37.3827741,-122.078134,-3.684135705757477,0.46854812,5.787,118.25435,1677973475681,0.3340963,139.24123,1408284732352000,1.4788202,Car
Fix,GPS,37.382778107,-122.0781403235,7.239165377051664,0.46526942,5.6184297,119.923874,1677973476000,0.36873868,168.25104,1408285732595000,5.835943,Car
Fix,FLP,37.382776,-122.0781363,-3.669808632582992,0.46453366,5.716,118.863335,1677973476681,0.36873868,168.25104,1408285732595000,1.4888302,Car
Fix,GPS,37.3827795234,-122.0781448438,7.295633307222876,0.0,5.783617,119.923874,1677973477000,0.3633647,141.74866,1408286732389000,5.6498747,Car
Fix,FLP,37.3827775,-122.07814,-3.651388074246114,0.0018678836,5.727,,1677973477681,0.3633647,,1408286732389000,1.5119505,Car
Fix,GPS,37.3827795234,-122.0781448438,7.418605921593858,0.0,5.4812355,119.923874,1677973478000,0.36708063,180.0,1408287732488000,5.4561086,Car
Fix,FLP,37.3827788,-122.0781431,-3.651388074246114,3.5341218e-06,5.619,,1677973478681,0.36708063,,1408287732488000,1.5209305,Car
Fix,GPS,37.3827795234,-122.0781448438,7.79243182440702,0.0,5.304405,119.923874,1677973479000,0.3771677,180.0,1408288732372000,5.3360476,Car
Fix,FLP,37.3827793,-122.0781442,-3.713813137236464,2.104003e-06,5.513,,1677973479681,0.3771677,,1408288732372000,1.5862641,Car
Fix,GPS,37.3827795234,-122.0781448438,8.223263843783567,0.0,5.1040926,119.923874,1677973480000,0.3690365,180.0,1408289732408000,5.223972,Car
Fix,FLP,37.3827794,-122.0781446,-3.7419554329094,7.5768713e-07,5.458,,1677973480681,0.3690365,,1408289732408000,1.595854,Car
Fix,GPS,37.3827795234,-122.0781448438,8.572937423307494,0.0,5.0358405,119.923874,1677973481000,0.37688375,180.0,1408290732478000,5.121359,Car
Fix,FLP,37.3827795,-122.0781447,-3.760887470011532,2.50075e-07,5.387,,1677973481681,0.37688375,,1408290732478000,1.5583655,Car
Fix,GPS,37.3827795234,-122.0781448438,8.958354013658537,0.0,4.995436,119.923874,1677973482000,0.37974918,57.334587,1408291732391000,5.0247707,Car
Fix,FLP,37.3827795,-122.0781448,-3.7516772950967407,8.579601e-08,5.184,,1677973482681,0.37974918,,1408291732391000,1.5679554,Car
Fix,GPS,37.3827795234,-122.0781448438,9.122421386299491,0.0,4.8407974,119.923874,1677973483000,0.36706582,180.0,1408292732451000,4.9052625,Car
Fix,FLP,37.3827795,-122.0781448,-3.730698525883597,2.611316e-08,5.126,,1677973483681,0.36706582,,1408292732451000,1.5720706,Car
Fix,GPS,37.3827795234,-122.0781448438,9.3497277837955,0.0,4.734248,119.923874,1677973484000,0.36282822,126.23321,1408293732442000,4.7939725,Car
Fix,FLP,37.3827795,-122.0781448,-3.7025561927341286,7.6526305e-09,4.942,,1677973484681,0.36282822,,1408293732442000,1.5830791,Car
Fix,GPS,37.3827795234,-122.0781448438,9.50946171461456,0.0,4.6533027,119.923874,1677973485000,0.35671142,124.36719,1408294732569000,4.6896214,Car
Fix,FLP,37.3827795,-122.0781448,-3.746560526917989,2.3158406e-09,4.851,,1677973485681,0.35671142,,1408294732569000,1.5935092,Car
Fix,GPS,37.3827795234,-122.0781448438,9.702964141533243,0.0,4.5546,119.923874,1677973486000,0.3497938,180.0,1408295732488000,4.5787525,Car
Fix,FLP,37.3827795,-122.0781448,-3.6882291507768414,2.507206e-10,4.726,,1677973486681,0.3497938,,1408295732488000,1.5885702,Car
Fix,GPS,37.3827795234,-122.0781448438,9.941778751685163,0.0,4.4842076,119.923874,1677973487000,0.3516836,149.2096,1408296732510000,4.4848,Car
Fix,FLP,37.3827795,-122.0781448,-3.694369314588222,8.31654e-11,4.653,,1677973487681,0.3516836,,1408296732510000,1.6121005,Car
Fix,GPS,37.3827795234,-122.0781448438,10.212004337391932,0.0,4.4452753,119.923874,1677973488000,0.35409182,98.2753,1408297732497000,4.4015117,Car
Fix,FLP,37.3827795,-122.0781448,-3.694369314588222,2.88884e-11,4.596,,1677973488681,0.35409182,,1408297732497000,1.6216805,Car
Fix,GPS,37.3827795234,-122.0781448438,10.435920587696788,0.0,4.411313,119.923874,1677973489000,0.353804,180.0,1408298732524000,4.3218575,Car
Fix,FLP,37.3827795,-122.0781448,-3.679018896696881,9.3959e-12,4.55,,1677973489681,0.353804,,1408298732524000,1.686274,Car
Fix,GPS,37.3827795234,-122.0781448438,10.600270154728058,0.0,4.357067,119.923874,1677973490000,0.34995133,45.60518,1408299732574000,4.24905,Car
Fix,FLP,37.3827795,-122.0781448,-3.7153481739608902,2.9451e-12,4.508,,1677973490681,0.34995133,,1408299732574000,1.6958541,Car
Fix,GPS,37.3827795234,-122.0781448438,10.783198405509475,0.0,4.357104,119.923874,1677973491000,0.35169718,28.645145,1408300732563000,4.184383,Car
Fix,FLP,37.3827795,-122.0781448,-3.679018896696881,9.336e-13,4.41,,1677973491681,0.35169718,,1408300732563000,1.6583754,Car
Fix,GPS,37.3827795234,-122.0781448438,10.907822735902291,0.0,4.3571405,119.923874,1677973492000,0.3523876,180.0,1408301732579000,4.121568,Car
Fix,FLP,37.3827795,-122.0781448,-3.713813137236464,3.035e-13,4.385,,1677973492681,0.3523876,,1408301732579000,1.6679754,Car
Fix,GPS,37.3827795234,-122.0781448438,11.04391326989152,0.0,4.3571777,119.923874,1677973493000,0.36308545,73.05572,1408302732584000,4.065334,Car
Fix,FLP,37.3827795,-122.0781448,-3.713813137236464,1.037e-13,4.367,,1677973493681,0.36308545,,1408302732584000,1.6720805,Car
Fix,GPS,37.3827795234,-122.0781448438,11.198945379805515,0.0,4.3572145,119.923874,1677973494000,0.36090705,180.0,1408303732600000,4.0131245,Car
Fix,FLP,37.3827795,-122.0781448,-3.744513818779126,3.48e-14,4.357,,1677973494681,0.36090705,,1408303732600000,1.6817006,Car
Fix,GPS,37.3827795234,-122.0781448438,11.382173293433087,0.0,4.3572516,119.923874,1677973495000,0.3576996,180.0,1408304732585000,3.9624915,Car
Fix,FLP,37.3827795,-122.0781448,-3.759864117738715,1.08e-14,4.357,,1677973495682,0.3576996,,1408304732585000,1.6926892,Car
Fix,GPS,37.3827795234,-122.0781448438,11.448262596783229,0.0,4.357289,119.923874,1677973496000,0.3616955,74.875854,1408305732743000,3.916269,Car
Fix,FLP,37.3827795,-122.0781448,-3.7613991461019296,3.5e-15,4.357,,1677973496681,0.3616955,,1408305732743000,1.7029392,Car
Fix,GPS,37.3827795234,-122.0781448438,11.647152474788191,0.0,4.357326,119.923874,1677973497000,0.36282894,180.0,1408306732671000,3.870551,Car
Fix,FLP,37.3827795,-122.0781448,-3.7613991461019296,1.1e-15,4.357,,1677973497681,0.36282894,,1408306732671000,1.7115406,Car
Fix,GPS,37.3827795234,-122.0781448438,11.720107443754804,0.0,4.3573637,119.923874,1677973498000,0.3600897,180.0,1408307732870000,3.8297668,Car
Fix,FLP,37.3827795,-122.0781448,-3.7219999965503447,3e-16,4.357,,1677973498681,0.3600897,,1408307732870000,1.7215506,Car
Fix,GPS,37.3827795234,-122.0781448438,11.725116072521937,0.0,4.357401,119.923874,1677973499000,0.36467096,180.0,1408308732707000,3.7932749,Car
Fix,FLP,37.3827795,-122.0781448,-3.7219999965503447,1e-16,4.357,,1677973499681,0.36467096,,1408308732707000,1.7315305,Car
Fix,GPS,37.3827795234,-122.0781448438,11.648768551043434,0.0,4.3574386,119.923874,1677973500000,0.35747722,180.0,1408309732697000,3.7554123,Car
Fix,FLP,37.3827795,-122.0781448,-3.699997794164645,0.0,4.357,,1677973500681,0.35747722,,1408309732697000,1.7957041,Car
Fix,GPS,37.3827795234,-122.0781448438,11.53894982636616,0.0,4.28102,119.923874,1677973501000,0.3379552,18.757769,1408310732728000,3.7164612,Car
Fix,FLP,37.3827795,-122.0781448,-3.745537172910829,0.0,4.344,,1677973501681,0.3379552,,1408310732728000,1.8057141,Car
Fix,GPS,37.3827795234,-122.0781448438,11.546146398826496,0.0,4.2786646,119.923874,1677973502000,0.34257925,71.46875,1408311732758000,3.6789935,Car
Fix,FLP,37.3827795,-122.0781448,-3.749630588195892,0.0,4.326,,1677973502681,0.34257925,,1408311732758000,1.7678454,Car
Fix,GPS,37.3827795234,-122.0781448438,11.45603670246954,0.0,4.261229,119.923874,1677973503000,0.34059107,180.0,1408312732753000,3.6450496,Car
Fix,FLP,37.3827795,-122.0781448,-3.765492553707922,0.0,4.315,,1677973503681,0.34059107,,1408312732753000,1.7778554,Car
Fix,GPS,37.3827795234,-122.0781448438,11.37821553975758,0.0,4.243514,119.923874,1677973504000,0.33598697,180.0,1408313732756000,3.6122122,Car
Fix,FLP,37.3827795,-122.0781448,-3.770609310426593,0.0,4.284,,1677973504681,0.33598697,,1408313732756000,1.7815405,Car
Fix,GPS,37.3827795234,-122.0781448438,11.249675566759034,0.0,4.233669,119.923874,1677973505000,0.33721104,114.02367,1408314732783000,3.5811813,Car
Fix,FLP,37.3827795,-122.0781448,-3.7629341741872366,0.0,4.259,,1677973505681,0.33721104,,1408314732783000,1.7915405,Car
Fix,GPS,37.3827795234,-122.0781448438,11.21839439712342,0.0,4.236096,119.923874,1677973506000,0.34327686,180.0,1408315732770000,3.5543532,Car
Fix,FLP,37.3827795,-122.0781448,-3.725070066748998,0.0,4.25,,1677973506681,0.34327686,,1408315732770000,1.8015405,Car
Fix,GPS,37.3827795234,-122.0781448438,11.282440830777537,0.0,4.2339706,119.923874,1677973507000,0.3346282,180.0,1408316732802000,3.5227265,Car
Fix,FLP,37.3827795,-122.0781448,-3.709208025388321,0.0,4.241,,1677973507681,0.3346282,,1408316732802000,1.8130691,Car
Fix,GPS,37.3827795234,-122.0781448438,11.258927737904727,0.0,4.228176,119.923874,1677973508000,0.33245435,180.0,1408317732884000,3.4913795,Car
Fix,FLP,37.3827795,-122.0781448,-3.709208025388321,0.0,4.235,,1677973508681,0.33245435,,1408317732884000,1.8229592,Car
Fix,GPS,37.3827795234,-122.0781448438,11.403567423748722,0.0,4.1926184,119.923874,1677973509000,0.33080977,180.0,1408318732827000,3.4607177,Car
Fix,FLP,37.3827795,-122.0781448,-3.739908723655219,0.0,4.225,,1677973509681,0.33080977,,1408318732827000,1.8479669,Car
Fix,GPS,37.3827795234,-122.0781448438,11.467495861796754,0.0,4.1639376,119.923874,1677973510000,0.33343107,180.0,1408319732863000,3.4337268,Car
Fix,FLP,37.3827795,-122.0781448,-3.742978787349678,0.0,4.211,,1677973510681,0.33343107,,1408319732863000,1.8415306,Car
Fix,GPS,37.3827795234,-122.0781448438,11.558041886566793,0.0,4.14133,119.923874,1677973511000,0.32999378,180.0,1408320732893000,3.404133,Car
Fix,FLP,37.3827795,-122.0781448,-3.73530362602461,0.0,4.192,,1677973511681,0.32999378,,1408320732893000,1.8515506,Car
Fix,GPS,37.3827795234,-122.0781448438,11.635621923777242,0.0,4.1505866,119.923874,1677973512000,0.32833487,180.0,1408321732995000,3.384632,Car
Fix,FLP,37.3827795,-122.0781448,-3.73530362602461,0.0,4.175,,1677973512681,0.32833487,,1408321732995000,1.9157141,Car
Fix,GPS,37.3827795234,-122.0781448438,11.778599111294174,0.0,4.1561427,119.923874,1677973513000,0.3306149,180.0,1408322732923000,3.3661153,Car
Fix,FLP,37.3827795,-122.0781448,-3.73530362602461,0.0,4.161,,1677973513682,0.3306149,,1408322732923000,1.9257241,Car
Fix,GPS,37.3827795234,-122.0781448438,12.107038050060032,0.0,4.1523123,119.923874,1677973514000,0.33256075,180.0,1408323732944000,3.3434865,Car
Fix,FLP,37.3827795,-122.0781448,-3.754747354515772,0.0,4.152,,1677973514681,0.33256075,,1408323732944000,1.8878354,Car
Fix,GPS,37.3827795234,-122.0781448438,12.322736921606436,0.0,4.1522684,119.923874,1677973515000,0.3314112,180.0,1408324732968000,3.3217616,Car
Fix,FLP,37.3827795,-122.0781448,-3.770609310426593,0.0,4.15,,1677973515681,0.3314112,,1408324732968000,0.99769175,Car
Fix,GPS,37.3827795234,-122.0781448438,12.393565113514429,0.0,4.124492,119.923874,1677973516000,0.328316,180.0,1408325732928000,3.2980852,Car
Fix,FLP,37.3827795,-122.0781448,-3.7629341741872366,0.0,4.147,,1677973516681,0.328316,,1408325732928000,0.9890274,Car
Fix,GPS,37.3827795234,-122.0781448438,12.417893133781789,0.0,4.10024,119.923874,1677973517000,0.32670087,180.0,1408326732976000,3.274328,Car
Fix,FLP,37.3827795,-122.0781448,-3.778284439697842,0.0,4.139,,1677973517681,0.32670087,,1408326732976000,0.9913354,Car
Fix,GPS,37.3827795234,-122.0781448438,12.412026016498515,0.0,4.0904613,119.923874,1677973518000,0.33045217,180.0,1408327733124000,3.2545927,Car
Fix,FLP,37.3827795,-122.0781448,-3.7613991461019296,0.0,4.123,,1677973518682,0.33045217,,1408327733124000,0.99132705,Car
Fix,GPS,37.3827795234,-122.0781448438,12.475362032268492,0.0,4.1552134,119.923874,1677973519000,0.33531213,180.0,1408328732967000,3.2376745,Car
Fix,FLP,37.3827795,-122.0781448,-3.7629341741872366,0.0,4.124,,1677973519681,0.33531213,,1408328732967000,0.9913172,Car
Fix,GPS,37.3827795234,-122.0781448438,12.467428145672644,0.0,4.155204,119.923874,1677973520000,0.3380992,180.0,1408329733004000,3.2204008,Car
Fix,FLP,37.3827795,-122.0781448,-3.777261089529304,0.0,4.124,,1677973520682,0.3380992,,1408329733004000,0.992714,Car
Fix,GPS,37.3827795234,-122.0781448438,12.514592612772834,0.0,4.155195,119.923874,1677973521000,0.337516,180.0,1408330733006000,3.2049258,Car
Fix,FLP,37.3827795,-122.0781448,-3.777261089529304,0.0,4.131,,1677973521682,0.337516,,1408330733006000,0.9893355,Car
Fix,GPS,37.3827795234,-122.0781448438,12.519620106859367,0.0,4.1551867,119.923874,1677973522000,0.32957953,180.0,1408331733028000,3.1871598,Car
Fix,FLP,37.3827795,-122.0781448,-3.7629341741872366,0.0,4.142,,1677973522682,0.32957953,,1408331733028000,0.98928946,Car
Fix,GPS,37.3827795234,-122.0781448438,12.381951335868091,0.0,4.0490723,119.923874,1677973523000,0.2727841,105.28749,1408332733045000,3.1625583,Car
Fix,FLP,37.3827795,-122.0781448,-3.757305736514354,0.0,4.13,,1677973523682,0.2727841,,1408332733045000,1.0044781,Car
Fix,GPS,37.3827795234,-122.0781448438,11.971242248245687,0.0,3.9250817,119.923874,1677973524000,0.2046459,180.0,1408333733014000,3.126539,Car
Fix,FLP,37.3827795,-122.0781448,-3.751165618418,0.0,4.091,,1677973524682,0.2046459,,1408333733014000,0.98827285,Car
Fix,GPS,37.3827795234,-122.0781448438,11.333074578456856,0.0,3.7818696,119.923874,1677973525000,0.21622945,47.67564,1408334733040000,3.0850432,Car
Fix,FLP,37.3827795,-122.0781448,-3.639107679722727,0.0,4.039,,1677973525682,0.21622945,,1408334733040000,1.0416046,Car
Fix,GPS,37.3827795234,-122.0781448438,10.957428768120767,0.0,3.7818174,119.923874,1677973526000,0.24084097,180.0,1408335733071000,3.0579,Car
Fix,FLP,37.3827795,-122.0781448,-3.6882291507768414,0.0,3.995,,1677973526682,0.24084097,,1408335733071000,1.038254,Car
Fix,GPS,37.3827795234,-122.0781448438,10.703933025811072,0.0,3.7817655,119.923874,1677973527000,0.26677305,61.60284,1408336733419000,3.039092,Car
Fix,FLP,37.3827795,-122.0781448,-3.6882291507768414,0.0,3.967,,1677973527682,0.26677305,,1408336733419000,1.0305575,Car
Fix,GPS,37.3827795234,-122.0781448438,10.264104877249354,0.0,3.7817132,119.923874,1677973528000,0.2675887,40.924652,1408337733206000,3.0175223,Car
Fix,FLP,37.3827795,-122.0781448,-3.6350142109180297,0.0,3.924,,1677973528682,0.2675887,,1408337733206000,0.9914285,Car
Fix,GPS,37.3827795234,-122.0781448438,9.938436381386634,0.0,3.7816617,119.923874,1677973529000,0.2806664,13.928357,1408338733157000,3.0,Car
Fix,FLP,37.3827795,-122.0781448,-3.639619363185304,0.0,3.903,,1677973529682,0.2806664,,1408338733157000,0.9915065,Car
Fix,GPS,37.3827830522,-122.0781474066,9.491748858320612,1.3957386,3.7816095,128.46156,1677973530000,0.28334397,11.383673,1408339733191000,3.0,Car
Fix,FLP,37.3827819,-122.0781466,-3.705114590527522,1.3904861,3.9,128.00089,1677973530682,0.28334397,11.383673,1408339733191000,0.9917067,Car
Fix,GPS,37.3827723743,-122.0781331433,9.294269497233712,2.0165665,4.2528257,128.30814,1677973531000,0.32672665,9.044762,1408340733371000,3.1845772,Car
Fix,FLP,37.382773,-122.0781334,-3.715859852807085,2.0134592,3.97,128.00056,1677973531682,0.32672665,9.044762,1408340733371000,0.9856262,Car
Fix,GPS,37.3827571383,-122.0781086109,9.49673523360763,2.7022789,4.6486025,121.53863,1677973532000,0.3527775,7.352334,1408341733195000,3.404709,Car
Fix,FLP,37.3827586,-122.0781108,-3.690787552906919,2.6981702,4.083,121.03088,1677973532682,0.3527775,7.352334,1408341733195000,0.98274,Car
Fix,GPS,37.3827379273,-122.0780731154,9.564483673362911,3.6396248,4.8052926,120.241135,1677973533000,0.36933833,5.727041,1408342733227000,3.6260612,Car
Fix,FLP,37.3827405,-122.0780768,-3.631944108013357,3.6336179,4.301,120.00558,1677973533682,0.36933833,5.727041,1408342733227000,0.9829818,Car
Fix,GPS,37.3827136752,-122.0780266687,9.783847939438658,4.870789,4.8854704,123.38647,1677973534000,0.38804638,4.4783316,1408343733222000,3.8918667,Car
Fix,FLP,37.382717,-122.0780313,-3.538817123342355,4.862109,4.498,122.98517,1677973534682,0.38804638,4.4783316,1408343733222000,0.9832793,Car
Fix,GPS,37.3826817373,-122.0779673671,9.6290194674077,6.1679277,4.9935026,123.632774,1677973535000,0.4233046,3.8545105,1408344733234000,4.163209,Car
Fix,FLP,37.3826895,-122.0779809,-3.5285833261981594,6.144118,4.745,123.00165,1677973535682,0.4233046,3.8545105,1408344733234000,0.98522717,Car
Fix,GPS,37.3826430619,-122.0779014064,9.494726260089497,7.0714993,5.106664,123.41631,1677973536000,0.4432469,3.5170777,1408345733242000,4.439867,Car
Fix,FLP,37.3826487,-122.0779086,-3.5163027532708497,7.063156,4.796,123.00071,1677973536682,0.4432469,3.5170777,1408345733242000,0.9858397,Car
Fix,GPS,37.3826016239,-122.0778276245,9.970543100370396,7.941518,5.264171,123.28807,1677973537000,0.4743862,3.2964888,1408346733450000,4.746795,Car
Fix,FLP,37.3826058,-122.0778323,-3.3945194393769,7.9325767,4.99,123.001076,1677973537682,0.4743862,3.2964888,1408346733450000,0.9863214,Car
Fix,GPS,37.3825570295,-122.0777470891,10.154927569001224,8.464825,5.4485273,123.19317,1677973538000,0.49539784,3.2241402,1408347733280000,4.9596934,Car
Fix,FLP,37.3825605,-122.0777506,-3.270175842320405,8.458956,5.097,123.00076,1677973538682,0.49539784,3.2241402,1408347733280000,1.0005103,Car
Fix,GPS,37.3825123741,-122.0776601811,9.750557359628544,8.921298,5.2612443,123.036255,1677973539000,0.41101897,2.554605,1408348733232000,5.028361,Car
Fix,FLP,37.3825146,-122.0776635,-3.241520268449001,8.917767,5.16,123.00031,1677973539682,0.41101897,2.554605,1408348733232000,0.9907303,Car
Fix,GPS,37.3824670881,-122.0775687486,9.703237248613169,9.408292,5.122046,122.81784,1677973540000,0.4190469,2.4834425,1408349733278000,4.9914627,Car
Fix,FLP,37.3824683,-122.077572,-3.2543129473581445,9.404315,5.24,122.00786,1677973540682,0.4190469,2.4834425,1408349733278000,1.0367012,Car
Fix,GPS,37.3824213111,-122.0774762573,9.910834221215774,9.330224,5.2140217,121.73765,1677973541000,0.42645612,2.5230677,1408350733315000,5.0364275,Car
Fix,FLP,37.382422,-122.0774781,-3.0501394807669517,9.330832,5.262,121.008286,1677973541682,0.42645612,2.5230677,1408350733315000,1.036909,Car
Fix,GPS,37.3823776937,-122.0773851185,9.63280941742186,9.195191,5.3697934,121.27273,1677973542000,0.42991456,2.5741928,1408351733414000,5.1038537,Car
Fix,FLP,37.3823781,-122.0773859,-2.9595647097596185,9.196351,5.28,120.999954,1677973542682,0.42991456,2.5741928,1408351733414000,1.0383192,Car
Fix,GPS,37.38234052,-122.0773019943,9.6646571650641,8.96177,5.3835206,120.588844,1677973543000,0.44936007,2.7705169,1408352733294000,5.123302,Car
Fix,FLP,37.3823388,-122.0773002,-2.860289552175608,8.963883,5.27,120.00909,1677973543682,0.44936007,2.7705169,1408352733294000,0.9925242,Car
Fix,GPS,37.3822986943,-122.0772199694,9.588861991523387,9.025466,5.5160747,121.4562,1677973544000,0.47817543,2.9701555,1408353733300000,5.167486,Car
Fix,FLP,37.3822986,-122.0772172,-2.846472814110633,9.02478,5.321,120.989815,1677973544682,0.47817543,2.9701555,1408353733300000,0.9926942,Car
Fix,GPS,37.3822546559,-122.0771430703,9.549473681820809,9.483499,5.6947374,121.92254,1677973545000,0.48238263,2.8478107,1408354733623000,5.3053827,Car
Fix,FLP,37.3822555,-122.0771381,-2.822421401383444,9.478507,5.435,121.00048,1677973545682,0.48238263,2.8478107,1408354733623000,0.9918292,Car
Fix,GPS,37.3822070094,-122.0770477525,9.257499946881053,9.957526,5.991402,122.90879,1677973546000,0.5230774,2.8911588,1408355733627000,5.488082,Car
Fix,FLP,37.3822087,-122.0770471,-2.730308975067132,9.951583,5.591,121.98905,1677973546682,0.5230774,2.8911588,1408355733627000,0.98585105,Car
Fix,GPS,37.3821593395,-122.0769478712,9.050953134383535,10.224982,6.274433,122.249664,1677973547000,0.5135576,2.8047848,1408356733573000,5.652384,Car
Fix,FLP,37.3821601,-122.0769494,-2.7134215880348265,10.221696,5.772,122.00005,1677973547682,0.5135576,2.8047848,1408356733573000,0.9868411,Car
Fix,GPS,37.382105215,-122.0768441679,9.08160951322019,10.436546,6.3653593,121.17162,1677973548000,0.52257454,2.8041892,1408357733879000,5.8290076,Car
Fix,FLP,37.3821077,-122.076847,-2.5578513448282862,10.4338665,5.968,121.01244,1677973548682,0.52257454,2.8041892,1408357733879000,0.9882899,Car
Fix,GPS,37.3820518218,-122.0767380276,9.478558851033766,10.67929,6.374958,121.24131,1677973549000,0.5179456,2.7174242,1408358733398000,5.9897985,Car
Fix,FLP,37.3820548,-122.0767411,-2.4749476116339864,10.676328,6.14,121.00043,1677973549682,0.5179456,2.7174242,1408358733398000,0.9886351,Car
Fix,GPS,37.3819952011,-122.0766295423,10.206462070692792,11.535422,6.3970203,121.70981,1677973550000,0.51463735,2.4979079,1408359733702000,6.1277614,Car
Fix,FLP,37.3819993,-122.0766327,-2.0281746080578813,11.525021,6.28,121.000694,1677973550682,0.51463735,2.4979079,1408359733702000,0.9899344,Car
Fix,GPS,37.3819385453,-122.0765197233,11.298348859872414,11.705992,6.3932896,122.21533,1677973551000,0.5292284,2.540326,1408360733479000,6.264014,Car
Fix,FLP,37.3819414,-122.0765201,-1.902787333926284,11.703686,6.299,121.98768,1677973551682,0.5292284,2.540326,1408360733479000,0.9795616,Car
Fix,GPS,37.3818790398,-122.0764010156,11.840833981854232,11.626526,6.2610188,121.66032,1677973552000,0.5287595,2.55819,1408361733514000,6.345585,Car
Fix,FLP,37.3818816,-122.0764036,-2.024592140320884,11.627552,6.344,121.012825,1677973552682,0.5287595,2.55819,1408361733514000,0.97893673,Car
Fix,GPS,37.3818243964,-122.0762812041,11.871945052828051,11.576739,6.1842027,120.75173,1677973553000,0.53186125,2.5912757,1408362733807000,6.4071503,Car
Fix,FLP,37.3818257,-122.0762849,-1.9713667265380368,11.577439,6.329,120.01315,1677973553682,0.53186125,2.5912757,1408362733807000,0.9801867,Car
Fix,GPS,37.3817677943,-122.0761597651,12.35921873903354,12.138547,6.146337,121.263954,1677973554000,0.5332986,2.474372,1408363733823000,6.461093,Car
Fix,FLP,37.38177,-122.0761643,-1.8869218728088344,12.1312685,6.276,120.98795,1677973554682,0.5332986,2.474372,1408363733823000,1.0095476,Car
Fix,GPS,37.3817100517,-122.0760375052,12.72849691238215,12.5566,6.201557,120.51488,1677973555000,0.5215108,2.3246062,1408364733549000,6.512017,Car
Fix,FLP,37.3817116,-122.076041,-1.5880314924562526,12.551294,6.263,120.012054,1677973555682,0.5215108,2.3246062,1408364733549000,1.0100569,Car
Fix,GPS,37.3816514592,-122.075917793,13.233269848793997,12.358929,6.235113,120.661,1677973556000,0.52170855,2.365067,1408365733770000,6.5722694,Car
Fix,FLP,37.3816529,-122.0759178,-1.5383860051460516,12.361358,6.205,120.00016,1677973556682,0.52170855,2.365067,1408365733770000,1.0101677,Car
Fix,GPS,37.3815900453,-122.0758000401,13.206898134965352,12.176331,6.31724,121.14082,1677973557000,0.52308834,2.404579,1408366733605000,6.624266,Car
Fix,FLP,37.3815929,-122.0757987,-1.4989764931976597,12.178676,6.216,120.98753,1677973557682,0.52308834,2.404579,1408366733605000,1.0668917,Car
Fix,GPS,37.3815317026,-122.0756862135,14.20977580988068,11.990866,6.4025497,120.81631,1677973558000,0.52290493,2.440989,1408367733944000,6.719266,Car
Fix,FLP,37.3815336,-122.0756838,-1.4703149145627492,11.993169,6.26,120.012634,1677973558682,0.52290493,2.440989,1408367733944000,1.0716689,Car
Fix,GPS,37.381474881,-122.0755735088,15.021887811260289,11.940282,6.4282856,121.14488,1677973559000,0.52219737,2.4480214,1408368733950000,6.761771,Car
Fix,FLP,37.3814768,-122.0755706,-1.2865714145297744,11.940927,6.317,120.987915,1677973559682,0.52219737,2.4480214,1408368733950000,1.0562186,Car
Fix,GPS,37.3814181057,-122.075453868,15.759147667946063,11.914004,6.337776,121.14587,1677973560000,0.54984504,2.5633206,1408369733911000,6.7983446,Car
Fix,FLP,37.3814195,-122.0754542,-1.2486962133075323,11.914397,6.344,120.99992,1677973560682,0.54984504,2.5633206,1408369733911000,1.0188043,Car
Fix,GPS,37.3813625284,-122.0753441024,15.947224795031971,11.68792,6.3569756,121.24878,1677973561000,0.55044216,2.6134408,1408370733654000,6.849645,Car
Fix,FLP,37.3813632,-122.0753419,-1.2747994107039489,11.691023,6.346,120.999985,1677973561682,0.55044216,2.6134408,1408370733654000,1.0213157,Car
Fix,GPS,37.381306924,-122.07523291,16.459907160480046,11.368128,6.206274,122.06723,1677973562000,0.5238489,2.5777125,1408371733940000,6.900093,Car
Fix,FLP,37.3813077,-122.0752312,-1.4283459990887124,11.37218,6.346,121.987144,1677973562682,0.5238489,2.5777125,1408371733940000,1.016458,Car
Fix,GPS,37.3812548651,-122.0751279656,16.86069127780419,10.105903,6.1535473,123.5098,1677973563000,0.520425,2.8777823,1408372733663000,6.93786,Car
Fix,FLP,37.3812544,-122.0751257,-1.5030709964976694,10.121623,6.314,122.98522,1677973563682,0.520425,2.8777823,1408372733663000,0.9907207,Car
Fix,GPS,37.3812087062,-122.0750447604,17.417868289169654,8.780033,6.1948256,125.24796,1677973564000,0.5158041,3.281322,1408373733972000,6.918679,Car
Fix,FLP,37.3812072,-122.0750389,-1.5097245601319784,8.796265,6.25,124.971245,1677973564682,0.5158041,3.281322,1408373733972000,0.99232996,Car
Fix,GPS,37.3811662028,-122.0749689981,17.122889467669324,7.099957,5.4989586,125.65916,1677973565000,0.4631048,3.5870566,1408374733673000,6.5415244,Car
Fix,FLP,37.3811648,-122.0749651,-1.5475985918336337,7.1164103,6.124,124.998055,1677973565683,0.4631048,3.5870566,1408374733673000,0.98762816,Car
Fix,GPS,37.3811323051,-122.0749125759,16.145567195939414,5.3501616,5.2220097,129.08318,1677973566000,0.43084657,4.4621153,1408375733623000,6.2945547,Car
Fix,FLP,37.3811309,-122.0749083,-2.223672688179775,5.3649883,5.938,128.95422,1677973566682,0.43084657,4.4621153,1408375733623000,0.99606603,Car
Fix,GPS,37.3811010349,-122.0748756009,16.916109728729438,4.151353,5.166307,148.04251,1677973567000,0.3884473,5.27572,1408376733661000,6.176173,Car
Fix,FLP,37.3811007,-122.0748702,-2.2190663726636046,4.2779717,5.74,144.91685,1677973567682,0.3884473,5.27572,1408376733661000,0.983885,Car
Fix,GPS,37.3810714133,-122.0748685706,16.643422469048204,3.5882852,4.989356,171.68866,1677973568000,0.34902337,5.894727,1408377733657000,5.8504744,Car
Fix,FLP,37.3810769,-122.0748612,4.297242440690589,3.6878867,5.444,163.58022,1677973568682,0.34902337,5.894727,1408377733657000,0.9903417,Car
Fix,GPS,37.381041133,-122.0748834649,15.20451403085831,4.492927,4.9537706,178.44687,1677973569000,0.31291026,3.7592688,1408378733934000,5.638285,Car
Fix,FLP,37.3810429,-122.074864,3.576146546175828,4.401389,5.294,176.94926,1677973569682,0.31291026,3.7592688,1408378733934000,1.0142146,Car
