Fix,Provider,LatitudeDegrees,LongitudeDegrees,AltitudeMeters,SpeedMps,AccuracyMeters,BearingDegrees,UnixTimeMillis,SpeedAccuracyMps,BearingAccuracyDegrees,elapsedRealtimeNanos,VerticalAccuracyMeters,TransitType
Fix,NLP,37.3880076,-122.0850032,0.4000000059604645,,23.941,,1675957977048,,,4312487663000000,1.6155182,Car
Fix,FLP,37.3880037,-122.0850329,0.4000000059604645,2.5283134,23.941,77.73515,1675957977048,,,4312487663000000,2.4340794,Car
Fix,NLP,37.3881909,-122.0848664,-0.3999999463558197,,25.832,,1675957982050,,,4312492665000000,1.4865409,Car
Fix,FLP,37.3881401,-122.0848747,-0.3999999463558197,3.199894,25.832,55.46447,1675957982050,,,4312492665000000,1.917081,Car
Fix,NLP,37.3883842,-122.0850331,-0.5000001192092896,,20.434,,1675957987061,,,4312497676000000,1.3822705,Car
Fix,FLP,37.38835,-122.0849682,-0.5000001192092896,3.1576476,20.434,13.629948,1675957987060,,,4312497676000000,1.7019562,Car
Fix,NLP,37.3884259,-122.0850587,-0.5000001192092896,,33.995,,1675957991974,,,4312502589000000,2.9053152,Car
Fix,FLP,37.3884347,-122.0850394,-0.5000001192092896,2.2972672,27.214,331.85522,1675957991974,,,4312502589000000,2.0183952,Car
Fix,NLP,37.3884906,-122.0855382,-2.5999999046325684,,23.527,,1675957997114,,,4312507729000000,2.4184394,Car
Fix,FLP,37.3884925,-122.0855165,-0.5000001192092896,6.9226117,23.527,281.70605,1675957997114,,,4312507729000000,2.0796208,Car
Fix,NLP,37.3885465,-122.0855402,-3.299999713897705,,18.385,,1675958002158,,,4312512773000000,4.140357,Car
Fix,FLP,37.3885469,-122.0855537,-0.5000001192092896,1.8845483,18.385,310.51804,1675958002158,,,4312512773000000,2.1016371,Car
Fix,NLP,37.3885965,-122.0855495,-2.299999713897705,,12.657,,1675958007179,,,4312517795000000,1.193655,Car
Fix,FLP,37.3885966,-122.0855512,-0.0113855942704077,1.1180134,12.657,354.68445,1675958007180,,,4312517795000000,1.9617777,Car
Fix,NLP,37.3886168,-122.0855306,-2.299999713897705,,13.674,,1675958012143,,,4312522758000000,1.0317634,Car
Fix,FLP,37.3886176,-122.0855313,0.6013133954371312,0.60614663,13.165,32.241955,1675958012143,,,4312522758000000,1.9345229,Car
Fix,NLP,37.3884067,-122.0856458,-0.5000001192092896,,11.641,,1675958017254,,,4312527869000000,1.0,Car
Fix,FLP,37.3884263,-122.0856349,-0.5000001192092896,7.8779917,12.657,203.4701,1675958017254,,,4312527869000000,1.7987446,Car
Fix,NLP,37.3882682,-122.0858093,-1.5000001192092896,,14.941,,1675958022218,,,4312532833000000,1.0,Car
Fix,FLP,37.3882484,-122.0858095,-0.5000001192092896,5.664738,13.291,213.34045,1675958022217,,,4312532833000000,1.6055981,Car
Fix,GPS,37.3880933084,-122.0856939444,-1.11e-14,0.0,5.4635744,,1675958020086,2.4978862,,4312533725996402,58.883793,Car
Fix,FLP,37.388207,-122.0858368,-0.5000001192092896,5.683294,96.0,212.46857,1675958023109,2.4978862,,4312533725996402,1.611234,Car
Fix,GPS,37.3880658717,-122.0856791819,-7.7e-15,0.0,2.2996993,,1675958021086,2.4981556,,4312534697082462,66.25632,Car
Fix,FLP,37.3881612,-122.0858629,-0.5000001192092896,5.686327,96.0,211.1533,1675958024082,2.4981556,,4312534697082462,1.6207252,Car
Fix,GPS,37.3880365458,-122.085705304,-0.2513450252645044,3.8734179,17.213924,217.91121,1675958022353,1.2620184,180.0,4312535709187606,134.82622,Car
Fix,FLP,37.388071,-122.0857769,-0.5000001192092896,5.6445184,17.214,193.7411,1675958025093,1.2620184,180.0,4312535709187606,1.6288055,Car
Fix,GPS,37.3880218559,-122.0857286628,-0.3563030409036544,0.0,12.81637,,1675958023383,1.2107725,,4312536725557764,113.97252,Car
Fix,FLP,37.3880215,-122.0857532,-0.5000001192092896,5.5312853,15.015,188.38492,1675958026110,1.2107725,,4312536725557764,1.6387955,Car
Fix,GPS,37.3880193064,-122.0857449643,0.611219430260929,0.0,8.091529,,1675958024400,1.0213038,,4312537719371608,75.70526,Car
Fix,FLP,37.3880051,-122.0857502,-1.5000001192092896,4.8922114,12.707,187.29385,1675958027104,1.0213038,,4312537719371608,1.6487856,Car
Fix,NLP,37.3881689,-122.0861444,-1.399999976158142,,34.248,,1675958027251,,,4312537866000000,1.0,Car
Fix,FLP,37.3880055,-122.0857492,-1.399999976158142,4.7482166,12.03,187.09764,1675958027251,1.0213038,,4312537866000000,1.4999568,Car
Fix,GPS,37.3880112013,-122.085765891,0.9126665447653286,0.0,11.131903,,1675958025382,1.0379486,,4312538745227931,108.75841,Car
Fix,FLP,37.3879821,-122.0857585,-1.399999976158142,4.393933,11.85,188.66039,1675958028130,1.0379486,,4312538745227931,1.5074301,Car
Fix,GPS,37.3880017067,-122.0857958697,2.3334034363771075,3.2766685,43.885376,265.80313,1675958026302,0.5722482,180.0,4312539742433498,15.9823065,Car
Fix,FLP,37.387948,-122.0858063,-1.399999976158142,4.958911,17.189,214.14319,1675958029127,0.5722482,180.0,4312539742433498,1.1643906,Car
Fix,GPS,37.3881192829,-122.0861726074,1.840333370366563,3.8003073,14.087566,278.21304,1675958027302,0.3536354,10.0,4312540731617622,15.635445,Car
Fix,FLP,37.3880296,-122.0859272,-1.399999976158142,3.747697,16.668,274.46216,1675958030115,0.3536354,10.0,4312540731617622,1.52696,Car
Fix,GPS,37.3881252477,-122.0862274737,-0.1710678710538191,3.896645,9.932536,281.96323,1675958028302,0.40584126,10.0,4312541778188830,13.401781,Car
Fix,FLP,37.3880702,-122.0860653,-0.5000001192092896,3.8816748,16.188,279.83517,1675958031163,0.40584126,10.0,4312541778188830,1.1908184,Car
Fix,NLP,37.3880838,-122.08614,-1.399999976158142,,22.613,,1675958031551,,,4312542167000000,1.0,Car
Fix,FLP,37.3880809,-122.0861039,0.2726428661464268,3.8933985,16.016,280.034,1675958031551,0.40584126,10.0,4312542167000000,1.1195842,Car
Fix,FLP,37.3881022,-122.0861678,1.104458137156982,4.0071363,15.016,284.13452,1675958031840,0.41674742,10.0,4312542455071968,1.595988,Car
Fix,GPS,37.3881481887,-122.0863156346,0.7765076277927933,4.9506006,7.381221,295.08133,1675958029999,0.4289548,10.0,4312543497121448,11.346244,Car
Fix,FLP,37.3881271,-122.0862529,-1.399999976158142,4.681677,15.632,291.3183,1675958032882,0.4289548,10.0,4312543497121448,1.1209099,Car
Fix,GPS,37.3881740642,-122.0863756171,0.5680059876448158,5.518593,6.8511558,300.24237,1675958030999,0.34609744,10.0,4312544502072417,10.79869,Car
Fix,FLP,37.3881566,-122.0863317,-1.399999976158142,5.259325,15.02,296.90692,1675958033887,0.34609744,10.0,4312544502072417,1.0898083,Car
Fix,GPS,37.3881990065,-122.0864392202,0.7713935578086496,5.1074295,6.621031,287.6516,1675958031999,0.3758188,10.0,4312545430582000,10.624333,Car
Fix,FLP,37.388184,-122.0864037,-1.399999976158142,5.199556,9.697,290.85526,1675958034814,0.3758188,10.0,4312545430582000,1.183448,Car
Fix,NLP,37.3882431,-122.0862923,-1.5000001192092896,,41.57,,1675958035543,,,4312546158000000,1.0,Car
Fix,FLP,37.3881964,-122.0864434,-1.5000001192092896,5.1995296,9.981,290.86917,1675958035543,0.3758188,10.0,4312546158000000,1.0038304,Car
Fix,GPS,37.3882112078,-122.0865021736,0.6975667701248216,5.1440115,6.5029297,269.7591,1675958032999,0.40459973,10.0,4312546430905000,10.623585,Car
Fix,FLP,37.3882011,-122.086475,-1.5000001192092896,5.1543117,9.546,277.6931,1675958035814,0.40459973,10.0,4312546430905000,1.0529219,Car
Fix,GPS,37.3882103248,-122.0865630575,0.9888500557095862,4.875159,6.453124,267.7689,1675958033999,0.6555146,10.0,4312547430652000,10.661358,Car
Fix,FLP,37.3882067,-122.086544,-1.5000001192092896,4.9499907,8.272,271.0589,1675958036815,0.6555146,10.0,4312547430652000,1.0267708,Car
Fix,GPS,37.3881889961,-122.0866164481,1.4723419532049078,5.534131,6.3673363,229.10532,1675958034999,0.4500334,10.0,4312548430661000,10.603122,Car
Fix,FLP,37.3881937,-122.0866052,-1.5000001192092896,5.0424705,8.036,241.5038,1675958037814,0.4500334,10.0,4312548430661000,1.0760099,Car
Fix,GPS,37.3881477792,-122.0866555919,0.4994152010340115,5.5903955,6.125637,210.96542,1675958035999,0.367257,10.0,4312549430888000,10.54112,Car
Fix,FLP,37.3881576,-122.0866531,-1.5000001192092896,5.5207872,7.856,218.6071,1675958038815,0.367257,10.0,4312549430888000,1.0582649,Car
Fix,GPS,37.3881010162,-122.0866849258,0.3341251372879129,5.6143456,7.81987,208.37769,1675958036999,0.4220225,10.0,4312550430876000,10.484736,Car
Fix,FLP,37.3881126,-122.0866882,-1.5000001192092896,5.633458,8.224,211.54567,1675958039815,0.4220225,10.0,4312550430876000,1.1088971,Car
Fix,GPS,37.3880531804,-122.0867149174,0.4161166252833373,5.9267583,10.438479,207.08128,1675958037999,0.48701414,10.0,4312551430668000,10.420792,Car
Fix,FLP,37.3880654,-122.0867195,-1.5000001192092896,5.8587747,7.284,208.48949,1675958040815,0.48701414,10.0,4312551430668000,1.082244,Car
Fix,GPS,37.3880025364,-122.0867460709,0.049178692804352,6.6911945,9.790323,208.28769,1675958038999,0.41677457,10.0,4312552430681000,10.393438,Car
Fix,FLP,37.3880137,-122.0867508,-1.5000001192092896,6.4265933,8.108,207.62794,1675958041814,0.41677457,10.0,4312552430681000,1.1237689,Car
Fix,GPS,37.3879460013,-122.0867807509,0.7622409296402417,7.2473135,9.3246,207.79794,1675958039999,0.3922045,10.0,4312553430705000,10.387528,Car
Fix,FLP,37.3879566,-122.0867842,-1.5000001192092896,6.983266,8.699,206.69388,1675958042815,0.3922045,10.0,4312553430705000,1.0868257,Car
Fix,GPS,37.3878843749,-122.0868178727,1.337443301098543,7.671057,8.047275,206.47511,1675958040999,0.39511082,10.0,4312554430999000,10.348209,Car
Fix,FLP,37.3878939,-122.0868196,-1.5000001192092896,7.4490085,9.084,205.83977,1675958043815,0.39511082,10.0,4312554430999000,1.1505834,Car
Fix,GPS,37.3878143866,-122.0868590699,2.611864769303309,8.113984,9.520559,206.71205,1675958041999,0.053321425,10.0,4312555431060000,9.989776,Car
Fix,FLP,37.3878274,-122.086858,-1.5000001192092896,7.9124427,9.424,205.43477,1675958044816,0.053321425,10.0,4312555431060000,1.1647763,Car
Fix,GPS,37.3877422054,-122.0869096026,3.55591581275367,8.034059,5.796774,206.54736,1675958042999,0.049570993,10.0,4312556431670000,9.727837,Car
Fix,FLP,37.3877525,-122.0869036,-1.5000001192092896,8.005143,8.496,205.77428,1675958045816,0.049570993,10.0,4312556431670000,1.1283735,Car
Fix,GPS,37.3876724027,-122.0869526007,3.3973316690639104,7.1486163,5.735722,205.42117,1675958043999,0.3761754,10.0,4312557431107000,9.589097,Car
Fix,FLP,37.3876817,-122.0869465,-1.5000001192092896,7.4288516,7.685,205.9236,1675958046815,0.3761754,10.0,4312557431107000,1.1627475,Car
Fix,GPS,37.3876200831,-122.0869863748,2.9169248635223424,6.2336097,5.460213,207.25911,1675958044999,0.07235505,10.0,4312558430819000,9.414533,Car
Fix,FLP,37.3876223,-122.0869837,-1.5000001192092896,6.4987736,6.912,207.47163,1675958047815,0.07235505,10.0,4312558430819000,1.1613173,Car
Fix,GPS,37.3875811055,-122.0870160396,2.7239766452522254,4.708069,5.2375526,214.81097,1675958045999,0.041546613,10.0,4312559430803000,9.25341,Car
Fix,FLP,37.3875771,-122.087016,-1.5000001192092896,5.0316978,6.633,212.79784,1675958048815,0.041546613,10.0,4312559430803000,1.176535,Car
Fix,GPS,37.3875585805,-122.0870425788,2.787147034191771,3.101582,5.04016,222.9515,1675958046999,0.031030083,10.0,4312560430857000,9.134933,Car
Fix,FLP,37.3875498,-122.0870435,-1.5000001192092896,3.3268902,6.132,220.3987,1675958049815,0.031030083,10.0,4312560430857000,1.1893721,Car
Fix,GPS,37.3875434306,-122.087057283,2.6900783516324807,1.9649416,5.2550287,228.32729,1675958047999,0.040735513,10.0,4312561430915000,9.034819,Car
Fix,FLP,37.3875349,-122.0870625,-1.5000001192092896,2.0476174,5.421,227.00436,1675958050815,0.040735513,10.0,4312561430915000,1.2146543,Car
Fix,GPS,37.3875367927,-122.0870690326,2.2712385194185694,1.0930562,5.254716,230.4446,1675958048999,0.038144007,10.0,4312562430839000,8.922779,Car
Fix,FLP,37.3875289,-122.0870746,-1.5000001192092896,1.1135095,5.33,229.7215,1675958051815,0.038144007,10.0,4312562430839000,1.1954639,Car
Fix,GPS,37.3875301179,-122.0870755049,2.1978031340996083,0.49804208,5.2544017,230.4446,1675958049999,0.028665997,39.29923,4312563430874000,8.799417,Car
Fix,FLP,37.3875258,-122.0870804,-1.5000001192092896,0.53844154,5.208,229.28194,1675958052815,0.028665997,39.29923,4312563430874000,1.2266262,Car
Fix,GPS,37.387527708,-122.0870761368,2.098794451411816,0.0,5.254088,230.4446,1675958050999,0.02876584,180.0,4312564430867000,8.687863,Car
Fix,FLP,37.387525,-122.087081,-1.5000001192092896,0.00027659835,5.211,,1675958053815,0.02876584,,4312564430867000,1.2297388,Car
Fix,GPS,37.387527708,-122.0870761368,2.2930194027203106,0.0,5.2537746,230.4446,1675958051999,0.029085748,180.0,4312565430871000,8.569477,Car
Fix,FLP,37.3875262,-122.0870789,-1.5000001192092896,1.5592843e-07,5.254,,1675958054815,0.029085748,,4312565430871000,1.2309012,Car
Fix,GPS,37.3875240434,-122.0870832883,2.042178805822864,0.51780397,5.253462,230.4446,1675958052999,0.026259288,31.259832,4312566430884000,8.452665,Car
Fix,FLP,37.3875252,-122.0870808,-1.5000001192092896,0.49353388,5.254,230.46503,1675958055814,0.026259288,31.259832,4312566430884000,1.2339591,Car
Fix,GPS,37.3875145325,-122.0871101884,1.577975801019355,2.449441,4.8716254,243.91496,1675958053999,0.03324504,10.0,4312567430891000,8.340417,Car
Fix,FLP,37.3875186,-122.087097,-1.5000001192092896,2.3253658,5.177,244.68777,1675958056815,0.03324504,10.0,4312567430891000,1.2612407,Car
Fix,GPS,37.3875121992,-122.0871577103,1.7841210827936718,4.3104167,4.8819237,266.136,1675958054999,0.04629909,10.0,4312568430923000,8.241278,Car
Fix,FLP,37.3875111,-122.0871381,-1.5000001192092896,4.324039,5.103,262.5024,1675958057814,0.04629909,10.0,4312568430923000,1.2549322,Car
Fix,GPS,37.3875251928,-122.087220211,2.111932169746802,5.706924,5.193692,284.7098,1675958055999,0.08955665,10.0,4312569431128000,8.138322,Car
Fix,FLP,37.3875162,-122.0872012,-1.5000001192092896,5.4670653,5.091,275.4486,1675958058816,0.08955665,10.0,4312569431128000,1.2666216,Car
Fix,NLP,37.3872991,-122.0872786,-1.0000001192092896,,32.794,,1675958059779,,,4312570394000000,4.9274735,Car
Fix,FLP,37.387521,-122.0872581,-1.0000001192092896,5.465837,7.194,275.47064,1675958059779,0.08955665,10.0,4312570394000000,2.0036526,Car
Fix,GPS,37.3875522527,-122.0872914081,2.2532670517974864,7.0429397,5.735219,295.2973,1675958056999,0.09203348,1.0,4312570430948000,7.9412656,Car
Fix,GPS,37.387588883,-122.0873719579,1.6593545607245304,8.196447,4.827263,298.05615,1675958057999,0.11756904,1.0,4312571430963000,7.888563,Car
Fix,FLP,37.3875767,-122.0873574,-1.0000001192092896,8.172518,7.203,297.9256,1675958060815,0.11756904,1.0,4312571430963000,1.7131548,Car
Fix,GPS,37.3876239481,-122.0874548988,1.8411607697660288,8.397386,4.9657845,299.46417,1675958058999,0.56577605,3.6649437,4312572431008000,7.8117614,Car
Fix,FLP,37.387617,-122.0874463,-1.0000001192092896,8.336113,7.219,298.72433,1675958061815,0.56577605,3.6649437,4312572431008000,1.6042949,Car
Fix,GPS,37.3876695212,-122.0875414661,1.3210307628915203,9.015925,5.225179,301.69742,1675958059999,0.045436893,10.0,4312573431004000,7.6473455,Car
Fix,FLP,37.3876604,-122.0875348,-1.0000001192092896,8.677819,7.276,299.29022,1675958062816,0.045436893,10.0,4312573431004000,1.7826841,Car
Fix,GPS,37.3877126726,-122.0876278442,1.1496154530109606,8.679842,4.8704643,302.60904,1675958060999,0.048173394,10.0,4312574431057000,7.52346,Car
Fix,FLP,37.3877057,-122.0876236,-1.0000001192092896,8.6624775,6.932,300.81992,1675958063815,0.048173394,10.0,4312574431057000,1.9754541,Car
Fix,GPS,37.3877505595,-122.0877013122,1.2426866561499863,7.5329432,5.2088447,303.1226,1675958061999,0.04987563,10.0,4312575431027000,7.438088,Car
Fix,FLP,37.3877473,-122.0877029,-1.0000001192092896,7.8995366,5.019,302.66006,1675958064816,0.04987563,10.0,4312575431027000,1.6633503,Car
Fix,GPS,37.3877810233,-122.0877621081,1.2680211926597265,6.334262,4.8701344,303.16205,1675958062999,0.08853991,10.0,4312576431041000,7.3307753,Car
Fix,FLP,37.387782,-122.0877683,-1.0000001192092896,6.7641287,5.028,303.6457,1675958065815,0.08853991,10.0,4312576431041000,1.6883162,Car
Fix,GPS,37.3878065886,-122.0878134096,1.008841385385668,5.337674,5.035977,302.96365,1675958063999,0.03332657,10.0,4312577431034000,7.2291603,Car
Fix,FLP,37.3878098,-122.0878218,-1.0000001192092896,5.6617484,5.042,303.37952,1675958066816,0.03332657,10.0,4312577431034000,1.780478,Car
Fix,GPS,37.3878262194,-122.0878539415,1.0506822319382167,4.2113137,5.7327204,302.09128,1675958064999,0.041856248,10.0,4312578431316000,7.1764708,Car
Fix,FLP,37.3878316,-122.0878653,-1.0000001192092896,4.452298,5.143,303.23972,1675958067816,0.041856248,10.0,4312578431316000,2.1126637,Car
Fix,GPS,37.3878397298,-122.0878813219,1.123205898302513,2.737913,4.5383024,301.69815,1675958065999,0.0455782,1.0,4312579431093000,7.1054688,Car
Fix,FLP,37.3878452,-122.0878938,-1.0000001192092896,2.741664,5.077,301.00333,1675958068816,0.0455782,1.0,4312579431093000,1.7274605,Car
Fix,GPS,37.3878456244,-122.0878960376,1.472218954194305,1.5804278,5.7788916,301.46994,1675958066999,0.048444733,1.7042438,4312580431151000,7.0524893,Car
Fix,FLP,37.3878531,-122.087911,-1.0000001192092896,1.5837704,5.191,300.9985,1675958069815,0.048444733,1.7042438,4312580431151000,1.713794,Car
Fix,GPS,37.3878491799,-122.087905745,1.434686028377279,0.73450506,5.7784624,301.46994,1675958067999,0.048502754,39.04376,4312581431171000,7.0081115,Car
Fix,FLP,37.387856,-122.0879181,-1.0000001192092896,0.8273203,5.372,303.84576,1675958070816,0.048502754,39.04376,4312581431171000,2.0195398,Car
Fix,GPS,37.3878507965,-122.0879070421,1.4039307664550682,0.0,5.7780366,301.46994,1675958068999,0.048720255,180.0,4312582431189000,6.99148,Car
Fix,FLP,37.387856,-122.087918,-1.0000001192092896,0.0014260218,5.521,,1675958071816,0.048720255,,4312582431189000,2.0295498,Car
Fix,GPS,37.3878502683,-122.0879096353,1.2443308569833225,0.30079693,5.2053933,301.46994,1675958069999,0.043133263,10.0,4312583431288000,6.9774737,Car
Fix,FLP,37.3878534,-122.0879142,-1.0000001192092896,0.29996523,5.468,300.98633,1675958072816,0.043133263,10.0,4312583431288000,1.7674705,Car
Fix,NLP,37.3879742,-122.0878355,-0.1999998986721038,,104.1,,1675958073775,,,4312584391000000,8.694862,Car
Fix,FLP,37.3878544,-122.0879165,-0.1999998986721038,0.2999534,7.459,300.9859,1675958073776,0.043133263,10.0,4312584391000000,2.3290224,Car
Fix,GPS,37.3878537147,-122.0879179791,1.3668459342593913,0.87247634,5.7771826,301.46994,1675958070999,0.04394616,10.0,4312584431152000,6.947484,Car
Fix,GPS,37.3878578936,-122.087928094,1.3963746698372912,0.9606958,5.7767563,301.46994,1675958071999,0.04895246,18.703844,4312585431210000,6.9297056,Car
Fix,FLP,37.3878581,-122.0879266,-0.1999998986721038,0.95617896,7.666,300.86325,1675958074816,0.04895246,18.703844,4312585431210000,2.3512483,Car
Fix,GPS,37.3878613353,-122.0879364546,1.485812492038599,0.86402214,5.7763295,301.46994,1675958072999,0.048798345,8.407385,4312586431235000,6.917397,Car
Fix,FLP,37.387862,-122.0879361,-0.1999998986721038,0.8648553,7.665,301.01663,1675958075816,0.048798345,8.407385,4312586431235000,2.3667552,Car
Fix,GPS,37.3878631862,-122.0879420033,1.4330660478200934,0.44057027,5.5086303,301.46994,1675958073999,0.046481244,50.50822,4312587431560000,6.8874946,Car
Fix,FLP,37.3878648,-122.0879434,-0.1999998986721038,0.46988586,7.62,302.64777,1675958076816,0.046481244,50.50822,4312587431560000,2.3375897,Car
Fix,GPS,37.3878636524,-122.0879427994,1.2188066599491718,0.0,5.7754784,301.46994,1675958074999,0.044204272,34.993107,4312588431263000,6.8649554,Car
Fix,FLP,37.3878656,-122.0879458,-0.1999998986721038,0.00069651566,7.357,,1675958077816,0.044204272,,4312588431263000,2.381915,Car
Fix,NLP,37.3879774,-122.0878888,-0.1999998986721038,,75.601,,1675958078805,,,4312589420000000,3.8725016,Car
Fix,FLP,37.3878655,-122.0879456,-0.1999998986721038,0.0006940677,7.873,,1675958078804,0.044204272,,4312589420000000,2.5061765,Car
Fix,GPS,37.3878636524,-122.0879427994,1.1228653854753738,0.0,5.6242123,301.46994,1675958075999,0.04325465,180.0,4312589431228000,6.83926,Car
Fix,GPS,37.3878636524,-122.0879427994,1.2354366241652834,0.0,5.774627,301.46994,1675958076999,0.043227397,80.82563,4312590431264000,6.753299,Car
Fix,FLP,37.3878643,-122.0879438,-0.1999998986721038,1.2972714e-08,7.847,,1675958079815,0.043227397,,4312590431264000,2.6977718,Car
Fix,GPS,37.3878636524,-122.0879427994,1.3557801450276077,0.0,5.6236606,301.46994,1675958077999,0.04310963,151.82486,4312591431271000,6.701692,Car
Fix,FLP,37.3878641,-122.0879434,-0.1999998986721038,8.972678e-09,7.822,,1675958080816,0.04310963,,4312591431271000,2.7194364,Car
Fix,GPS,37.3878636524,-122.0879427994,1.277346815096004,0.0,5.773777,301.46994,1675958078999,0.04244341,180.0,4312592431474000,6.6161127,Car
Fix,FLP,37.3878639,-122.0879432,-0.1999998986721038,4.9378954e-09,7.529,,1675958081815,0.04244341,,4312592431474000,2.7346292,Car
Fix,GPS,37.3878636524,-122.0879427994,1.5976689636690284,0.0,5.7733526,301.46994,1675958079999,0.033751532,59.581783,4312593431390000,6.526963,Car
Fix,FLP,37.3878638,-122.087943,-0.1999998986721038,1.8084655e-09,7.866,,1675958082816,0.033751532,,4312593431390000,3.465196,Car
Fix,NLP,37.3880694,-122.0879393,-0.1999998986721038,,53.583,,1675958083791,,,4312594407000000,3.147473,Car
Fix,FLP,37.3878638,-122.087943,-0.1999998986721038,1.0201092e-07,9.379,,1675958083792,0.033751532,,4312594407000000,2.6602466,Car
Fix,GPS,37.3878636524,-122.0879427994,1.70206539928343,0.0,5.772928,301.46994,1675958080999,0.03389994,120.57572,4312594431326000,6.4431686,Car
Fix,GPS,37.3878636524,-122.0879427994,1.7546890273218805,0.0,5.7725024,301.46994,1675958081999,0.46833098,158.82509,4312595431343000,6.3788795,Car
Fix,FLP,37.3878637,-122.0879429,-0.1999998986721038,6.7288475e-08,7.862,,1675958084816,0.46833098,,4312595431343000,2.515243,Car
Fix,GPS,37.3878636524,-122.0879427994,1.9987613605899697,0.0,5.5758905,301.46994,1675958082999,0.48353714,180.0,4312596431393000,6.316672,Car
Fix,FLP,37.3878637,-122.0879428,-0.1999998986721038,5.833555e-06,7.854,,1675958085816,0.48353714,,4312596431393000,2.7642148,Car
Fix,GPS,37.3878636524,-122.0879427994,2.0405151273367594,0.0,5.575514,301.46994,1675958083999,0.4866479,63.740665,4312597431707000,6.2590604,Car
Fix,FLP,37.3878637,-122.0879428,-0.1999998986721038,4.853076e-06,7.821,,1675958086816,0.4866479,,4312597431707000,2.778508,Car
Fix,GPS,37.3878636524,-122.0879427994,2.095057428004457,0.0,5.7712307,301.46994,1675958084999,0.47792605,27.796228,4312598431343000,6.1970124,Car
Fix,FLP,37.3878637,-122.0879428,-0.1999998986721038,2.9082307e-06,7.528,,1675958087816,0.47792605,,4312598431343000,3.308994,Car
Fix,NLP,37.3880003,-122.0876444,-0.5000001192092896,,52.549,,1675958088794,,,4312599409000000,3.154692,Car
Fix,FLP,37.3878637,-122.0879428,-0.5000001192092896,4.190102e-06,7.824,,1675958088794,0.47792605,,4312599409000000,3.1757536,Car
Fix,GPS,37.3878636524,-122.0879427994,2.0256306896826324,0.0,5.7708063,301.46994,1675958085999,0.48277074,15.919625,4312599431403000,6.1428447,Car
Fix,GPS,37.387861527,-122.0879451514,2.0668044315051777,0.785597,5.770383,301.46994,1675958086999,0.4786729,30.674448,4312600431422000,6.100522,Car
Fix,FLP,37.387863,-122.0879444,-0.5000001192092896,0.6396004,7.824,301.09363,1675958089816,0.4786729,30.674448,4312600431422000,2.6635633,Car
Fix,GPS,37.3878663272,-122.0879546529,2.1461997239239787,0.8677899,5.7699575,301.46994,1675958087999,0.508239,7.6852145,4312601431470000,6.1917167,Car
Fix,FLP,37.3878662,-122.0879525,-0.5000001192092896,0.83560395,7.856,301.6157,1675958090815,0.508239,7.6852145,4312601431470000,2.8683245,Car
Fix,GPS,37.3878718968,-122.0879667393,1.8763729564891305,0.9780293,5.8689375,301.46994,1675958088999,0.5115765,5.268898,4312602431453000,6.3399277,Car
Fix,FLP,37.3878709,-122.0879632,-0.5000001192092896,0.95749724,7.572,301.37473,1675958091816,0.5115765,5.268898,4312602431453000,2.8782544,Car
Fix,GPS,37.387879911,-122.0879783176,1.772495218273574,0.9754356,6.906209,301.46994,1675958089999,0.5622251,26.050636,4312603431487000,6.5336604,Car
Fix,FLP,37.3878768,-122.0879744,-0.5000001192092896,0.97206676,8.094,301.08063,1675958092815,0.5622251,26.050636,4312603431487000,2.7133894,Car
Fix,GPS,37.387887492,-122.0879861529,1.6511798653882044,0.43312052,6.7085876,301.46994,1675958090999,0.522248,28.899958,4312604431718000,6.751607,Car
Fix,FLP,37.3878833,-122.087984,-0.5000001192092896,0.5170879,6.204,299.0705,1675958093816,0.522248,28.899958,4312604431718000,2.7233894,Car
Fix,GPS,37.3878913268,-122.0879926462,1.4137000358835188,0.0,6.977997,301.46994,1675958091999,0.44101885,15.287261,4312605431754000,6.935091,Car
Fix,FLP,37.3878873,-122.0879897,-0.5000001192092896,0.060079742,6.446,,1675958094816,0.44101885,,4312605431754000,3.3002937,Car
Fix,GPS,37.3878913268,-122.0879926462,1.0316086037479644,0.0,6.7874317,301.46994,1675958092999,0.43644765,180.0,4312606431460000,7.056196,Car
Fix,FLP,37.3878888,-122.0879911,-0.5000001192092896,0.007908981,6.503,,1675958095816,0.43644765,,4312606431460000,3.2448385,Car
Fix,GPS,37.3878913268,-122.0879926462,1.8312262470093947,0.0,6.599068,301.46994,1675958093999,0.4228495,180.0,4312607431781000,6.761805,Car
Fix,FLP,37.3878898,-122.0879917,-0.5000001192092896,0.001058747,6.795,,1675958096816,0.4228495,,4312607431781000,3.2535448,Car
Fix,GPS,37.3878913268,-122.0879926462,2.0657202899390352,0.0,6.387661,301.46994,1675958094999,0.4180795,149.3607,4312608431503000,6.663117,Car
Fix,FLP,37.3878904,-122.0879921,-0.5000001192092896,0.00017270725,6.692,,1675958097815,0.4180795,,4312608431503000,2.7367823,Car
Fix,GPS,37.3878913268,-122.0879926462,2.231982843766166,0.0,6.173682,301.46994,1675958095999,0.414164,180.0,4312609432071000,6.5769367,Car
Fix,FLP,37.3878907,-122.0879923,-0.5000001192092896,4.714793e-05,6.585,,1675958098817,0.414164,,4312609432071000,2.7468987,Car
Fix,GPS,37.3878913268,-122.0879926462,2.207912237538915,0.0,6.0192013,301.46994,1675958096999,0.41111282,180.0,4312610431564000,6.4934826,Car
Fix,FLP,37.387891,-122.0879924,-0.5000001192092896,2.1657175e-05,6.49,,1675958099816,0.41111282,,4312610431564000,2.9583073,Car
Fix,GPS,37.3878913268,-122.0879926462,1.9419739791880577,0.0,5.876034,301.46994,1675958097999,0.41295865,180.0,4312611431963000,6.4155107,Car
Fix,FLP,37.3878911,-122.0879925,-0.5000001192092896,1.246433e-05,6.211,,1675958100815,0.41295865,,4312611431963000,2.967098,Car
Fix,GPS,37.3878913268,-122.0879926462,1.950276359949252,0.0,5.775435,301.46994,1675958098999,0.41683525,180.0,4312612431951000,6.3452187,Car
Fix,FLP,37.3878912,-122.0879925,-0.5000001192092896,7.6349725e-06,6.046,,1675958101816,0.41683525,,4312612431951000,2.9876847,Car
Fix,GPS,37.3878913268,-122.0879926462,2.072322083256879,0.0,5.676689,301.46994,1675958099999,0.4230691,180.0,4312613431632000,6.2763066,Car
Fix,FLP,37.3878912,-122.0879926,-0.5000001192092896,4.7862322e-06,5.904,,1675958102816,0.4230691,,4312613431632000,3.3779647,Car
Fix,GPS,37.3878913268,-122.0879926462,2.203897794509147,0.0,5.6297255,301.46994,1675958100999,0.41572082,180.0,4312614431748000,6.2096233,Car
Fix,FLP,37.3878913,-122.0879926,-0.5000001192092896,2.8241207e-06,5.858,,1675958103816,0.41572082,,4312614431748000,3.38781,Car
Fix,GPS,37.3878913268,-122.0879926462,2.2642780740650426,0.0,5.5826645,301.46994,1675958101999,0.41150522,180.0,4312615431636000,6.144564,Car
Fix,FLP,37.3878913,-122.0879926,-0.5000001192092896,1.6006379e-06,5.708,,1675958104815,0.41150522,,4312615431636000,3.4006662,Car
Fix,GPS,37.3878913268,-122.0879926462,2.432358695285404,0.0,5.5561905,301.46994,1675958102999,0.41012782,180.0,4312616431684000,6.0876412,Car
Fix,FLP,37.3878913,-122.0879926,-0.5000001192092896,9.101581e-07,5.682,,1675958105816,0.41012782,,4312616431684000,2.894178,Car
Fix,GPS,37.3878913268,-122.0879926462,2.549578404769054,0.0,5.5378685,301.46994,1675958103999,0.4147898,180.0,4312617432009000,6.034323,Car
Fix,FLP,37.3878913,-122.0879926,-0.5000001192092896,5.346426e-07,5.596,,1675958106817,0.4147898,,4312617432009000,3.0858357,Car
Fix,GPS,37.3878913268,-122.0879926462,2.489131363923744,0.0,5.505313,301.46994,1675958104999,0.41344145,96.07566,4312618431770000,5.9816947,Car
Fix,FLP,37.3878913,-122.0879926,-0.5000001192092896,3.143942e-07,5.562,,1675958107816,0.41344145,,4312618431770000,3.0953383,Car
Fix,GPS,37.3878913268,-122.0879926462,2.4251252651760318,0.0,5.4796777,301.46994,1675958105999,0.41372734,180.0,4312619431775000,5.932283,Car
Fix,FLP,37.3878913,-122.0879926,-0.5000001192092896,1.8236499e-07,5.532,,1675958108816,0.41372734,,4312619431775000,2.961284,Car
Fix,GPS,37.3878913268,-122.0879926462,2.386615734614109,0.0,5.458697,301.46994,1675958106999,0.4160155,180.0,4312620432059000,5.884441,Car
Fix,FLP,37.3878913,-122.0879926,-0.5000001192092896,1.0652407e-07,5.507,,1675958109817,0.4160155,,4312620432059000,2.971274,Car
Fix,GPS,37.3878913268,-122.0879926462,2.303054197880654,0.0,5.445456,301.46994,1675958107999,0.41515213,180.0,4312621431984000,5.8399906,Car
Fix,FLP,37.3878913,-122.0879926,-0.5000001192092896,6.1696156e-08,5.485,,1675958110815,0.41515213,,4312621431984000,3.0681312,Car
Fix,GPS,37.3878913268,-122.0879926462,2.2599412387102555,0.0,5.4162393,301.46994,1675958108999,0.41550836,180.0,4312622432022000,5.7932496,Car
Fix,FLP,37.3878913,-122.0879926,-0.5000001192092896,3.5595036e-08,5.461,,1675958111816,0.41550836,,4312622432022000,3.078068,Car
Fix,GPS,37.3878913268,-122.0879926462,2.1904716641287307,0.0,5.384865,301.46994,1675958109999,0.40851474,180.0,4312623431748000,5.746889,Car
Fix,FLP,37.3878913,-122.0879926,-0.5000001192092896,1.9896902e-08,5.448,,1675958112815,0.40851474,,4312623431748000,3.4778204,Car
Fix,GPS,37.3878913268,-122.0879926462,2.095993539772998,0.0,5.334099,301.46994,1675958110999,0.4050766,180.0,4312624431782000,5.699826,Car
Fix,FLP,37.3878913,-122.0879926,-0.5000001192092896,1.098617e-08,5.407,,1675958113816,0.4050766,,4312624431782000,3.4868004,Car
Fix,GPS,37.3878913268,-122.0879926462,2.040832245425173,0.0,5.2915545,301.46994,1675958111999,0.41113323,155.58646,4312625431970000,5.6555715,Car
Fix,FLP,37.3878913,-122.0879926,-0.5000001192092896,6.324343e-09,5.388,,1675958114816,0.41113323,,4312625431970000,3.4967904,Car
Fix,GPS,37.3878913268,-122.0879926462,2.0561323580865856,0.0,5.259777,301.46994,1675958112999,0.41426292,180.0,4312626432084000,5.610542,Car
Fix,FLP,37.3878913,-122.0879926,-0.5000001192092896,3.7143855e-09,5.337,,1675958115817,0.41426292,,4312626432084000,3.1752205,Car
Fix,GPS,37.3878913268,-122.0879926462,2.1458827597839965,0.0,5.2313843,301.46994,1675958113999,0.40720227,45.370476,4312627432005000,5.5684137,Car
Fix,FLP,37.3878913,-122.0879926,-0.5000001192092896,2.0752826e-09,5.319,,1675958116817,0.40720227,,4312627432005000,3.1862404,Car
Fix,GPS,37.3878913268,-122.0879926462,2.099472691706532,0.0,5.2169156,301.46994,1675958114999,0.41084826,35.162495,4312628431844000,5.5275993,Car
Fix,FLP,37.3878913,-122.0879926,-0.5000001192092896,1.1599146e-09,5.266,,1675958117815,0.41084826,,4312628431844000,3.1952004,Car
Fix,GPS,37.3878913268,-122.0879926462,2.0843633061613205,0.0,5.2042866,301.46994,1675958115999,0.40700367,35.86484,4312629431889000,5.4882965,Car
Fix,FLP,37.3878913,-122.0879926,-0.5000001192092896,6.460963e-10,5.24,,1675958118815,0.40700367,,4312629431889000,3.2052104,Car
Fix,GPS,37.3878913268,-122.0879926462,2.0715387765246347,0.0,5.198636,301.46994,1675958116999,0.40819797,180.0,4312630432198000,5.4518404,Car
Fix,FLP,37.3878913,-122.0879926,-0.5000001192092896,3.592657e-10,5.222,,1675958119817,0.40819797,,4312630432198000,3.2195718,Car
Fix,GPS,37.3878913268,-122.0879926462,2.267787878447375,0.0,5.2020907,301.46994,1675958117999,0.41000906,180.0,4312631431912000,5.416804,Car
Fix,FLP,37.3878913,-122.0879926,-0.5000001192092896,2.02725e-10,5.218,,1675958120815,0.41000906,,4312631431912000,3.0817366,Car
Fix,GPS,37.3878913268,-122.0879926462,2.357188267040235,0.0,5.195607,301.46994,1675958118999,0.40759775,180.0,4312632432225000,5.382056,Car
Fix,FLP,37.3878913,-122.0879926,-0.5000001192092896,1.13172e-10,5.203,,1675958121817,0.40759775,,4312632432225000,3.091284,Car
Fix,GPS,37.3878913268,-122.0879926462,2.515170163656648,0.0,5.2127695,301.46994,1675958119999,0.4096857,180.0,4312633431938000,5.34814,Car
Fix,FLP,37.3878913,-122.0879926,-0.5000001192092896,6.31998e-11,5.202,,1675958122816,0.4096857,,4312633431938000,3.100304,Car
Fix,GPS,37.3878913268,-122.0879926462,2.716542538985883,0.0,5.2460327,301.46994,1675958120999,0.40579554,180.0,4312634431969000,5.3185887,Car
Fix,FLP,37.3878913,-122.0879926,-0.5000001192092896,3.48003e-11,5.211,,1675958123816,0.40579554,,4312634431969000,3.3067565,Car
Fix,GPS,37.3878913268,-122.0879926462,2.891959232949693,0.0,5.2698116,301.46994,1675958121999,0.40189385,180.0,4312635432194000,5.2891045,Car
Fix,FLP,37.3878913,-122.0879926,-0.5000001192092896,1.88682e-11,5.221,,1675958124817,0.40189385,,4312635432194000,3.6533616,Car
Fix,GPS,37.3878913268,-122.0879926462,3.009586425712624,0.0,5.282674,301.46994,1675958122999,0.36838272,180.0,4312636431989000,5.2641125,Car
Fix,FLP,37.3878913,-122.0879926,-0.5000001192092896,8.8949e-12,5.241,,1675958125815,0.36838272,,4312636431989000,3.6641123,Car
Fix,GPS,37.3878913268,-122.0879926462,2.9873428336613213,0.0,5.1429787,301.46994,1675958123999,0.3086337,180.0,4312637431924000,5.194056,Car
Fix,FLP,37.3878913,-122.0879926,-0.5000001192092896,2.1246e-12,5.233,,1675958126816,0.3086337,,4312637431924000,3.673893,Car
Fix,GPS,37.3878913268,-122.0879926462,2.920657371316764,0.0,4.9808273,301.46994,1675958124999,0.29895687,180.0,4312638431942000,5.1074505,Car
Fix,FLP,37.3878913,-122.0879926,-0.5000001192092896,8.987e-13,5.201,,1675958127816,0.29895687,,4312638431942000,3.3690107,Car
Fix,GPS,37.3878913268,-122.0879926462,2.877099749243407,0.0,4.857368,301.46994,1675958125999,0.30182263,180.0,4312639431958000,5.0242014,Car
Fix,FLP,37.3878913,-122.0879926,2.2543063043002576,4.718e-13,5.151,,1675958128816,0.30182263,,4312639431958000,3.3645186,Car
Fix,GPS,37.3878913268,-122.0879926462,2.8063244652016737,0.0,4.813758,301.46994,1675958126999,0.33428267,69.53018,4312640431984000,4.9716372,Car
Fix,FLP,37.3878913,-122.0879926,-0.5000001192092896,3.158e-13,5.09,,1675958129815,0.33428267,,4312640431984000,3.3129215,Car
Fix,GPS,37.3878913268,-122.0879926462,2.729592050025315,0.0,4.775275,301.46994,1675958127999,0.31921646,180.0,4312641431984000,4.9061213,Car
Fix,FLP,37.3878913,-122.0879926,-0.5000001192092896,1.902e-13,5.019,,1675958130816,0.31921646,,4312641431984000,3.324833,Car
Fix,GPS,37.3878913268,-122.0879926462,2.742527340239785,0.0,4.7411904,301.46994,1675958128999,0.3090471,180.0,4312642432002000,4.8576446,Car
Fix,FLP,37.3878913,-122.0879926,-0.5000001192092896,9.36e-14,4.833,,1675958131817,0.3090471,,4312642432002000,3.3351367,Car
Fix,NLP,37.3878053,-122.0879624,-0.6000000238418579,,52.412,,1675958132765,,,4312643380000000,1.4233215,Car
Fix,FLP,37.3878913,-122.0879926,-0.6000000238418579,1.818e-13,6.872,,1675958132765,0.3090471,,4312643380000000,2.4578025,Car
Fix,GPS,37.3878913268,-122.0879926462,2.84742613083095,0.0,4.6965637,301.46994,1675958129999,0.2975114,180.0,4312643432015000,4.7997313,Car
Fix,GPS,37.3878913268,-122.0879926462,3.1689998968484474,0.0,4.651902,301.46994,1675958130999,0.29713184,162.79767,4312644432030000,4.732044,Car
Fix,FLP,37.3878913,-122.0879926,-0.6000000238418579,3e-16,6.79,,1675958133816,0.29713184,,4312644432030000,2.2980196,Car
Fix,GPS,37.3878913268,-122.0879926462,3.3314261320719,0.0,4.535352,301.46994,1675958131999,0.2912541,180.0,4312645432047000,4.6607547,Car
Fix,FLP,37.3878913,-122.0879926,-0.6000000238418579,0.0,6.744,,1675958134817,0.2912541,,4312645432047000,2.361494,Car
Fix,GPS,37.3878913268,-122.0879926462,3.428608274495521,0.0,4.4402046,301.46994,1675958132999,0.29221806,180.0,4312646432076000,4.5953107,Car
Fix,FLP,37.3878913,-122.0879926,-0.6000000238418579,0.0,6.688,,1675958135817,0.29221806,,4312646432076000,2.4326031,Car
Fix,GPS,37.3878913268,-122.0879926462,3.649278463108092,0.0,4.353223,301.46994,1675958133999,0.2904218,180.0,4312647432113000,4.5211754,Car
Fix,FLP,37.3878913,-122.0879926,-0.6000000238418579,0.0,6.623,,1675958136817,0.2904218,,4312647432113000,2.467778,Car
Fix,NLP,37.3880065,-122.0879884,-0.1999998986721038,,51.522,,1675958137760,,,4312648375000000,1.2251043,Car
Fix,FLP,37.3878913,-122.0879926,-0.1999998986721038,3e-16,8.05,,1675958137760,0.2904218,,4312648375000000,2.2641509,Car
Fix,GPS,37.3878913268,-122.0879926462,3.702009186364545,0.0,4.289291,301.46994,1675958134999,0.29516745,180.0,4312648432086000,4.460231,Car
Fix,GPS,37.3878913268,-122.0879926462,3.699772026330808,0.0,4.2576585,301.46994,1675958135999,0.28883985,180.0,4312649432130000,4.4033985,Car
Fix,FLP,37.3878913,-122.0879926,-0.1999998986721038,0.0,6.414,,1675958138816,0.28883985,,4312649432130000,2.4277287,Car
Fix,GPS,37.3878913268,-122.0879926462,3.5875617062309244,0.0,4.2302537,301.46994,1675958136999,0.28005052,180.0,4312650432134000,4.3634257,Car
Fix,FLP,37.3878913,-122.0879926,-0.1999998986721038,0.0,6.363,,1675958139817,0.28005052,,4312650432134000,2.2930093,Car
Fix,GPS,37.3878913268,-122.0879926462,3.435944598368237,0.0,4.230144,301.46994,1675958137999,0.28598765,180.0,4312651432230000,4.322117,Car
Fix,FLP,37.3878913,-122.0879926,-0.1999998986721038,0.0,6.328,,1675958140816,0.28598765,,4312651432230000,2.2871354,Car
Fix,GPS,37.3878913268,-122.0879926462,3.3198563045626464,0.0,4.2300344,301.46994,1675958138999,0.29505834,110.93954,4312652432173000,4.2847304,Car
Fix,FLP,37.3878913,-122.0879926,-0.1999998986721038,0.0,6.307,,1675958141817,0.29505834,,4312652432173000,2.2973833,Car
Fix,NLP,37.3879731,-122.0877979,-0.8000000715255737,,40.972,,1675958142805,,,4312653420000000,1.2806242,Car
Fix,GPS,37.3878913268,-122.0879926462,3.184093192186912,0.0,4.229924,301.46994,1675958139999,0.29415524,180.0,4312653432182000,4.2396436,Car
Fix,FLP,37.3878913,-122.0879926,-0.8000000715255737,0.0,6.384,,1675958142804,0.29505834,,4312653420000000,2.0091832,Car
Fix,GPS,37.3878913268,-122.0879926462,3.047773844387352,0.0,4.229815,301.46994,1675958140999,0.29408,180.0,4312654432222000,4.193233,Car
Fix,FLP,37.3878913,-122.0879926,-0.8000000715255737,0.0,6.37,,1675958143817,0.29408,,4312654432222000,2.020824,Car
Fix,GPS,37.3878913268,-122.0879926462,2.987918843201095,0.0,4.229706,301.46994,1675958141999,0.29589486,180.0,4312655432215000,4.156227,Car
Fix,FLP,37.3878913,-122.0879926,-0.8000000715255737,0.0,6.37,,1675958144817,0.29589486,,4312655432215000,2.041157,Car
Fix,GPS,37.3878913268,-122.0879926462,2.876151239823178,0.0,4.229596,301.46994,1675958142999,0.30252093,180.0,4312656432215000,4.1230454,Car
Fix,FLP,37.3878913,-122.0879926,-0.8000000715255737,0.0,6.064,,1675958145817,0.30252093,,4312656432215000,2.059501,Car
Fix,GPS,37.3878913268,-122.0879926462,2.6789549163517488,0.0,4.2294865,301.46994,1675958143999,0.3030881,180.0,4312657432307000,4.076009,Car
Fix,FLP,37.3878913,-122.0879926,-0.8000000715255737,0.0,6.37,,1675958146817,0.3030881,,4312657432307000,2.0697722,Car
Fix,GPS,37.3878913268,-122.0879926462,2.478367984248542,0.0,4.229377,301.46994,1675958144999,0.27544206,180.0,4312658432313000,4.01749,Car
Fix,FLP,37.3878913,-122.0879926,-0.8000000715255737,0.0,4.229,,1675958147817,0.27544206,,4312658432313000,2.0793724,Car
Fix,GPS,37.3878913268,-122.0879926462,2.383770873928253,0.0,4.229268,301.46994,1675958145999,0.2677196,53.18835,4312659432279000,3.971573,Car
Fix,FLP,37.3878913,-122.0879926,-0.8000000715255737,0.0,4.229,,1675958148816,0.2677196,,4312659432279000,2.0897553,Car
Fix,NLP,37.3879448,-122.087774,-0.1999998986721038,,36.62,,1675958149088,,,4312659703000000,1.3790884,Car
Fix,FLP,37.3878913,-122.0879926,-0.1999998986721038,0.0,4.815,,1675958149088,0.2677196,,4312659703000000,1.7671148,Car
Fix,GPS,37.3878913268,-122.0879926462,2.307388943990522,0.0,4.2291584,301.46994,1675958146999,0.26789612,180.0,4312660432262000,3.9308846,Car
Fix,FLP,37.3878913,-122.0879926,-0.1999998986721038,0.0,4.815,,1675958149817,0.26789612,,4312660432262000,1.9138013,Car
Fix,GPS,37.3878913268,-122.0879926462,2.163273062595513,0.0,4.229049,301.46994,1675958147999,0.26738253,170.95013,4312661432342000,3.8902438,Car
Fix,FLP,37.3878913,-122.0879926,-0.1999998986721038,0.0,4.731,,1675958150817,0.26738253,,4312661432342000,1.9134753,Car
Fix,GPS,37.3878913268,-122.0879926462,1.741897617382047,0.0,4.2289395,301.46994,1675958148999,0.30956942,180.0,4312662432360000,3.5165362,Car
Fix,FLP,37.3878913,-122.0879926,-0.1999998986721038,0.0,4.731,,1675958151816,0.30956942,,4312662432360000,1.931942,Car
Fix,GPS,37.3878913268,-122.0879926462,1.5540647009965578,0.0,4.228831,301.46994,1675958149999,0.26102254,139.35616,4312663432391000,3.2448509,Car
Fix,FLP,37.3878913,-122.0879926,-0.5000001192092896,0.0,6.655,,1675958152852,0.30956942,,4312663468000000,1.8964082,Car
Fix,NLP,37.3880228,-122.0879532,-0.5000001192092896,,48.736,,1675958152853,,,4312663468000000,2.0328333,Car
Fix,GPS,37.3878913268,-122.0879926462,1.248726151069648,0.0,4.2287216,301.46994,1675958150999,0.25337416,180.0,4312664432390000,3.0409703,Car
Fix,FLP,37.3878913,-122.0879926,-0.5000001192092896,0.0,6.409,,1675958153817,0.25337416,,4312664432390000,1.9082242,Car
Fix,GPS,37.3878913268,-122.0879926462,1.2015490097082768,0.0,4.228613,301.46994,1675958151999,0.2489416,180.0,4312665432382000,3.0,Car
Fix,FLP,37.3878913,-122.0879926,-0.5000001192092896,0.0,6.218,,1675958154817,0.2489416,,4312665432382000,1.8992444,Car
Fix,GPS,37.3878913268,-122.0879926462,1.0970579199717965,0.0,4.2285037,301.46994,1675958152999,0.24623609,85.43185,4312666432639000,3.0,Car
Fix,FLP,37.3878913,-122.0879926,-0.5000001192092896,0.0,6.549,,1675958155817,0.24623609,,4312666432639000,1.9092444,Car
Fix,GPS,37.3878954822,-122.0880042865,0.9096779572216332,0.33167255,4.2283945,301.46994,1675958153999,0.24744245,173.79257,4312667432602000,3.0,Car
Fix,FLP,37.3878941,-122.0880005,-0.5000001192092896,0.32499608,6.549,300.47247,1675958156817,0.24744245,173.79257,4312667432602000,1.9193676,Car
Fix,GPS,37.387895139,-122.0880036485,1.0068460890337132,0.0,4.571051,301.46994,1675958154999,0.24878742,137.5396,4312668432436000,3.0,Car
Fix,FLP,37.3878953,-122.0880036,-0.5000001192092896,0.0006151339,6.529,,1675958157817,0.24878742,,4312668432436000,1.9260032,Car
Fix,NLP,37.3879393,-122.0878557,-0.5000001192092896,,51.349,,1675958157897,,,4312668513000000,2.0851932,Car
Fix,FLP,37.3878952,-122.0880036,-0.5000001192092896,0.00061457255,4.517,,1675958157898,0.24878742,,4312668513000000,1.8760792,Car
Fix,GPS,37.387895139,-122.0880036485,0.9763432315153208,0.0,4.4065495,301.46994,1675958155999,0.24832082,180.0,4312669432772000,3.0,Car
Fix,FLP,37.3878951,-122.0880036,-0.5000001192092896,1.1597607e-06,4.547,,1675958158817,0.24832082,,4312669432772000,1.8881943,Car
Fix,GPS,37.387895139,-122.0880036485,0.9795929071147358,0.0,4.2672563,301.46994,1675958156999,0.25528073,72.43692,4312670432445000,3.0,Car
Fix,FLP,37.3878951,-122.0880036,-0.5000001192092896,1.8581858e-09,4.553,,1675958159816,0.25528073,,4312670432445000,1.8981843,Car
Fix,GPS,37.387895139,-122.0880036485,0.893766139803118,0.0,4.227959,301.46994,1675958157999,0.25649127,103.18442,4312671432479000,3.0,Car
Fix,FLP,37.3878951,-122.0880036,-0.5000001192092896,7.928217e-10,4.506,,1675958160816,0.25649127,,4312671432479000,1.9092267,Car
Fix,GPS,37.387895139,-122.0880036485,0.8682007301616546,0.0,4.227851,301.46994,1675958158999,0.26593205,180.0,4312672432444000,3.0,Car
Fix,FLP,37.3878951,-122.0880036,-0.5000001192092896,2.781671e-10,4.506,,1675958161817,0.26593205,,4312672432444000,1.9184912,Car
Fix,GPS,37.387895139,-122.0880036485,0.8164765858079377,0.0,4.227742,301.46994,1675958159999,0.29514593,29.754978,4312673432530000,3.0,Car
Fix,FLP,37.3878951,-122.0880036,-0.5000001192092896,1.182895e-10,4.496,,1675958162817,0.29514593,,4312673432530000,1.9289974,Car
Fix,NLP,37.3880392,-122.0880414,-0.3999999463558197,,53.334,,1675958162894,,,4312673510000000,1.4636599,Car
Fix,FLP,37.3878951,-122.0880036,-0.3999999463558197,3.785309e-09,4.601,,1675958162894,0.29514593,,4312673510000000,1.7727379,Car
Fix,GPS,37.3879029738,-122.0880163887,0.8411432932013564,2.6950214,4.2276335,300.09314,1675958160999,0.33561382,6.879142,4312674432503000,3.0,Car
Fix,FLP,37.3879006,-122.0880127,-0.3999999463558197,2.6812267,4.403,300.0053,1675958163816,0.33561382,6.879142,4312674432503000,1.7827518,Car
Fix,GPS,37.3879213377,-122.0880545807,0.9441810780997004,4.576383,4.7342257,302.54666,1675958161999,0.37022266,4.4555707,4312675432561000,3.0,Car
Fix,FLP,37.3879155,-122.0880429,-0.3999999463558197,4.5402637,4.417,301.98428,1675958164817,0.37022266,4.4555707,4312675432561000,1.7847328,Car
Fix,GPS,37.3879517847,-122.088113311,0.8712801003819101,6.321531,5.108223,303.28262,1675958162999,0.4129556,3.603717,4312676432548000,3.0,Car
Fix,FLP,37.3879419,-122.0880946,-0.3999999463558197,6.2796335,4.55,302.98776,1675958165817,0.4129556,3.603717,4312676432548000,1.7947228,Car
Fix,GPS,37.3879941132,-122.0881924685,0.5510949412831299,7.345879,5.314111,305.13333,1675958163999,0.4303336,3.238454,4312677432880000,3.0839977,Car
Fix,FLP,37.3879863,-122.0881786,-0.3999999463558197,7.3369794,4.67,304.98627,1675958166817,0.4303336,3.238454,4312677432880000,1.8322198,Car
Fix,GPS,37.3880426027,-122.0882791276,0.562218488137807,8.178458,5.489397,306.06177,1675958164999,0.43054074,2.9157948,4312678432725000,3.306241,Car
Fix,FLP,37.3880334,-122.0882627,-0.3999999463558197,8.050548,4.81,305.86148,1675958167816,0.43054074,2.9157948,4312678432725000,1.8225156,Car
Fix,FLP,37.3880406,-122.0882754,-0.3999999463558197,8.051155,5.067,305.86127,1675958167976,0.43054074,2.9157948,4312678591000000,1.6790904,Car
Fix,NLP,37.3879717,-122.0890464,-0.3999999463558197,,122.416,,1675958167976,,,4312678591000000,1.0330678,Car
Fix,GPS,37.3880956627,-122.0883689456,0.7496381044989012,9.063111,5.445531,303.54944,1675958165999,0.46176445,2.8466394,4312679432621000,3.4862854,Car
Fix,FLP,37.3880845,-122.088352,-0.3999999463558197,8.884825,5.203,303.47955,1675958168817,0.46176445,2.8466394,4312679432621000,1.6917564,Car
Fix,GPS,37.3881502611,-122.088470484,1.1632695116804603,10.271744,5.4285073,301.0436,1675958166999,0.46380493,2.5462294,4312680433224000,3.616772,Car
Fix,FLP,37.3881382,-122.0884522,-0.3999999463558197,10.0254,5.58,301.40594,1675958169817,0.46380493,2.5462294,4312680433224000,1.702771,Car
Fix,GPS,37.3882081438,-122.088585003,1.2222095301265326,11.062335,5.485385,301.19916,1675958167999,0.48676848,2.4995084,4312681432628000,3.7254486,Car
Fix,FLP,37.3881952,-122.0885652,-0.3999999463558197,10.865507,5.784,301.08008,1675958170817,0.48676848,2.4995084,4312681432628000,1.723598,Car
Fix,GPS,37.3882699307,-122.0887043981,1.3638996450346514,11.672955,5.686766,302.0123,1675958168999,0.48622796,2.3571532,4312682432680000,3.8284216,Car
Fix,FLP,37.3882561,-122.0886851,-0.3999999463558197,11.523798,5.77,301.84158,1675958171817,0.48622796,2.3571532,4312682432680000,1.733608,Car
Fix,GPS,37.3883356041,-122.0888249985,1.2630141788929137,12.271544,5.7236824,302.1105,1675958169999,0.49351183,2.2976675,4312683432903000,3.8896909,Car
Fix,FLP,37.3883214,-122.0888086,-0.3999999463558197,12.129182,5.886,301.97812,1675958172817,0.49351183,2.2976675,4312683432903000,1.7438307,Car
Fix,GPS,37.3884021719,-122.088952824,1.3211438519902774,12.950901,5.726296,301.79282,1675958170999,0.47181648,2.0584874,4312684432873000,3.928821,Car
Fix,FLP,37.3883889,-122.0889375,-0.3999999463558197,12.80587,5.61,301.1782,1675958173817,0.47181648,2.0584874,4312684432873000,1.7538507,Car
Fix,GPS,37.3884712258,-122.0890867093,1.1278366217887,13.510975,5.8443685,301.6812,1675958171999,0.47721055,2.0054216,4312685432799000,3.9752588,Car
Fix,FLP,37.388458,-122.0890724,-0.3999999463558197,13.382564,5.649,301.03992,1675958174817,0.47721055,2.0054216,4312685432799000,1.7638407,Car
Fix,GPS,37.3885417022,-122.0892243945,0.8968935906106259,13.827945,5.867783,301.93866,1675958172999,0.49835935,2.0714967,4312686432730000,4.008683,Car
Fix,FLP,37.388529,-122.0892117,-0.3999999463558197,13.74207,5.769,301.0146,1675958175817,0.49835935,2.0714967,4312686432730000,1.7738174,Car
Fix,GPS,37.3886109665,-122.0893638939,0.6495252031452949,14.119432,5.8483806,301.73132,1675958173999,0.46971554,1.9008139,4312687432731000,4.0110345,Car
Fix,FLP,37.3886004,-122.0893531,-0.3999999463558197,14.054654,5.802,301.00867,1675958176816,0.46971554,1.9008139,4312687432731000,1.7838475,Car
Fix,GPS,37.388682562,-122.089504275,-0.0839490662300655,14.20868,5.872944,302.2534,1675958174999,0.4643038,1.8660642,4312688432874000,4.0133038,Car
Fix,FLP,37.3886727,-122.0894955,-0.3999999463558197,14.183534,5.813,301.8275,1675958177817,0.4643038,1.8660642,4312688432874000,1.7938274,Car
Fix,GPS,37.3887521683,-122.0896437092,-0.3033225061921907,14.338714,5.8614907,301.55347,1675958175999,0.46001244,1.8238374,4312689433081000,4.018697,Car
Fix,FLP,37.3887449,-122.0896371,-0.3999999463558197,14.31287,5.858,301.14987,1675958178818,0.46001244,1.8238374,4312689433081000,1.7680416,Car
Fix,GPS,37.3888220234,-122.0897843348,-0.1162207923296796,14.699959,5.8375745,302.0201,1675958176999,0.46098483,1.7728002,4312690432888000,4.0260506,Car
Fix,FLP,37.3888161,-122.0897795,-0.3999999463558197,14.632241,5.857,301.85577,1675958179817,0.46098483,1.7728002,4312690432888000,1.7780416,Car
Fix,GPS,37.3888966867,-122.0899326141,0.1664901998978731,15.23206,5.78601,302.84448,1675958177999,0.46058717,1.7066338,4312691432888000,4.030436,Car
Fix,FLP,37.3888905,-122.0899259,-0.3999999463558197,15.127052,5.841,301.97922,1675958180817,0.46058717,1.7066338,4312691432888000,1.7880416,Car
Fix,GPS,37.3889745927,-122.0900855148,0.4444485873093763,15.541228,5.771832,302.9175,1675958178999,0.4739318,1.7218851,4312692432934000,4.049002,Car
Fix,FLP,37.3889677,-122.0900775,-0.3999999463558197,15.466197,5.826,301.99973,1675958181817,0.4739318,1.7218851,4312692432934000,1.7980345,Car
Fix,GPS,37.389053051,-122.0902420899,0.4031809875006745,15.727751,5.81853,301.6808,1675958179999,0.45911267,1.6645297,4312693432935000,4.077798,Car
Fix,FLP,37.3890461,-122.090233,-0.3999999463558197,15.683537,5.815,301.1772,1675958182816,0.45911267,1.6645297,4312693432935000,1.8080345,Car
Fix,GPS,37.3891285859,-122.090402947,0.3808249326429104,16.063887,5.778629,300.62448,1675958180999,0.4827493,1.7149763,4312694432938000,4.0852923,Car
Fix,FLP,37.389123,-122.0903929,-0.3999999463558197,15.992244,5.809,300.22495,1675958183816,0.4827493,1.7149763,4312694432938000,1.8571336,Car
Fix,GPS,37.3891978873,-122.0905602902,0.6727707898870094,16.180017,5.8882236,299.27713,1675958181999,0.4734618,1.6700125,4312695433033000,4.1177917,Car
Fix,FLP,37.3891962,-122.0905542,-0.3999999463558197,16.145933,5.808,299.22433,1675958184818,0.4734618,1.6700125,4312695433033000,1.8672497,Car
Fix,GPS,37.3892710875,-122.0907263416,0.693125707969654,16.360163,5.970911,299.6461,1675958182999,0.46629632,1.6191188,4312696432851000,4.1207933,Car
Fix,FLP,37.3892688,-122.090719,-0.3999999463558197,16.322853,5.835,299.0398,1675958185817,0.46629632,1.6191188,4312696432851000,1.8772497,Car
Fix,GPS,37.3893456606,-122.0908887182,0.7564360074536367,16.601244,5.985044,300.38004,1675958183999,0.46811727,1.5453207,4312697432990000,4.118652,Car
Fix,FLP,37.3893427,-122.090884,-0.3999999463558197,16.552855,5.888,299.83615,1675958186816,0.46811727,1.5453207,4312697432990000,1.8871396,Car
Fix,GPS,37.389422185,-122.0910517468,1.0276561567308031,16.74361,6.0715103,300.8178,1675958184999,0.506389,1.6771381,4312698432905000,4.1370797,Car
Fix,FLP,37.389419,-122.0910487,-0.3999999463558197,16.705418,5.919,299.9695,1675958187817,0.506389,1.6771381,4312698432905000,1.8971295,Car
Fix,GPS,37.3895030456,-122.0912224894,0.5801231972879407,17.183496,6.1999726,301.12863,1675958185999,0.5105804,1.6737437,4312699432951000,4.159902,Car
Fix,FLP,37.389498,-122.0912168,-0.3999999463558197,17.086672,6.023,300.79617,1675958188816,0.5105804,1.6737437,4312699432951000,1.9073519,Car
Fix,GPS,37.3895883668,-122.0913973732,0.5404241672168919,17.350363,6.423796,301.86124,1675958186999,0.47424206,1.5470732,4312700433244000,4.1943703,Car
Fix,FLP,37.3895813,-122.0913886,-0.3999999463558197,17.3047,6.13,300.9659,1675958189817,0.47424206,1.5470732,4312700433244000,1.9173318,Car
Fix,GPS,37.3896762918,-122.0915738885,0.1758122259886009,17.743275,6.366167,302.44125,1675958187999,0.4660147,1.4775982,4312701432944000,4.1929483,Car
Fix,FLP,37.3896676,-122.0915635,-0.3999999463558197,17.666859,6.209,301.822,1675958190817,0.4660147,1.4775982,4312701432944000,1.9479307,Car
Fix,GPS,37.3897645493,-122.0917511729,-0.0037422965269016,17.929699,6.1214476,302.36972,1675958188999,0.45542324,1.4203373,4312702432983000,4.1790137,Car
Fix,FLP,37.3897568,-122.0917408,-0.3999999463558197,17.886671,6.194,301.97217,1675958191817,0.45542324,1.4203373,4312702432983000,1.9579307,Car
Fix,GPS,37.3898530648,-122.0919304544,-0.1818368064644454,18.001596,6.008174,301.75897,1675958189999,0.4545528,1.4104043,4312703433017000,4.1777744,Car
Fix,FLP,37.3898463,-122.0919202,-0.3999999463558197,17.983227,6.223,301.16864,1675958192818,0.4545528,1.4104043,4312703433017000,1.9679706,Car
Fix,GPS,37.3899373728,-122.0921089059,-0.0627427641625225,17.891106,5.83563,301.92325,1675958190999,0.4676343,1.4721224,4312704432994000,4.181169,Car
Fix,FLP,37.389933,-122.0921004,-0.3999999463558197,17.91002,6.151,301.0308,1675958193816,0.4676343,1.4721224,4312704432994000,1.9779307,Car
Fix,GPS,37.3900197731,-122.0922848986,0.2591802120419699,17.69525,5.818408,302.01303,1675958191999,0.45204613,1.4385383,4312705432984000,4.190024,Car
Fix,FLP,37.3900178,-122.0922782,-0.3999999463558197,17.733551,6.095,301.83066,1675958194816,0.45204613,1.4385383,4312705432984000,1.9879085,Car
Fix,GPS,37.3901015451,-122.0924577158,0.551854962004488,17.537794,5.7313657,301.6659,1675958192999,0.44118595,1.4060532,4312706433316000,4.191472,Car
Fix,FLP,37.3901015,-122.0924525,-0.3999999463558197,17.570557,5.902,301.1356,1675958195817,0.44118595,1.4060532,4312706433316000,1.9765593,Car
Fix,GPS,37.3901860768,-122.092628381,0.5176253158582103,17.209019,5.7328887,302.21332,1675958193999,0.45961297,1.5015354,4312707432984000,4.1973367,Car
Fix,FLP,37.3901844,-122.0926247,-0.3999999463558197,17.274693,5.825,301.8417,1675958196817,0.45961297,1.5015354,4312707432984000,1.9836463,Car
Fix,GPS,37.3902667555,-122.0927936273,0.5184470973758907,16.96694,5.791556,302.1434,1675958194999,0.48141256,1.5823556,4312708433024000,4.2350574,Car
Fix,FLP,37.3902665,-122.0927917,-0.3999999463558197,17.026077,5.782,301.9676,1675958197818,0.48141256,1.5823556,4312708433024000,1.9936463,Car
Fix,GPS,37.3903455974,-122.0929555853,0.5829009638916427,16.944918,5.7687035,302.02594,1675958195999,0.47292536,1.5618087,4312709433038000,4.242259,Car
Fix,FLP,37.3903468,-122.0929553,-0.3999999463558197,16.959717,5.768,301.9927,1675958198818,0.47292536,1.5618087,4312709433038000,2.0036263,Car
Fix,GPS,37.3904247339,-122.0931199091,0.5190852920404089,16.913584,5.818811,301.72232,1675958196999,0.51918375,1.6767989,4312710433072000,4.2840476,Car
Fix,FLP,37.3904262,-122.093119,-0.3999999463558197,16.921955,5.768,301.20468,1675958199817,0.51918375,1.6767989,4312710433072000,2.0136364,Car
Fix,GPS,37.3905031698,-122.0932806586,0.39468243400324,16.87768,5.7655544,302.07623,1675958197999,0.4789115,1.5469991,4312711433358000,4.3156457,Car
Fix,FLP,37.3905045,-122.0932819,-0.3999999463558197,16.885561,5.775,301.85657,1675958200817,0.4789115,1.5469991,4312711433358000,2.0236263,Car
Fix,GPS,37.3905824244,-122.093436986,0.0665353371813885,16.671099,5.710662,303.06857,1675958198999,0.47869936,1.6148388,4312712433137000,4.332206,Car
Fix,FLP,37.3905833,-122.0934398,-0.3999999463558197,16.67333,5.771,302.98773,1675958201818,0.47869936,1.6148388,4312712433137000,2.0338933,Car
Fix,NLP,37.3905679,-122.0933679,-1.1999999284744265,,30.202,,1675958201602,,,4312712218000000,1.0,Car
Fix,GPS,37.3906646367,-122.0935890721,0.0363284326184643,16.271585,5.6834116,304.59644,1675958199999,0.48932168,1.6909904,4312713433084000,4.3724294,Car
Fix,FLP,37.390671,-122.0936045,-1.1999999284744265,16.27513,5.743,303.99054,1675958202817,0.48932168,1.6909904,4312713433084000,1.507248,Car
Fix,GPS,37.3907456791,-122.093736067,0.3508032793746403,15.938944,5.6740675,304.85916,1675958200999,0.47135735,1.6585598,4312714433137000,4.3960304,Car
Fix,FLP,37.3907483,-122.0937438,-1.1999999284744265,15.942273,5.727,303.9999,1675958203818,0.47135735,1.6585598,4312714433137000,1.5396582,Car
Fix,GPS,37.390825466,-122.0938777653,0.9332919689845932,15.327944,5.70361,305.85742,1675958201999,0.4892866,1.7927812,4312715433152000,4.430571,Car
Fix,FLP,37.3908266,-122.0938835,-1.1999999284744265,15.334659,5.708,304.9885,1675958204818,0.4892866,1.7927812,4312715433152000,1.5942609,Car
Fix,GPS,37.3909140561,-122.094014011,0.2362934818837714,14.861409,5.86137,309.12424,1675958202999,0.47104838,1.7198812,4312716433205000,4.4480577,Car
Fix,FLP,37.390911,-122.0940184,-1.1999999284744265,14.865842,5.73,308.95926,1675958205818,0.47104838,1.7198812,4312716433205000,1.6134287,Car
Fix,GPS,37.3910013394,-122.0941353777,-0.1286670039931738,14.672498,5.8149056,311.64395,1675958203999,0.42102754,1.5778917,4312717433237000,4.4553313,Car
Fix,FLP,37.390999,-122.0941405,-1.1999999284744265,14.673982,5.747,310.98358,1675958206817,0.42102754,1.5778917,4312717433237000,1.6234187,Car
Fix,GPS,37.3910934803,-122.0942554968,-0.0595663088493231,14.555374,5.7497644,312.95462,1675958204999,0.42163098,1.5872928,4312718433208000,4.4312453,Car
Fix,FLP,37.3910906,-122.0942593,-1.1999999284744265,14.556317,5.76,311.9919,1675958207818,0.42163098,1.5872928,4312718433208000,1.6325772,Car
Fix,GPS,37.3911864024,-122.0943708301,0.1358796469759065,14.456453,5.750096,312.9124,1675958205999,0.44217816,1.6747386,4312719433196000,4.4188232,Car
Fix,FLP,37.3911834,-122.0943748,-1.1999999284744265,14.457332,5.776,312.00012,1675958208817,0.44217816,1.6747386,4312719433196000,1.6425686,Car
Fix,GPS,37.3912807309,-122.0944819364,-0.1030934925534318,14.42445,5.716655,314.1421,1675958206999,0.46356001,1.711931,4312720433207000,4.428371,Car
Fix,FLP,37.391277,-122.0944872,-1.1999999284744265,14.424684,5.778,313.98135,1675958209818,0.46356001,1.711931,4312720433207000,1.6525686,Car
Fix,GPS,37.3913788363,-122.0945982504,-0.9187703029900136,14.634652,5.726205,316.44028,1675958207999,0.4546167,1.6609234,4312721433190000,4.427316,Car
Fix,FLP,37.3913746,-122.0946007,-1.1999999284744265,14.6326685,5.769,315.98206,1675958210818,0.4546167,1.6609234,4312721433190000,1.6625245,Car
Fix,GPS,37.3914809969,-122.0947120401,-1.24593644226385,15.174397,5.6644187,318.35168,1675958208999,0.44758856,1.5953089,4312722433227000,4.4150963,Car
Fix,FLP,37.3914768,-122.0947134,-1.1999999284744265,15.169474,5.737,317.98267,1675958211818,0.44758856,1.5953089,4312722433227000,1.6962788,Car
Fix,GPS,37.3915900015,-122.0948288841,-1.294902885472499,15.528395,5.58311,319.25345,1675958209999,0.42650622,1.5008854,4312723433232000,4.361731,Car
Fix,FLP,37.3915858,-122.0948287,-1.1999999284744265,15.525453,5.688,318.9919,1675958212818,0.42650622,1.5008854,4312723433232000,1.6825244,Car
Fix,GPS,37.3917026505,-122.094945844,-1.311215574685603,15.809317,5.6637316,320.4917,1675958210999,0.4338241,1.4898778,4312724433352000,4.3417716,Car
Fix,FLP,37.3916986,-122.0949452,-1.1999999284744265,15.806915,5.67,319.99167,1675958213818,0.4338241,1.4898778,4312724433352000,1.6925244,Car
Fix,GPS,37.3918182259,-122.0950600477,-1.501102438824091,16.043697,5.548731,322.47232,1675958211999,0.45842993,1.5545496,4312725433310000,4.3231025,Car
Fix,FLP,37.3918144,-122.0950601,-1.1999999284744265,16.041344,5.637,321.98138,1675958214818,0.45842993,1.5545496,4312725433310000,1.7025602,Car
Fix,GPS,37.3919367855,-122.095169623,-1.8056194048323573,16.197691,5.441289,322.9377,1675958212999,0.46096012,1.5492992,4312726433572000,4.3204937,Car
Fix,FLP,37.3919338,-122.0951704,-1.1999999284744265,16.196228,5.58,321.9999,1675958215818,0.46096012,1.5492992,4312726433572000,1.7125602,Car
Fix,GPS,37.3920578748,-122.0952804156,-2.0058249178280936,16.19198,5.462545,323.0476,1675958213999,0.45585537,1.5336887,4312727433335000,4.3281803,Car
Fix,FLP,37.3920547,-122.0952814,-1.1999999284744265,16.191998,5.54,322.99084,1675958216818,0.45585537,1.5336887,4312727433335000,1.7225538,Car
Fix,GPS,37.3921755659,-122.0953887395,-1.9603655903337127,16.10788,5.3736634,322.51108,1675958214999,0.45750323,1.5458875,4312728433348000,4.3417377,Car
Fix,FLP,37.392174,-122.0953898,-1.1999999284744265,16.108692,5.498,322.00946,1675958217818,0.45750323,1.5458875,4312728433348000,1.7325538,Car
