Fix,Provider,LatitudeDegrees,LongitudeDegrees,AltitudeMeters,SpeedMps,AccuracyMeters,BearingDegrees,UnixTimeMillis,SpeedAccuracyMps,BearingAccuracyDegrees,elapsedRealtimeNanos,VerticalAccuracyMeters,TransitType
Fix,GPS,37.3887675935,-122.08559441,-27.075439106445828,2.3975208,11.097709,264.4614,1677169172908,0.76339364,180.0,603970379947385,8.462771,Car
Fix,FLP,37.3887611,-122.0855962,-2.5,2.7259312,11.288,299.72687,1677169175022,0.76339364,180.0,603970379947385,1.0699013,Car
Fix,NLP,37.3884989,-122.0855967,-2.400000095367432,,15.572,,1677169175075,,,603970432000000,1.0,Car
Fix,GPS,37.3887053057,-122.0856542962,-24.37459973219969,2.8010008,19.631613,237.69275,1677169173845,0.70102453,180.0,603971465733030,23.592749,Car
Fix,FLP,37.3887556,-122.0856201,-2.400000095367432,2.4528418,13.569,256.67358,1677169176108,0.70102453,180.0,603971465733030,0.98475695,Car
Fix,GPS,37.3886631819,-122.0856970628,-23.424933749736013,3.4561944,21.59003,229.0094,1677169174843,0.78585726,180.0,603972473414874,25.94784,Car
Fix,FLP,37.3887216,-122.0856582,-2.400000095367432,3.262286,15.173,233.3602,1677169177116,0.78585726,180.0,603972473414874,0.99518764,Car
Fix,GPS,37.3886302653,-122.0857084953,-22.305472635521586,3.8722534,23.018837,211.27986,1677169175880,0.7491648,180.0,603973457511961,15.731834,Car
Fix,FLP,37.3886765,-122.0856922,-2.400000095367432,4.0270996,16.481,219.61877,1677169178100,0.7491648,180.0,603973457511961,1.004941,Car
Fix,GPS,37.388599168,-122.0857226664,-21.22635808641188,4.454156,19.793564,210.11015,1677169176868,0.8004164,180.0,603974478921304,16.621319,Car
Fix,FLP,37.3886259,-122.0857218,-2.400000095367432,4.515348,16.954,213.58258,1677169179121,0.8004164,180.0,603974478921304,1.0148453,Car
Fix,GPS,37.3885640085,-122.0857493284,-21.37947237996538,5.6372967,18.620396,209.15685,1677169177751,0.9295148,180.0,603975469373697,39.690784,Car
Fix,FLP,37.3885782,-122.0857498,-2.400000095367432,5.0702295,19.071,209.92345,1677169180112,0.9295148,180.0,603975469373697,1.0248452,Car
Fix,NLP,37.3883533,-122.0856802,-1.0000001192092896,,14.297,,1677169180089,,,603975446000000,1.0,Car
Fix,GPS,37.3884781365,-122.0857866607,-17.441778467286372,6.138849,19.151983,210.39679,1677169178751,0.44690222,10.0,603976469043457,25.8545,Car
Fix,FLP,37.3885111,-122.0857851,-1.0000001192092896,6.1333127,20.132,209.9427,1677169181112,0.44690222,10.0,603976469043457,0.9870347,Car
Fix,GPS,37.3883973375,-122.0858545655,-14.11890297443085,6.208292,15.592778,211.62138,1677169179751,0.40716636,10.0,603977467355754,20.531174,Car
Fix,FLP,37.3884374,-122.085834,-1.0000001192092896,6.2062836,19.484,210.9624,1677169182110,0.40716636,10.0,603977467355754,0.9972855,Car
Fix,GPS,37.3883304839,-122.0859078315,-13.33475545089323,5.930215,13.679134,212.25221,1677169180999,0.43265724,10.0,603978689532553,18.13189,Car
Fix,FLP,37.3883581,-122.0858912,-1.0000001192092896,5.9357343,17.576,211.99092,1677169183332,0.43265724,10.0,603978689532553,1.0100255,Car
Fix,GPS,37.3882834164,-122.0859503931,-12.421536177656323,5.237221,12.212151,213.63281,1677169181999,0.42708284,10.0,603979705753013,16.506557,Car
Fix,FLP,37.3882995,-122.0859376,-1.0000001192092896,5.2513747,16.312,213.01314,1677169184348,0.42708284,10.0,603979705753013,1.0194148,Car
Fix,NLP,37.3881526,-122.0859038,-1.5000001192092896,,22.14,,1677169185135,,,603980492000000,1.0,Car
Fix,FLP,37.3882707,-122.085961,-1.5000001192092896,5.248632,16.613,213.0047,1677169185135,0.42708284,10.0,603980492000000,0.9653983,Car
Fix,GPS,37.3882431219,-122.0859889576,-11.673909036130173,4.8345194,11.076905,216.72638,1677169182999,0.5800438,10.0,603980634366000,15.129868,Car
Fix,FLP,37.3882565,-122.0859752,-1.5000001192092896,4.846419,15.691,215.93158,1677169185277,0.5800438,10.0,603980634366000,0.9669983,Car
Fix,GPS,37.3882126293,-122.0860212486,-10.80884618235016,3.6983447,10.391622,225.55473,1677169183999,0.52480733,10.0,603981634385000,14.155657,Car
Fix,FLP,37.3882175,-122.0860136,-1.5000001192092896,3.7159393,14.231,224.8116,1677169186276,0.52480733,10.0,603981634385000,0.97659856,Car
Fix,GPS,37.3881914761,-122.086052762,-10.75875223349061,3.407364,9.361322,230.862,1677169184999,0.48026943,10.0,603982634545000,12.72753,Car
Fix,FLP,37.3881927,-122.0860479,-1.5000001192092896,3.4115536,13.192,229.92053,1677169187277,0.48026943,10.0,603982634545000,0.986754,Car
Fix,GPS,37.3881778943,-122.0860825302,-11.316644478272352,3.6426477,8.931717,239.59172,1677169185999,0.44622794,10.0,603983634444000,12.143331,Car
Fix,FLP,37.3881754,-122.08608,-1.5000001192092896,3.640128,12.583,238.88081,1677169188277,0.44622794,10.0,603983634444000,0.9970973,Car
Fix,GPS,37.3881646833,-122.0861209581,-11.45860385720192,3.895876,8.54923,250.3399,1677169186999,0.46056917,10.0,603984634453000,11.669214,Car
Fix,FLP,37.3881617,-122.0861183,-1.5000001192092896,3.8938558,11.85,249.81767,1677169189277,0.46056917,10.0,603984634453000,1.0070504,Car
Fix,GPS,37.3881598292,-122.0861691446,-11.74687058190636,4.1457705,8.368782,278.65454,1677169187999,0.39312455,10.0,603985634469000,11.212615,Car
Fix,FLP,37.388155,-122.0861645,-1.5000001192092896,4.136304,9.12,277.3831,1677169190277,0.39312455,10.0,603985634469000,1.0170304,Car
Fix,GPS,37.3881685363,-122.0862195894,-12.237756879828083,4.3423123,8.133084,287.5111,1677169188999,0.40441704,10.0,603986634504000,10.695356,Car
Fix,FLP,37.3881644,-122.0862155,-1.5000001192092896,4.336639,8.668,286.77396,1677169191277,0.40441704,10.0,603986634504000,1.0270604,Car
Fix,GPS,37.3881860411,-122.0862727139,-12.77130034958491,4.872258,8.0762825,296.49503,1677169189999,0.39922974,10.0,603987634498000,10.331924,Car
Fix,NLP,37.3881472,-122.0862774,-0.8000000715255737,,17.733,,1677169192305,,,603987662000000,1.0,Car
Fix,FLP,37.3881812,-122.0862678,-1.5000001192092896,4.859023,8.57,295.75485,1677169192277,0.39922974,10.0,603987634498000,1.0370604,Car
Fix,GPS,37.388208839,-122.0863264406,-12.469513250164583,5.5075097,37.557743,298.1186,1677169190999,1.0264777,10.0,603988634528000,10.257888,Car
Fix,FLP,37.3882021,-122.0863191,-0.8000000715255737,5.478153,13.186,297.9246,1677169193277,1.0264777,10.0,603988634528000,0.97178173,Car
Fix,GPS,37.388235833,-122.086385168,-12.948455746454467,5.414633,8.41734,297.146,1677169191999,0.55282503,10.0,603989634549000,9.993723,Car
Fix,FLP,37.3882313,-122.0863804,-0.8000000715255737,5.417057,13.164,297.037,1677169194277,0.55282503,10.0,603989634549000,0.98156637,Car
Fix,GPS,37.3882556998,-122.0864441081,-13.384423254125098,4.699859,9.238202,281.4336,1677169192999,0.498275,10.0,603990634503000,9.569141,Car
Fix,FLP,37.3882543,-122.0864393,-0.8000000715255737,4.7115498,13.309,281.54852,1677169195277,0.498275,10.0,603990634503000,0.99152464,Car
Fix,GPS,37.3882584458,-122.0865054696,-12.5561555006333,4.188142,7.8255343,261.38184,1677169193999,0.46632826,10.0,603991634902000,9.185504,Car
Fix,FLP,37.3882601,-122.0864993,-0.8000000715255737,4.18741,13.258,261.5273,1677169196277,0.46632826,10.0,603991634902000,1.0014924,Car
Fix,GPS,37.3882468101,-122.0865615787,-12.156068965874626,4.0478716,7.531045,249.52689,1677169194999,0.49245134,10.0,603992634625000,8.761667,Car
Fix,FLP,37.3882502,-122.0865547,-0.8000000715255737,4.046023,13.167,249.258,1677169197277,0.49245134,10.0,603992634625000,1.0114924,Car
Fix,GPS,37.3882228958,-122.0866035282,-12.630477696982192,3.6462865,7.2767277,226.48344,1677169195999,0.48521122,10.0,603993634621000,8.381176,Car
Fix,FLP,37.3882353,-122.0865875,-0.8000000715255737,3.6791322,7.907,230.08263,1677169198277,0.48521122,10.0,603993634621000,1.0214823,Car
Fix,GPS,37.3881931435,-122.0866283699,-13.551873581169597,4.250493,7.145459,217.33263,1677169196999,0.47103748,10.0,603994634629000,8.173268,Car
Fix,FLP,37.3882032,-122.0866241,-0.8000000715255737,4.2407885,7.725,217.19017,1677169199277,0.47103748,10.0,603994634629000,1.0314823,Car
Fix,GPS,37.3881536857,-122.0866583572,-13.54549545159786,5.0863338,7.035301,210.64732,1677169197999,0.4772623,10.0,603995634868000,7.9649887,Car
Fix,FLP,37.3881621,-122.0866561,-0.8000000715255737,5.071707,7.41,210.10484,1677169200277,0.4772623,10.0,603995634868000,1.0415124,Car
Fix,GPS,37.3881052839,-122.0866914435,-13.531154795693528,5.6929035,6.8986235,206.87692,1677169198999,0.44329977,10.0,603996634646000,7.7683783,Car
Fix,FLP,37.3881126,-122.0866886,-0.8000000715255737,5.6834083,7.346,206.07016,1677169201277,0.44329977,10.0,603996634646000,1.0514823,Car
Fix,GPS,37.3880499234,-122.0867268284,-12.86481451786278,6.589732,6.7164135,208.51152,1677169199999,0.4507423,10.0,603997634814000,7.580978,Car
Fix,FLP,37.3880568,-122.0867229,-0.8000000715255737,6.5639205,7.162,207.84706,1677169202277,0.4507423,10.0,603997634814000,1.0614923,Car
Fix,GPS,37.3879905131,-122.0867661765,-12.247748017284476,7.079024,6.606944,207.21709,1677169200999,0.46858963,10.0,603998634629000,7.440746,Car
Fix,FLP,37.3879975,-122.0867619,-0.8000000715255737,6.9326143,6.88,207.13531,1677169203277,0.46858963,10.0,603998634629000,1.0714823,Car
Fix,GPS,37.387927275,-122.0868049969,-11.94094735153863,7.2654195,6.5482163,207.3782,1677169201999,0.49232832,10.0,603999634860000,7.4114985,Car
Fix,FLP,37.3879356,-122.0868011,-0.8000000715255737,7.160968,6.761,206.93112,1677169204277,0.49232832,10.0,603999634860000,1.0815223,Car
Fix,GPS,37.3878616228,-122.0868433022,-11.554158596115684,7.394075,6.5762987,206.31023,1677169202999,0.5269558,10.0,604000634726000,7.430571,Car
Fix,FLP,37.3878713,-122.08684,-0.8000000715255737,7.3294487,6.73,206.3172,1677169205277,0.5269558,10.0,604000634726000,1.0914923,Car
Fix,GPS,37.3877932915,-122.0868814645,-10.720277301238218,7.3247085,6.882262,206.7467,1677169203999,0.41528594,10.0,604001634907000,7.468701,Car
Fix,FLP,37.3878053,-122.0868785,-0.8000000715255737,7.339286,6.665,206.15495,1677169206277,0.41528594,10.0,604001634907000,1.1015223,Car
Fix,GPS,37.3877262742,-122.0869170796,-9.2068030600394,6.632764,7.073059,208.64386,1677169204999,0.3944356,10.0,604002634773000,7.4554706,Car
Fix,FLP,37.3877402,-122.0869155,-0.8000000715255737,6.8402905,6.733,207.5834,1677169207276,0.3944356,10.0,604002634773000,1.1115023,Car
Fix,GPS,37.3876690186,-122.086951344,-7.806208671772865,5.2984567,7.2293744,213.1654,1677169205999,0.40114293,10.0,604003634755000,7.423175,Car
Fix,FLP,37.3876824,-122.0869505,-0.8000000715255737,5.694982,6.861,211.49524,1677169208277,0.40114293,10.0,604003634755000,1.1215123,Car
Fix,GPS,37.3876321112,-122.0869848077,-6.637054879288136,3.576835,6.8346834,224.4358,1677169206999,0.04643357,10.0,604004634736000,7.0197244,Car
Fix,FLP,37.3876397,-122.0869829,-0.8000000715255737,3.8789203,6.857,221.19109,1677169209277,0.04643357,10.0,604004634736000,1.1314723,Car
Fix,GPS,37.3876083164,-122.0870078298,-5.89690738984339,2.1337304,6.4342937,229.08203,1677169207999,0.029480781,10.0,604005634842000,6.786126,Car
Fix,FLP,37.3876129,-122.0870088,-0.8000000715255737,2.2529876,6.89,227.67265,1677169210277,0.029480781,10.0,604005634842000,1.1472363,Car
Fix,GPS,37.3875962472,-122.0870235806,-4.952858205164684,1.7827727,6.1519623,234.09471,1677169208999,0.03222867,10.0,604006634806000,6.581935,Car
Fix,FLP,37.3875983,-122.0870259,-0.8000000715255737,1.8088181,6.767,233.33345,1677169211277,0.03222867,10.0,604006634806000,1.1514723,Car
Fix,GPS,37.387589608,-122.0870497576,-4.347326796037403,2.4032335,5.9678893,254.2826,1677169209999,0.060438935,10.0,604007634755000,6.4366875,Car
Fix,FLP,37.3875891,-122.0870456,-0.8000000715255737,2.4062889,6.615,252.35342,1677169212277,0.060438935,10.0,604007634755000,1.1609024,Car
Fix,GPS,37.3875853919,-122.0870994149,-3.2585278547768635,4.2723136,5.7378106,274.11694,1677169210999,0.07886785,10.0,604008634768000,6.238128,Car
Fix,FLP,37.3875843,-122.0870835,-0.8000000715255737,4.2413526,6.225,268.85028,1677169213277,0.07886785,10.0,604008634768000,1.1712923,Car
Fix,GPS,37.3876045433,-122.0871683572,-3.19213834105328,6.3837633,5.534162,292.28195,1677169211999,0.061258897,10.0,604009634830000,6.0662932,Car
Fix,FLP,37.3875948,-122.0871474,-0.8000000715255737,5.743167,5.965,282.13858,1677169214277,0.061258897,10.0,604009634830000,1.1809024,Car
Fix,GPS,37.3876312626,-122.0872517885,-2.9565058856877715,7.8829846,5.361442,296.52426,1677169212999,0.03709154,10.0,604010635093000,5.91238,Car
Fix,FLP,37.3876198,-122.08723,-0.8000000715255737,7.062262,5.75,288.95007,1677169215278,0.03709154,10.0,604010635093000,1.1912923,Car
Fix,GPS,37.3876685499,-122.0873456582,-2.89762623893166,9.408742,5.1267905,298.5331,1677169213999,0.029836966,10.0,604011635119000,5.718252,Car
Fix,FLP,37.3876564,-122.0873258,-0.8000000715255737,8.386912,5.545,292.7225,1677169216277,0.029836966,10.0,604011635119000,1.2017224,Car
Fix,GPS,37.3877129539,-122.0874504728,-2.579139294742732,10.650953,4.953992,300.32297,1677169214999,0.034105178,10.0,604012635138000,5.562013,Car
Fix,FLP,37.3877016,-122.0874327,-0.8000000715255737,9.558342,5.342,295.6184,1677169217278,0.034105178,10.0,604012635138000,1.2113123,Car
Fix,GPS,37.3877667728,-122.0875635613,-2.806618593583922,11.708994,4.7408648,301.74472,1677169215999,0.054077625,10.0,604013634886000,5.414084,Car
Fix,FLP,37.387755,-122.087548,-0.8000000715255737,10.627685,5.143,297.64203,1677169218276,0.054077625,10.0,604013634886000,1.2243093,Car
Fix,GPS,37.3878235474,-122.0876850681,-2.926767787858489,12.432508,4.566638,301.67014,1677169216999,0.05199331,10.0,604014635165000,5.258705,Car
Fix,FLP,37.3878133,-122.0876711,-0.8000000715255737,11.531085,4.95,298.78064,1677169219278,0.05199331,10.0,604014635165000,1.2338893,Car
Fix,GPS,37.3878807264,-122.0878101064,-2.7301147404550066,12.840963,4.566998,302.0248,1677169217999,0.026674809,10.0,604015635342000,5.108594,Car
Fix,FLP,37.3878737,-122.0877986,-0.8000000715255737,12.163571,4.791,299.93533,1677169220278,0.026674809,10.0,604015635342000,1.2413869,Car
Fix,GPS,37.3879396899,-122.0879396399,-2.903389710144,13.264169,4.1516023,302.00598,1677169218999,0.021890147,10.0,604016635272000,4.956404,Car
Fix,FLP,37.3879354,-122.0879296,-0.8000000715255737,12.691717,4.596,300.5414,1677169221278,0.021890147,10.0,604016635272000,1.2509868,Car
Fix,GPS,37.3880020508,-122.0880692043,-2.862305638846008,13.532062,4.0290885,302.1163,1677169219999,0.04005216,10.0,604017635056000,4.81925,Car
Fix,FLP,37.3879988,-122.088062,-0.8000000715255737,13.093513,4.501,300.952,1677169222278,0.04005216,10.0,604017635056000,1.2612382,Car
Fix,GPS,37.3880661118,-122.0882018743,-3.002931326287382,13.78946,4.029103,302.04788,1677169220999,0.02216944,10.0,604018634966000,4.6558256,Car
Fix,FLP,37.3880636,-122.0881962,-0.8000000715255737,13.42396,4.268,301.2172,1677169223277,0.02216944,10.0,604018634966000,1.2725977,Car
Fix,GPS,37.3881312832,-122.0883387966,-3.034909718573843,14.2215605,4.029117,301.87393,1677169221999,0.020679839,10.0,604019635158000,4.5114546,Car
Fix,FLP,37.3881293,-122.0883337,-0.8000000715255737,13.815375,4.228,300.9303,1677169224277,0.020679839,10.0,604019635158000,1.2825876,Car
Fix,GPS,37.3881983405,-122.0884800996,-3.03942238933976,14.686749,4.029132,302.12772,1677169222999,0.021383414,10.0,604020634997000,4.3587937,Car
Fix,FLP,37.3881967,-122.0884749,-0.8000000715255737,14.196505,4.139,301.11905,1677169225277,0.021383414,10.0,604020634997000,1.2925676,Car
Fix,GPS,37.3882687,-122.0886272575,-3.1091891689525704,15.093408,4.029146,301.9261,1677169223999,0.05150698,10.0,604021635009000,4.2539315,Car
Fix,FLP,37.3882664,-122.0886212,-0.8000000715255737,14.622205,4.049,300.86963,1677169226278,0.05150698,10.0,604021635009000,1.3025776,Car
Fix,GPS,37.3883403718,-122.0887748023,-3.231667765044852,15.365861,4.279189,302.22424,1677169224999,0.3568793,10.0,604022635277000,4.339067,Car
Fix,FLP,37.3883381,-122.0887698,-0.8000000715255737,14.941649,4.079,301.15363,1677169227278,0.3568793,10.0,604022635277000,1.3126576,Car
Fix,NLP,37.3880388,-122.088752,-0.3000000417232513,,54.23,,1677169227324,,,604022681000000,2.299716,Car
Fix,GPS,37.3884167755,-122.0889274349,-3.28577124583752,15.718271,4.1518207,301.80298,1677169225999,0.041605495,1.0,604023635045000,4.244667,Car
Fix,FLP,37.388413,-122.0889227,-0.3000000417232513,15.707642,4.231,300.9924,1677169228278,0.041605495,1.0,604023635045000,1.6515323,Car
Fix,GPS,37.3884925679,-122.0890809051,-3.577705346784489,15.945952,4.3093505,301.9839,1677169226999,0.030279603,1.0,604024635316000,4.1575503,Car
Fix,FLP,37.3884889,-122.0890778,-0.3000000417232513,15.937583,4.278,300.98587,1677169229278,0.030279603,1.0,604024635316000,1.6597812,Car
Fix,GPS,37.3885663943,-122.0892353663,-3.5225563027731805,16.185501,3.9153888,301.46075,1677169227999,0.038158953,1.0,604025635080000,4.0773153,Car
Fix,FLP,37.3885644,-122.0892338,-0.3000000417232513,16.176336,4.259,300.98447,1677169230277,0.038158953,1.0,604025635080000,1.6505754,Car
Fix,GPS,37.3886422202,-122.0893929135,-3.4415050275369627,16.276247,3.9152865,301.79083,1677169228999,0.030531518,1.0,604026635558000,4.003446,Car
Fix,FLP,37.3886407,-122.0893919,-0.3000000417232513,16.272528,4.24,300.99323,1677169231278,0.030531518,1.0,604026635558000,1.6671534,Car
Fix,GPS,37.3887185003,-122.089549797,-3.3944521885244967,16.408268,3.915185,301.95316,1677169229999,0.021056043,1.0,604027635282000,3.9173465,Car
Fix,FLP,37.3887172,-122.0895498,-0.3000000417232513,16.40323,4.179,300.9914,1677169232278,0.021056043,1.0,604027635282000,1.6771334,Car
Fix,GPS,37.3887964929,-122.0897072306,-3.2882940747815708,16.49376,3.9150834,302.1276,1677169230999,0.02102661,1.0,604028635113000,3.8437757,Car
Fix,FLP,37.3887948,-122.0897082,-0.3000000417232513,16.485317,3.993,301.93933,1677169233277,0.02102661,1.0,604028635113000,1.4347643,Car
Fix,GPS,37.3888753301,-122.0898654532,-3.2833857470376864,16.498184,4.312622,302.0146,1677169231999,0.47275907,1.6016334,604029635141000,3.917442,Car
Fix,FLP,37.3888742,-122.0898661,-0.3000000417232513,16.495607,4.047,301.9882,1677169234277,0.47275907,1.6016334,604029635141000,1.4447242,Car
Fix,GPS,37.388954435,-122.0900235285,-3.354058974666799,16.576603,4.90803,301.77933,1677169232999,0.49810284,1.6816227,604030635150000,4.0477877,Car
Fix,FLP,37.3889534,-122.0900243,-0.3000000417232513,16.559462,4.193,301.1988,1677169235278,0.49810284,1.6816227,604030635150000,1.4537442,Car
Fix,GPS,37.3890321651,-122.0901821746,-3.338069918344176,16.600794,5.381809,302.33014,1677169233999,0.50219285,1.6921139,604031635408000,4.225805,Car
Fix,FLP,37.3890315,-122.0901836,-0.3000000417232513,16.592325,4.391,301.84244,1677169236278,0.50219285,1.6921139,604031635408000,1.4637542,Car
Fix,GPS,37.3891101503,-122.0903397309,-3.3342549478667824,16.552969,5.6847086,302.685,1677169234999,0.49411353,1.6756372,604032635176000,4.4014406,Car
Fix,FLP,37.3891102,-122.0903411,-0.3000000417232513,16.553398,4.686,301.99826,1677169237278,0.49411353,1.6756372,604032635176000,1.4737443,Car
Fix,GPS,37.389188888,-122.0904963857,-3.2169283926373407,16.440804,5.8420534,302.21796,1677169235999,0.4944526,1.6906676,604033635182000,4.6033463,Car
Fix,FLP,37.389189,-122.0904978,-0.3000000417232513,16.442059,5.226,301.99997,1677169238278,0.4944526,1.6906676,604033635182000,1.4837443,Car
Fix,GPS,37.3892677932,-122.0906550787,-3.220269392789337,16.479584,5.946027,301.93073,1677169236999,0.4853426,1.6707991,604034635211000,4.759795,Car
Fix,FLP,37.3892676,-122.0906553,-0.3000000417232513,16.47913,5.552,301.01096,1677169239277,0.4853426,1.6707991,604034635211000,1.4947642,Car
Fix,GPS,37.3893487518,-122.0908172753,-3.1594058235539486,16.568928,6.0800495,301.91208,1677169237999,0.5005351,1.7130569,604035635273000,4.914909,Car
Fix,FLP,37.389347,-122.0908165,-0.3000000417232513,16.567905,5.787,301.0002,1677169240278,0.5005351,1.7130569,604035635273000,1.5047342,Car
Fix,GPS,37.389432635,-122.0909848192,-3.199100789715916,16.761652,6.1471386,301.7215,1677169238999,0.5033917,1.7022862,604036635397000,5.0658207,Car
Fix,FLP,37.3894291,-122.0909819,-0.3000000417232513,16.759438,5.847,301.00015,1677169241278,0.5033917,1.7022862,604036635397000,1.5146158,Car
Fix,GPS,37.3895187995,-122.0911585983,-3.593063800981473,16.912455,6.2112684,301.8712,1677169239999,0.51481324,1.711604,604037635286000,5.2380815,Car
Fix,FLP,37.3895141,-122.0911531,-0.3000000417232513,16.910702,6.045,301.00015,1677169242278,0.51481324,1.711604,604037635286000,1.5246158,Car
Fix,GPS,37.3896027244,-122.0913292804,-3.835878109514342,17.08764,6.2082443,301.681,1677169240999,0.50597227,1.656122,604038635583000,5.348648,Car
Fix,FLP,37.3895987,-122.0913246,-0.3000000417232513,17.085659,6.118,301.00015,1677169243278,0.50597227,1.656122,604038635583000,1.5346057,Car
Fix,GPS,37.3896841258,-122.0914956544,-3.912188723941676,17.181726,6.202831,302.1882,1677169241999,0.50000286,1.625487,604039635517000,5.430009,Car
Fix,FLP,37.3896817,-122.0914936,-0.3000000417232513,17.180674,6.169,301.98877,1677169244278,0.50000286,1.625487,604039635517000,1.5446057,Car
Fix,GPS,37.3897645919,-122.0916599165,-4.1722128640203096,17.057302,6.353712,302.132,1677169242999,0.513695,1.6921664,604040635332000,5.5317388,Car
Fix,FLP,37.3897642,-122.0916594,-0.3000000417232513,17.058819,6.224,301.99985,1677169245278,0.513695,1.6921664,604040635332000,1.8071535,Car
Fix,GPS,37.3898448064,-122.0918290471,-4.31220775338194,17.034279,6.2947025,301.9056,1677169243999,0.50595963,1.681801,604041635390000,5.608937,Car
Fix,FLP,37.3898451,-122.0918267,-0.3000000417232513,17.034552,6.236,301.01178,1677169246278,0.50595963,1.681801,604041635390000,1.8171234,Car
Fix,GPS,37.3899266106,-122.0919973034,-4.215226252154083,16.989683,6.2143545,301.82895,1677169244999,0.50192744,1.6739305,604042635357000,5.685134,Car
Fix,FLP,37.3899256,-122.0919953,-0.3000000417232513,16.990246,6.254,301.00012,1677169247278,0.50192744,1.6739305,604042635357000,1.8271034,Car
Fix,GPS,37.3900069785,-122.09216471,-4.472218453448473,16.973345,6.1784377,301.6761,1677169245999,0.50878334,1.687852,604043635369000,5.696281,Car
Fix,FLP,37.390006,-122.0921629,-0.3000000417232513,16.973581,6.242,301.0,1677169248278,0.50878334,1.687852,604043635369000,1.8371134,Car
Fix,GPS,37.3900878334,-122.0923297465,-4.918978613769564,17.006445,6.3620663,301.38297,1677169246999,0.5077391,1.6836245,604044635314000,5.732933,Car
Fix,FLP,37.3900865,-122.0923289,-0.3000000417232513,17.006075,6.267,301.00006,1677169249278,0.5077391,1.6836245,604044635314000,1.8460934,Car
Fix,GPS,37.3901678292,-122.0924949783,-5.111225935760172,17.00901,6.348469,301.66785,1677169247999,0.50766176,1.6913297,604045635412000,5.814034,Car
Fix,FLP,37.3901668,-122.0924946,-0.3000000417232513,17.00899,6.279,301.00003,1677169250278,0.50766176,1.6913297,604045635412000,1.8571134,Car
Fix,GPS,37.3902481332,-122.0926561942,-5.462575226793445,17.065191,6.3434114,301.99246,1677169248999,0.51703,1.7041826,604046635448000,5.8208914,Car
Fix,FLP,37.3902471,-122.0926576,-0.3000000417232513,17.064487,6.289,301.00012,1677169251278,0.51703,1.7041826,604046635448000,1.8671134,Car
Fix,GPS,37.3903317848,-122.0928206263,-5.713006778097107,17.189785,6.4939423,302.35864,1677169249999,0.52577245,1.7188777,604047635725000,5.9035053,Car
Fix,FLP,37.3903295,-122.0928217,-0.3000000417232513,17.18819,6.345,301.9876,1677169252278,0.52577245,1.7188777,604047635725000,1.8771334,Car
Fix,GPS,37.3904160517,-122.0929809857,-5.143992052281007,17.40283,6.5148973,301.80014,1677169250999,0.530991,1.7383329,604048635484000,5.9788604,Car
Fix,FLP,37.3904142,-122.0929834,-0.3000000417232513,17.39995,6.412,301.013,1677169253278,0.530991,1.7383329,604048635484000,1.8871334,Car
Fix,GPS,37.3904989515,-122.0931440298,-4.545899142851368,17.26055,6.5563107,301.81177,1677169251999,0.6248943,1.9368598,604049635696000,6.071481,Car
Fix,FLP,37.3904973,-122.0931474,-0.3000000417232513,17.262915,6.451,301.00027,1677169254278,0.6248943,1.9368598,604049635696000,1.8961334,Car
Fix,GPS,37.3905813037,-122.0933038719,-4.383885686282862,17.232601,6.6053452,302.49716,1677169252999,0.5572105,1.7856042,604050635800000,6.20053,Car
Fix,FLP,37.3905797,-122.0933085,-0.3000000417232513,17.232979,6.502,301.98642,1677169255277,0.5572105,1.7856042,604050635800000,1.9061735,Car
Fix,GPS,37.3906628796,-122.0934655849,-3.9445876575411662,17.054716,6.6055355,303.46368,1677169253999,0.5141207,1.6882515,604051635482000,6.2259507,Car
Fix,FLP,37.3906624,-122.093469,-0.3000000417232513,17.056837,6.555,302.98773,1677169256278,0.5141207,1.6882515,604051635482000,1.7297355,Car
Fix,GPS,37.3907471832,-122.0936243341,-3.6131752882328896,16.959002,6.6608276,303.8525,1677169254999,0.51113003,1.6862874,604052635505000,6.323938,Car
Fix,FLP,37.3907467,-122.0936271,-0.3000000417232513,16.96015,6.572,302.9999,1677169257278,0.51113003,1.6862874,604052635505000,1.7342328,Car
Fix,GPS,37.3908325307,-122.0937814835,-2.8366856949822155,16.868992,6.7842307,305.60956,1677169255999,0.54214287,1.770024,604053635510000,6.4499884,Car
Fix,FLP,37.3908314,-122.0937843,-0.3000000417232513,16.870144,6.642,304.97357,1677169258277,0.54214287,1.770024,604053635510000,1.7442428,Car
Fix,GPS,37.390924066,-122.0939325238,-2.5862530038582845,16.837332,6.9586105,308.01447,1677169256999,0.60206413,1.8922651,604054635508000,6.6168656,Car
Fix,FLP,37.3909217,-122.0939361,-0.3000000417232513,16.837717,6.695,307.95294,1677169259278,0.60206413,1.8922651,604054635508000,1.7532228,Car
Fix,GPS,37.3910193421,-122.0940790661,-1.7457506762392576,16.857876,7.1108055,310.185,1677169257999,0.5864012,1.8846464,604055635845000,6.738687,Car
Fix,FLP,37.3910174,-122.0940824,-0.3000000417232513,16.857471,6.824,309.9693,1677169260278,0.5864012,1.8846464,604055635845000,1.7642127,Car
Fix,GPS,37.3911212382,-122.0942186001,-1.034426973050467,17.14794,7.359124,311.75925,1677169258999,0.57129854,1.8299831,604056635612000,6.9060807,Car
Fix,FLP,37.3911183,-122.0942232,-0.3000000417232513,17.143656,6.974,310.98563,1677169261278,0.57129854,1.8299831,604056635612000,1.7742327,Car
Fix,GPS,37.3912320569,-122.0943625376,-0.6283595671529442,17.426464,7.4515753,312.82666,1677169259999,0.5696348,1.7680128,604057635562000,7.055612,Car
Fix,FLP,37.3912264,-122.0943658,-0.3000000417232513,17.422432,7.133,311.98618,1677169262278,0.5696348,1.7680128,604057635562000,1.7842227,Car
Fix,GPS,37.391343082,-122.0945070554,-0.4081347252583629,17.48903,7.5782566,312.90305,1677169260999,0.6032603,1.8558979,604058635529000,7.1952624,Car
Fix,FLP,37.3913376,-122.0945096,-0.3000000417232513,17.488012,7.291,312.00018,1677169263278,0.6032603,1.8558979,604058635529000,1.7932428,Car
Fix,NLP,37.3912386,-122.0943609,-2.0,,22.05,,1677169262271,,,604057629000000,1.472114,Car
Fix,GPS,37.3914736051,-122.0946659311,-1.655455197300038,17.90096,7.0526233,315.45227,1677169261999,0.539676,1.6138982,604059635540000,7.193984,Car
Fix,FLP,37.3915005,-122.0947139,-2.0,17.897621,7.355,314.98135,1677169264278,0.539676,1.6138982,604059635540000,1.4454619,Car
Fix,GPS,37.3915976596,-122.0948061966,-2.831295669086465,18.220392,6.877214,317.65762,1677169262999,0.50435734,1.5204638,604060635586000,7.046009,Car
Fix,FLP,37.3916045,-122.094827,1.3813586272515082,18.216276,7.286,316.97763,1677169265277,0.50435734,1.5204638,604060635586000,1.45643,Car
Fix,GPS,37.3917235146,-122.0949368989,-4.205673416959559,17.983194,6.1588507,319.56427,1677169263999,0.43075877,1.3160497,604061635570000,6.6412635,Car
Fix,FLP,37.3917238,-122.0949483,1.7617959139182346,17.984943,7.15,318.98315,1677169266278,0.43075877,1.3160497,604061635570000,1.4660399,Car
Fix,GPS,37.391850222,-122.0950646441,-4.044055948965522,17.84443,6.243543,320.59857,1677169264999,0.4733343,1.4499961,604062635632000,6.5169206,Car
Fix,FLP,37.3918485,-122.0950714,1.8394438401274087,17.845774,6.782,319.9899,1677169267278,0.4733343,1.4499961,604062635632000,1.2626978,Car
Fix,GPS,37.3919802682,-122.0951865262,-3.865336311844916,18.034708,6.423208,322.90366,1677169265999,0.51317734,1.5605875,604063635633000,6.4817467,Car
Fix,FLP,37.3919767,-122.0951926,-0.3000000417232513,18.032255,6.551,321.97665,1677169268278,0.51317734,1.5605875,604063635633000,1.2727178,Car
Fix,GPS,37.3921120011,-122.0953033367,-3.9501814430759072,17.837328,6.5275116,323.63602,1677169266999,0.4949956,1.5273902,604064635814000,6.475053,Car
Fix,FLP,37.3921089,-122.0953095,-2.0,17.839417,6.446,322.98895,1677169269278,0.4949956,1.5273902,604064635814000,1.2816877,Car
Fix,GPS,37.3922427269,-122.0954174594,-4.154516229976895,17.629925,6.560642,323.31024,1677169267999,0.50997823,1.5830328,604065635678000,6.476513,Car
Fix,FLP,37.3922404,-122.0954231,-2.0,17.63237,6.383,323.0002,1677169270278,0.50997823,1.5830328,604065635678000,1.2916977,Car
Fix,GPS,37.3923718621,-122.0955326795,-4.64715059305384,17.554008,6.625005,323.53766,1677169268999,0.5219345,1.6260095,604066635691000,6.492715,Car
Fix,FLP,37.3923699,-122.0955371,-2.0,17.554962,6.476,323.00027,1677169271278,0.5219345,1.6260095,604066635691000,1.5927553,Car
Fix,GPS,37.3924987554,-122.0956458624,-4.830886022877074,17.492294,6.6421947,324.24933,1677169269999,0.5232158,1.6331767,604067635715000,6.528509,Car
Fix,FLP,37.3924977,-122.0956504,-2.0,17.492962,6.555,323.988,1677169272278,0.5232158,1.6331767,604067635715000,1.6027553,Car
Fix,GPS,37.3926285844,-122.0957582876,-5.156162653305802,17.33517,6.648717,324.9288,1677169270999,0.51305664,1.6140244,604068635713000,6.554251,Car
Fix,FLP,37.3926271,-122.0957619,-2.0,17.33703,6.601,324.00012,1677169273278,0.51305664,1.6140244,604068635713000,1.6127952,Car
Fix,GPS,37.3927579137,-122.0958665529,-5.37487855535266,17.097141,6.609877,325.23636,1677169271999,0.4990584,1.5883452,604069635714000,6.5548005,Car
Fix,FLP,37.392756,-122.095871,-2.0,17.099737,6.602,324.98914,1677169274278,0.4990584,1.5883452,604069635714000,1.6227453,Car
Fix,GPS,37.3928834508,-122.0959762728,-5.9399473754377645,16.85525,6.62617,324.2339,1677169272999,0.5170657,1.6652577,604070635767000,6.5928445,Car
Fix,FLP,37.3928829,-122.0959787,-2.0,16.858192,6.63,324.01215,1677169275278,0.5170657,1.6652577,604070635767000,1.6317652,Car
Fix,GPS,37.3930063289,-122.0960895354,-6.060004385558527,16.829098,6.6342688,322.27277,1677169273999,0.5097589,1.6397432,604071635792000,6.5278635,Car
Fix,FLP,37.393006,-122.0960901,-3.6407616186626406,16.829403,6.632,322.02325,1677169276278,0.5097589,1.6397432,604071635792000,1.6427553,Car
Fix,GPS,37.3931253657,-122.0962090177,-6.153070435377691,17.083916,6.6300173,320.21246,1677169274999,0.51921964,1.6630471,604072635970000,6.523398,Car
Fix,FLP,37.3931254,-122.0962084,-3.697489025167318,17.080767,6.629,320.024,1677169277278,0.51921964,1.6630471,604072635970000,1.6527953,Car
Fix,GPS,37.3932442746,-122.0963395264,-5.634930921491227,17.451017,6.685649,318.04276,1677169275999,0.506594,1.5899993,604073635798000,6.50917,Car
Fix,FLP,37.3932438,-122.0963367,-3.780279691989626,17.446686,6.637,318.0227,1677169278278,0.506594,1.5899993,604073635798000,1.6627653,Car
Fix,GPS,37.393360535,-122.0964754882,-5.64539354774788,17.553257,6.779587,316.81387,1677169276999,0.5023379,1.5716228,604074635799000,6.5668125,Car
Fix,FLP,37.3933605,-122.0964727,-4.015870918330123,17.551956,6.671,316.0228,1677169279278,0.5023379,1.5716228,604074635799000,1.6726261,Car
Fix,GPS,37.3934757518,-122.0966207671,-5.870992911357523,17.53107,6.8327246,315.33533,1677169277999,0.49484512,1.5559162,604075636085000,6.5879354,Car
Fix,FLP,37.3934751,-122.0966165,-4.143118112267043,17.531313,6.712,315.01126,1677169280279,0.49484512,1.5559162,604075636085000,1.6826062,Car
Fix,GPS,37.3935862213,-122.0967661003,-5.72396683003771,17.783318,6.7599926,313.95764,1677169278999,0.48905873,1.5216558,604076636097000,6.4671006,Car
Fix,FLP,37.3935864,-122.0967623,-4.401694862375546,17.780476,6.737,313.02148,1677169281279,0.48905873,1.5216558,604076636097000,1.6925962,Car
Fix,GPS,37.3936909122,-122.0969157676,-5.864207065569114,17.888603,6.7339554,311.3821,1677169279999,0.47889543,1.4877447,604077635848000,6.423228,Car
Fix,FLP,37.3936928,-122.0969132,-4.273940539612788,17.887333,6.737,311.02094,1677169282278,0.47889543,1.4877447,604077635848000,1.7026361,Car
Fix,GPS,37.3937944919,-122.0970774677,-5.600459678612744,18.09108,6.643512,309.4669,1677169280999,0.4847986,1.4930093,604078636045000,6.309506,Car
Fix,FLP,37.3937961,-122.0970728,-4.414981201104496,18.088755,6.75,309.02136,1677169283278,0.4847986,1.4930093,604078636045000,1.7126162,Car
Fix,GPS,37.3938901021,-122.097244508,-5.425268343544549,18.181833,6.5941687,307.92374,1677169281999,0.5100709,1.5663294,604079636065000,6.249498,Car
Fix,FLP,37.3938936,-122.0972394,-4.461483222201693,18.180557,6.713,307.02368,1677169284279,0.5100709,1.5663294,604079636065000,1.7225962,Car
Fix,GPS,37.3939843029,-122.0974132577,-6.078030444565139,18.150297,6.502412,306.49246,1677169282999,0.4784766,1.4765942,604080636125000,6.2122707,Car
Fix,FLP,37.3939875,-122.0974094,-4.428267518948914,18.150574,6.646,306.01056,1677169285278,0.4784766,1.4765942,604080636125000,1.7326062,Car
Fix,GPS,37.3940733158,-122.0975834018,-6.743245277256612,18.113834,6.3770256,305.1261,1677169283999,0.47202837,1.4605687,604081636000000,6.118267,Car
Fix,FLP,37.3940773,-122.0975803,-4.554997501156112,18.114157,6.601,305.01016,1677169286278,0.47202837,1.4605687,604081636000000,1.7416061,Car
Fix,GPS,37.3941606319,-122.0977563031,-7.348332273425923,18.094,6.2686176,303.64645,1677169284999,0.48435435,1.5120528,604082635992000,6.035267,Car
Fix,FLP,37.3941646,-122.0977532,-4.491121739532719,18.094063,6.477,303.02164,1677169287278,0.48435435,1.5120528,604082635992000,1.7526062,Car
Fix,GPS,37.3942460643,-122.0979333876,-7.662854056124061,17.931372,6.212956,302.18103,1677169285999,0.46444973,1.4526383,604083635939000,5.946098,Car
Fix,FLP,37.3942489,-122.0979301,-4.487033674353935,17.932953,6.433,302.00998,1677169288277,0.46444973,1.4526383,604083635939000,1.7626162,Car
Fix,GPS,37.3943253892,-122.0981124049,-7.409996089601461,18.063086,6.2516756,301.24884,1677169286999,0.4665458,1.4490055,604084635970000,5.9191895,Car
Fix,FLP,37.394329,-122.0981084,-4.4962318182243415,18.06173,6.367,301.00986,1677169289278,0.4665458,1.4490055,604084635970000,1.7726562,Car
Fix,GPS,37.3944032386,-122.0982943187,-7.295072469400041,18.281626,6.27757,300.29395,1677169287999,0.4643569,1.4282441,604085636242000,5.893418,Car
Fix,FLP,37.394407,-122.0982902,-4.500830886405996,18.279385,6.277,300.00977,1677169290279,0.4643569,1.4282441,604085636242000,1.7826562,Car
Fix,GPS,37.3944835036,-122.0984813768,-7.21002555121408,18.435654,6.2465,299.453,1677169288999,0.46882096,1.430182,604086635978000,5.868754,Car
Fix,FLP,37.3944858,-122.0984767,-4.500830886405996,18.434032,6.272,299.01,1677169291278,0.46882096,1.430182,604086635978000,1.7926562,Car
Fix,GPS,37.3945596152,-122.0986737904,-7.585107170925434,18.553673,6.170472,298.37686,1677169289999,0.47284675,1.433474,604087636117000,5.8211217,Car
Fix,FLP,37.3945622,-122.0986682,-4.821737465425127,18.552412,6.232,298.01016,1677169292279,0.47284675,1.433474,604087636117000,1.8025962,Car
Fix,GPS,37.3946377586,-122.0988590479,-7.472196380610714,18.13123,6.0728617,298.05972,1677169290999,0.4617411,1.4344571,604088636115000,5.767098,Car
Fix,FLP,37.3946389,-122.0988569,-4.808962754820868,18.135426,6.204,297.9999,1677169293279,0.4617411,1.4344571,604088636115000,1.8126062,Car
Fix,GPS,37.3947159428,-122.0990398099,-7.026381227433758,17.901459,6.1161184,297.7007,1677169291999,0.4857724,1.546421,604089636217000,5.8091607,Car
Fix,FLP,37.3947157,-122.0990392,-4.9699226976380615,17.904018,6.176,297.01114,1677169294279,0.4857724,1.546421,604089636217000,1.8226162,Car
Fix,GPS,37.3947984948,-122.0992117404,-6.594341745044363,17.485888,7.494155,298.33902,1677169292999,0.3780365,1.1858532,604090636063000,6.042413,Car
Fix,FLP,37.3947938,-122.0992156,-4.9433517436844845,17.488647,6.396,297.99347,1677169295279,0.3780365,1.1858532,604090636063000,1.8326162,Car
Fix,GPS,37.3948750506,-122.0993808043,-5.99529582283324,17.516237,8.669405,298.75656,1677169293999,0.4283179,1.285774,604091636133000,6.2613564,Car
Fix,FLP,37.3948711,-122.099386,-4.9433517436844845,17.516003,6.904,298.00003,1677169296279,0.4283179,1.285774,604091636133000,1.8426062,Car
Fix,GPS,37.394950892,-122.0995510797,-5.6895639451338695,17.603506,9.592829,298.65298,1677169294999,0.4371938,1.3740182,604092636077000,6.512226,Car
Fix,FLP,37.3949476,-122.0995568,-4.923934455285345,17.602722,7.352,298.0001,1677169297279,0.4371938,1.3740182,604092636077000,1.8516161,Car
Fix,NLP,37.3949718,-122.0994732,-5.5,,27.891,,1677169297123,,,604092480000000,1.3721392,Car
Fix,GPS,37.395018433,-122.0997241533,-5.646800281692894,17.814623,9.693607,299.07346,1677169295999,0.41006514,1.2445642,604093636079000,6.5993524,Car
Fix,FLP,37.3950277,-122.099744,-5.5,17.813215,8.176,298.99374,1677169298279,0.41006514,1.2445642,604093636079000,1.4626865,Car
Fix,GPS,37.3950925597,-122.0999024393,-5.7480209282236645,17.740398,9.797101,298.4868,1677169296999,0.37089637,1.1382666,604094636095000,6.592874,Car
Fix,FLP,37.3950997,-122.0999125,-5.5,17.740768,8.708,298.00604,1677169299279,0.37089637,1.1382666,604094636095000,1.4684684,Car
Fix,GPS,37.395165049,-122.1000874156,-5.817663818713734,16.438108,9.782016,298.60843,1677169297999,0.36815974,1.2196015,604095636131000,6.5906577,Car
Fix,FLP,37.3951703,-122.1000887,-5.5,16.446207,9.521,297.99936,1677169300279,0.36815974,1.2196015,604095636131000,1.4738854,Car
Fix,GPS,37.3952307011,-122.1002573384,-6.86829809847617,14.816923,9.4371195,298.40247,1677169298999,0.33976567,1.2845209,604096636142000,6.581785,Car
Fix,FLP,37.3952355,-122.1002551,-5.5,14.8257265,9.649,297.9996,1677169301279,0.33976567,1.2845209,604096636142000,1.4806454,Car
Fix,GPS,37.3952861213,-122.1003973703,-8.298013629040144,13.047479,9.759346,298.95212,1677169299999,0.3618787,1.5051678,604097636416000,6.65408,Car
Fix,FLP,37.3952927,-122.1004006,-5.5,13.058146,9.693,297.9988,1677169302279,0.3618787,1.5051678,604097636416000,1.4906154,Car
Fix,GPS,37.3953332195,-122.1005172576,-9.552489388976946,11.716293,9.071509,299.51602,1677169300999,0.35447592,1.6582505,604098636179000,6.719362,Car
Fix,FLP,37.3953407,-122.1005244,-5.5,11.724059,9.569,298.99292,1677169303279,0.35447592,1.6582505,604098636179000,1.5006055,Car
Fix,GPS,37.3953787566,-122.1006232272,-10.61280190495646,10.667246,8.629906,300.03165,1677169301999,0.33617756,1.7495447,604099636165000,6.6841736,Car
Fix,FLP,37.3953852,-122.1006317,-5.5,10.672782,9.336,299.99387,1677169304279,0.33617756,1.7495447,604099636165000,1.5096154,Car
Fix,GPS,37.3954201209,-122.1007265873,-10.067289573658297,9.828333,8.526467,298.93362,1677169302999,0.33697096,1.8896201,604100636199000,6.6140738,Car
Fix,FLP,37.3954266,-122.1007315,-5.5,9.832698,9.084,298.01062,1677169305279,0.33697096,1.8896201,604100636199000,1.5207554,Car
Fix,GPS,37.3954561063,-122.1008180749,-9.802801901709875,9.453748,8.410754,298.78934,1677169303999,0.3203989,1.8637363,604101636258000,6.5309424,Car
Fix,FLP,37.3954621,-122.1008239,-5.5,9.455537,8.879,297.99982,1677169306279,0.3203989,1.8637363,604101636258000,1.5296254,Car
Fix,GPS,37.3954900607,-122.1009092194,-9.261215248965833,9.209145,8.243526,298.1468,1677169304999,0.3198166,1.906875,604102636230000,6.3395004,Car
Fix,FLP,37.3954959,-122.1009137,-5.5,9.210301,8.773,297.99982,1677169307279,0.3198166,1.906875,604102636230000,1.5396354,Car
Fix,GPS,37.39552224,-122.1009941643,-8.56491109540009,9.211145,7.9227543,298.49194,1677169305999,0.31075668,1.8620784,604103636237000,6.181602,Car
Fix,FLP,37.3955281,-122.1009996,-5.5,9.21113,8.346,297.99997,1677169308279,0.31075668,1.8620784,604103636237000,1.5506254,Car
Fix,GPS,37.3955602977,-122.1010879585,-8.21737106069257,9.160038,8.095412,299.00864,1677169306999,0.3208071,1.951505,604104636262000,6.0895977,Car
Fix,FLP,37.3955636,-122.1010898,-5.5,9.160281,8.239,298.9952,1677169309279,0.3208071,1.951505,604104636262000,1.5606254,Car
Fix,GPS,37.3955997532,-122.1011799799,-8.189865094766704,9.16245,7.889272,299.3314,1677169307999,0.31767845,1.9197568,604105636591000,6.0263143,Car
Fix,FLP,37.3956016,-122.1011803,-5.5,9.162437,8.112,298.99997,1677169310279,0.31767845,1.9197568,604105636591000,1.5706154,Car
Fix,GPS,37.3956426563,-122.1012714638,-8.630652114019288,9.425919,8.322575,299.6772,1677169308999,0.34323412,2.0221517,604106636284000,6.0786877,Car
Fix,FLP,37.3956421,-122.1012713,-5.5,9.424474,8.094,299.00012,1677169311279,0.34323412,2.0221517,604106636284000,1.5806454,Car
Fix,GPS,37.3956908247,-122.1013640895,-9.385816525371029,10.251519,8.35436,299.85715,1677169309999,0.33065832,1.7767472,604107636581000,6.0418634,Car
Fix,FLP,37.3956871,-122.1013644,-5.5,10.247337,8.116,299.00046,1677169312279,0.33065832,1.7767472,604107636581000,1.5906254,Car
Fix,GPS,37.3957415715,-122.1014669047,-10.049437271787486,11.006902,8.505108,300.06604,1677169310999,0.31981653,1.6096325,604108636626000,6.011719,Car
Fix,FLP,37.3957366,-122.1014664,-5.5,11.003303,8.233,299.99594,1677169313279,0.31981653,1.6096325,604108636626000,1.6006054,Car
Fix,GPS,37.395793651,-122.1015805277,-10.73752994905128,11.224151,8.276821,299.65536,1677169311999,0.31665966,1.5545521,604109636327000,5.949565,Car
Fix,FLP,37.39579,-122.1015775,-5.5,11.223107,8.269,299.00455,1677169314279,0.31665966,1.5545521,604109636327000,1.6096255,Car
Fix,GPS,37.3958413994,-122.1016967782,-10.943963074393151,11.288771,8.170708,299.56235,1677169312999,0.31572136,1.5446428,604110636555000,5.891768,Car
Fix,FLP,37.3958402,-122.1016929,-5.5,11.288472,8.253,299.00003,1677169315278,0.31572136,1.5446428,604110636555000,1.6206654,Car
Fix,GPS,37.395895014,-122.1017995778,-11.02606076188354,11.566867,8.186947,299.20956,1677169313999,0.3204346,1.5150077,604111636389000,5.841757,Car
Fix,FLP,37.3958923,-122.1018021,-5.5,11.565547,8.298,299.00015,1677169316279,0.3204346,1.5150077,604111636389000,1.6306654,Car
Fix,GPS,37.3959514931,-122.101914037,-11.004647447430488,12.051957,7.987437,299.136,1677169314999,0.3049398,1.3994544,604112636466000,5.7770715,Car
Fix,FLP,37.3959473,-122.1019153,-5.5,12.049856,8.246,299.00018,1677169317279,0.3049398,1.3994544,604112636466000,1.6406754,Car
Fix,GPS,37.3960062867,-122.1020379799,-10.988069373652394,12.383829,7.8640003,299.50418,1677169315999,0.31121084,1.3936617,604113636635000,5.7468367,Car
Fix,FLP,37.3960033,-122.1020364,-5.5,12.382327,8.097,299.00012,1677169318279,0.31121084,1.3936617,604113636635000,1.6506255,Car
Fix,GPS,37.3960615294,-122.1021673694,-11.305942201481294,12.639031,7.8133574,299.8231,1677169316999,0.30994922,1.3836368,604114636468000,5.714803,Car
Fix,FLP,37.3960595,-122.1021635,-5.5,12.637876,8.004,299.00003,1677169319279,0.30994922,1.3836368,604114636468000,1.6606154,Car
Fix,GPS,37.3961171581,-122.1022935694,-11.60918012588493,12.718512,7.6704226,299.9405,1677169317999,0.309137,1.3696401,604115636478000,5.6718764,Car
Fix,FLP,37.396116,-122.1022913,-5.5,12.718153,7.948,299.0,1677169320279,0.309137,1.3696401,604115636478000,1.6706355,Car
Fix,GPS,37.39617215,-122.1024166007,-11.975538724773202,12.921864,7.745103,299.59268,1677169318999,0.3090431,1.3463876,604116636492000,5.6313443,Car
Fix,FLP,37.3961718,-122.1024169,-5.5,12.920948,7.815,299.00003,1677169321279,0.3090431,1.3463876,604116636492000,1.6806154,Car
Fix,GPS,37.3962269723,-122.1025521193,-12.00215263801118,13.082247,7.693097,299.19467,1677169319999,0.31585664,1.3661923,604117636498000,5.619149,Car
Fix,FLP,37.3962276,-122.1025488,-5.5,13.0814905,7.757,299.0,1677169322278,0.31585664,1.3661923,604117636498000,1.6906655,Car
Fix,GPS,37.3962864661,-122.1026861918,-12.000083071363608,13.118936,7.6378345,298.08484,1677169320999,0.31111494,1.3364058,604118636702000,5.5936007,Car
Fix,FLP,37.3962856,-122.1026826,-5.5,13.118753,7.711,298.0045,1677169323279,0.31111494,1.3364058,604118636702000,1.7006154,Car
Fix,GPS,37.3963388413,-122.1028196492,-11.706000414775502,13.122479,7.779369,298.35077,1677169321999,0.3178122,1.3447771,604119636558000,5.557196,Car
Fix,FLP,37.3963399,-122.1028168,-5.5,13.122464,7.705,298.0,1677169324279,0.3178122,1.3447771,604119636558000,1.7106354,Car
Fix,GPS,37.3963940946,-122.102946351,-11.46068520099165,13.0709305,7.972417,298.33197,1677169322999,0.31708035,1.3491014,604120636752000,5.5394697,Car
Fix,FLP,37.3963947,-122.1029472,-5.5,13.071171,7.765,297.99997,1677169325279,0.31708035,1.3491014,604120636752000,1.725803,Car
Fix,GPS,37.3964471206,-122.1030745827,-11.302337279034855,13.174905,8.037844,298.66943,1677169323999,0.31748244,1.3405558,604121636533000,5.508377,Car
Fix,FLP,37.3964485,-122.1030762,-5.5,13.174414,7.824,298.00003,1677169326278,0.31748244,1.3405558,604121636533000,1.734783,Car
Fix,GPS,37.396502094,-122.1032106699,-10.834113926279503,13.352608,6.8575673,298.3725,1677169324999,0.47832066,1.9882377,604122636720000,5.3091083,Car
Fix,FLP,37.3965029,-122.1032096,-5.5,13.35072,7.657,298.0001,1677169327279,0.47832066,1.9882377,604122636720000,1.7457831,Car
Fix,GPS,37.3965595151,-122.1033451652,-10.471462773933144,13.529259,6.2292237,298.254,1677169325999,0.5054456,2.0750127,604123636549000,5.203547,Car
Fix,FLP,37.3965594,-122.1033444,-5.5,13.527168,7.419,298.00012,1677169328279,0.5054456,2.0750127,604123636549000,1.754783,Car
Fix,GPS,37.3966199044,-122.1034846916,-10.337978631543416,13.72917,6.001974,298.08987,1677169326999,0.4898674,1.986026,604124636634000,5.1844773,Car
Fix,FLP,37.3966187,-122.1034828,-5.5,13.726972,7.019,298.00015,1677169329279,0.4898674,1.986026,604124636634000,1.7657831,Car
Fix,GPS,37.3966799469,-122.1036243896,-10.103796123427676,13.760349,5.89741,297.99316,1677169327999,0.48291114,1.9540873,604125636638000,5.2076774,Car
Fix,FLP,37.3966787,-122.1036228,-5.5,13.759964,6.832,297.0106,1677169330278,0.48291114,1.9540873,604125636638000,1.775773,Car
Fix,GPS,37.3967386598,-122.1037647886,-10.142330103023967,13.730618,5.9458413,298.13214,1677169328999,0.48146215,1.9514384,604126636594000,5.2693243,Car
Fix,FLP,37.3967373,-122.1037636,-5.5,13.730968,6.186,297.98962,1677169331279,0.48146215,1.9514384,604126636594000,1.784793,Car
Fix,GPS,37.3967965035,-122.1039026462,-10.422176164716534,13.560259,6.03512,299.09592,1677169329999,0.49026707,2.01657,604127636685000,5.36645,Car
Fix,FLP,37.396796,-122.103902,-5.5,13.562173,6.161,298.98874,1677169332279,0.49026707,2.01657,604127636685000,1.795793,Car
Fix,NLP,37.3968313,-122.1039087,-5.900000095367432,,39.679,,1677169332066,,,604127423000000,3.5603373,Car
Fix,GPS,37.3968561092,-122.104039865,-10.2622098141826,13.671367,6.102351,299.34885,1677169330999,0.49143514,2.000713,604128636671000,5.41944,Car
Fix,FLP,37.3968608,-122.1040499,-5.900000095367432,13.670266,6.002,299.0,1677169333279,0.49143514,2.000713,604128636671000,1.9333799,Car
Fix,GPS,37.3969169301,-122.1041784958,-10.050882006308266,13.841803,6.0536623,299.22098,1677169331999,0.50350654,2.030552,604129636741000,5.4519877,Car
Fix,FLP,37.3969183,-122.1041811,-5.900000095367432,13.839749,6.011,299.0001,1677169334279,0.50350654,2.030552,604129636741000,1.9390048,Car
Fix,GPS,37.3969805328,-122.1043230347,-9.9010832502965,14.153251,5.9932814,298.2649,1677169332999,0.48687008,1.9145563,604130636683000,5.4468403,Car
Fix,FLP,37.3969798,-122.1043212,-5.900000095367432,14.149797,6.027,298.01068,1677169335279,0.48687008,1.9145563,604130636683000,1.9490348,Car
Fix,GPS,37.3970426698,-122.1044688506,-9.428947053557511,14.512653,6.0223117,297.69138,1677169333999,0.4966297,1.9062215,604131636732000,5.478694,Car
Fix,FLP,37.3970415,-122.1044666,-5.900000095367432,14.508499,6.04,297.01123,1677169336279,0.4966297,1.9062215,604131636732000,1.9633999,Car
Fix,GPS,37.3971038675,-122.1046187017,-9.32360846658884,14.609939,6.058043,297.58212,1677169334999,0.5137065,1.960694,604132636710000,5.5303626,Car
Fix,FLP,37.3971027,-122.1046165,-5.900000095367432,14.608745,6.045,297.0002,1677169337279,0.5137065,1.960694,604132636710000,1.9734099,Car
Fix,GPS,37.3971653113,-122.1047655373,-9.305449554654608,14.620923,6.2282853,297.18542,1677169335999,0.51648515,1.9506935,604133636987000,5.669311,Car
Fix,FLP,37.3971642,-122.1047649,-5.900000095367432,14.620793,6.071,297.00006,1677169338279,0.51648515,1.9506935,604133636987000,1.9834498,Car
Fix,GPS,37.3972267904,-122.1049209573,-9.36552063108399,14.749092,6.3742943,296.24298,1677169336999,0.60050726,2.069744,604134636761000,5.8811345,Car
Fix,FLP,37.3972256,-122.1049175,-5.900000095367432,14.746895,6.135,296.01468,1677169339279,0.60050726,2.069744,604134636761000,1.9934199,Car
Fix,GPS,37.3972875387,-122.1050762454,-9.6666908937366,15.042618,6.317457,296.54987,1677169337999,0.50376815,1.8493836,604135636838000,5.9494443,Car
Fix,FLP,37.397286,-122.1050728,-5.900000095367432,15.039258,6.199,296.00037,1677169340279,0.50376815,1.8493836,604135636838000,2.0024,Car
Fix,GPS,37.3973486802,-122.1052323197,-9.656205801611588,15.33626,6.301765,296.98495,1677169338999,0.4996634,1.8046653,604136636911000,6.0163603,Car
Fix,FLP,37.3973474,-122.1052298,-5.900000095367432,15.33289,6.255,296.0002,1677169341279,0.4996634,1.8046653,604136636911000,2.0133798,Car
Fix,GPS,37.3974124418,-122.1053913036,-9.677109977297675,15.48305,6.2564607,296.83783,1677169339999,0.4990442,1.7724923,604137636938000,6.065977,Car
Fix,FLP,37.3974106,-122.1053892,-5.900000095367432,15.481377,6.295,296.00018,1677169342279,0.4990442,1.7724923,604137636938000,2.0234098,Car
Fix,GPS,37.3974781272,-122.1055515043,-10.034157377001648,15.6502075,6.17511,297.7174,1677169340999,0.4892793,1.7255101,604138636809000,6.042019,Car
Fix,FLP,37.3974756,-122.1055497,-5.900000095367432,15.648418,6.275,296.9896,1677169343279,0.4892793,1.7255101,604138636809000,2.0333898,Car
Fix,GPS,37.3975473026,-122.1057119534,-10.27133502343104,15.943664,6.1602116,298.28528,1677169341999,0.5004873,1.7398497,604139636872000,6.022394,Car
Fix,FLP,37.3975443,-122.1057103,-5.900000095367432,15.940329,6.242,297.9891,1677169344279,0.5004873,1.7398497,604139636872000,2.0433898,Car
Fix,GPS,37.3976173169,-122.105876855,-10.160786294437198,16.36135,6.233764,298.74658,1677169342999,0.50045043,1.6950092,604140636936000,6.0089006,Car
Fix,FLP,37.3976151,-122.1058741,-5.900000095367432,16.35656,6.225,298.00018,1677169345279,0.50045043,1.6950092,604140636936000,2.0533898,Car
Fix,GPS,37.3976906836,-122.1060375655,-10.352569604223891,16.619738,6.1732993,299.72522,1677169343999,0.5006764,1.6699585,604141636857000,5.967201,Car
Fix,FLP,37.3976882,-122.1060376,-5.900000095367432,16.616749,6.216,298.98917,1677169346279,0.5006764,1.6699585,604141636857000,2.0634298,Car
Fix,GPS,37.3977662792,-122.106203764,-10.282008164373522,16.848888,6.135219,300.0986,1677169344999,0.49706444,1.6334115,604142636894000,5.9300604,Car
Fix,FLP,37.3977641,-122.1062032,-5.900000095367432,16.846306,6.188,299.98914,1677169347279,0.49706444,1.6334115,604142636894000,2.0733898,Car
Fix,GPS,37.3978433497,-122.1063781923,-9.72501375284731,17.222786,6.083048,299.9003,1677169345999,0.49696526,1.5970732,604143636890000,5.8843336,Car
Fix,FLP,37.397842,-122.1063745,-5.900000095367432,17.218502,6.157,299.01096,1677169348279,0.49696526,1.5970732,604143636890000,2.0833898,Car
Fix,GPS,37.3979204374,-122.1065496351,-9.633069440404643,17.256666,6.211194,299.3499,1677169346999,0.48109356,1.5598273,604144636894000,5.895876,Car
Fix,FLP,37.3979191,-122.1065478,-5.900000095367432,17.256289,6.167,299.00015,1677169349279,0.48109356,1.5598273,604144636894000,2.0934098,Car
Fix,GPS,37.397996201,-122.1067191928,-9.75805918675493,17.27949,6.1161823,298.8932,1677169347999,0.47682586,1.557804,604145637054000,5.838047,Car
Fix,FLP,37.3979955,-122.106719,-5.900000095367432,17.279202,6.143,298.01053,1677169350280,0.47682586,1.557804,604145637054000,2.10339,Car
Fix,GPS,37.398070377,-122.1068821171,-10.00256600767736,17.265959,6.1335883,298.9423,1677169348999,0.50344425,1.619428,604146637272000,5.834807,Car
Fix,FLP,37.3980697,-122.1068859,-5.900000095367432,17.266071,6.135,298.00024,1677169351280,0.50344425,1.619428,604146637272000,2.11338,Car
Fix,GPS,37.3981465015,-122.1070469732,-10.609824026765317,17.293547,6.16076,299.78647,1677169349999,0.5088448,1.6386887,604147636947000,5.8453927,Car
Fix,FLP,37.398145,-122.1070515,-5.900000095367432,17.293184,6.141,298.9885,1677169352278,0.5088448,1.6386887,604147636947000,2.1223898,Car
Fix,GPS,37.3982220052,-122.1072066132,-11.056887573765648,17.269768,6.191189,300.18344,1677169350999,0.51769376,1.667769,604148636953000,5.882445,Car
Fix,FLP,37.3982214,-122.107213,-5.900000095367432,17.269985,6.162,299.9879,1677169353278,0.51769376,1.667769,604148636953000,2.13339,Car
Fix,GPS,37.3982996244,-122.1073760303,-11.06662915105243,17.354193,6.2865987,299.8642,1677169351999,0.4993922,1.5847071,604149637061000,5.8987837,Car
Fix,FLP,37.3982994,-122.1073786,-5.900000095367432,17.353113,6.177,299.01108,1677169354280,0.4993922,1.5847071,604149637061000,2.1434,Car
Fix,GPS,37.3983769453,-122.107546702,-11.269282697589942,17.328056,6.311936,299.8348,1677169352999,0.5023142,1.6038405,604150636987000,5.9215045,Car
Fix,FLP,37.3983762,-122.1075482,-5.900000095367432,17.328333,6.2,299.00018,1677169355279,0.5023142,1.6038405,604150636987000,2.15353,Car
Fix,GPS,37.3984549415,-122.107716289,-11.72126614496911,17.29997,6.2641296,300.29205,1677169353999,0.5111704,1.6434277,604151637304000,5.939548,Car
Fix,FLP,37.3984537,-122.1077177,-5.900000095367432,17.300318,6.243,299.98825,1677169356280,0.5111704,1.6434277,604151637304000,2.1635098,Car
Fix,GPS,37.3985346711,-122.1078883978,-12.36064100679959,17.30932,6.278117,299.94672,1677169354999,0.5253754,1.6903541,604152637019000,5.993337,Car
Fix,FLP,37.3985334,-122.107888,-5.900000095367432,17.309145,6.266,299.01242,1677169357280,0.5253754,1.6903541,604152637019000,2.17341,Car
Fix,GPS,37.3986125401,-122.1080612138,-12.860274912645435,17.243952,6.295498,299.7507,1677169355999,0.50263476,1.6143521,604153637336000,6.0449395,Car
Fix,FLP,37.3986111,-122.1080605,-5.900000095367432,17.244728,6.287,299.00015,1677169358280,0.50263476,1.6143521,604153637336000,2.18339,Car
Fix,GPS,37.3986878779,-122.1082320391,-13.042812146093462,17.063166,6.321069,299.17252,1677169356999,0.51106906,1.6630881,604154637136000,6.133683,Car
Fix,FLP,37.3986873,-122.1082317,-5.900000095367432,17.065353,6.294,298.99994,1677169359280,0.51106906,1.6630881,604154637136000,2.19339,Car
Fix,GPS,37.398761302,-122.1084007147,-13.100725986666244,16.997313,6.450325,298.9968,1677169357999,0.53567225,1.7198733,604155637304000,6.2829623,Car
Fix,FLP,37.3987615,-122.1084008,-5.900000095367432,16.99808,6.321,298.01263,1677169360279,0.53567225,1.7198733,604155637304000,2.2033799,Car
Fix,GPS,37.3988327939,-122.1085700236,-13.040821293550394,17.146568,6.485011,299.22504,1677169358999,0.48626435,1.6021743,604156637321000,6.321075,Car
Fix,FLP,37.398833,-122.1085703,-5.900000095367432,17.144922,6.365,298.98935,1677169361280,0.48626435,1.6021743,604156637321000,2.21343,Car
Fix,GPS,37.3989057985,-122.1087384214,-12.537876414994049,17.183155,6.49814,299.217,1677169359999,0.5142049,1.6617434,604157637072000,6.349326,Car
Fix,FLP,37.3989066,-122.1087391,-5.900000095367432,17.182676,6.409,298.99988,1677169362280,0.5142049,1.6617434,604157637072000,2.2233899,Car
Fix,GPS,37.3989794571,-122.1089048525,-12.497984415627997,17.287363,6.620515,299.55045,1677169360999,0.5074019,1.6215435,604158637346000,6.379832,Car
Fix,FLP,37.3989804,-122.1089068,-5.900000095367432,17.2861,6.475,299.00006,1677169363280,0.5074019,1.6215435,604158637346000,2.2333999,Car
Fix,GPS,37.3990541155,-122.1090713007,-12.50535450155523,17.119171,6.726371,300.22867,1677169361999,0.5211199,1.6742984,604159637110000,6.4164367,Car
Fix,FLP,37.3990548,-122.1090741,-5.900000095367432,17.12123,6.516,299.98767,1677169364279,0.5211199,1.6742984,604159637110000,2.2433999,Car
Fix,GPS,37.3991293807,-122.10923674,-12.406727021618275,16.967539,6.676446,300.05725,1677169362999,0.4806342,1.5960062,604160637088000,6.3038054,Car
Fix,FLP,37.3991304,-122.1092389,-5.900000095367432,16.969154,6.576,299.99985,1677169365280,0.4806342,1.5960062,604160637088000,2.25239,Car
Fix,NLP,37.3992251,-122.1092844,-8.40000057220459,,35.894,,1677169365956,,,604161313000000,1.6061019,Car
Fix,FLP,37.3991729,-122.1093315,-8.40000057220459,16.955,8.078,300.00018,1677169365956,0.4806342,1.5960062,604161313000000,1.8593005,Car
Fix,GPS,37.3992041455,-122.1094082072,-12.164102690610536,16.864742,6.644078,299.8405,1677169363999,0.47702572,1.5984614,604161637218000,6.242827,Car
Fix,FLP,37.3992009,-122.1093981,-8.40000057220459,16.868143,7.873,299.00943,1677169366280,0.47702572,1.5984614,604161637218000,1.8593005,Car
Fix,GPS,37.399279992,-122.1095792304,-12.146071516883833,16.891088,6.6069674,299.92047,1677169364999,0.4983577,1.6301284,604162637376000,6.226334,Car
Fix,FLP,37.3992777,-122.1095733,-8.40000057220459,16.890911,8.122,299.0001,1677169367280,0.4983577,1.6301284,604162637376000,1.8703105,Car
Fix,GPS,37.3993556225,-122.109748268,-11.768787893755563,17.133493,6.4889812,300.48993,1677169365999,0.47236782,1.5532944,604163637475000,6.159411,Car
Fix,FLP,37.3993539,-122.1097452,-8.40000057220459,17.131018,8.1,299.98993,1677169368279,0.47236782,1.5532944,604163637475000,1.8802805,Car
Fix,GPS,37.3994349071,-122.1099202993,-11.6751343296759,17.22456,6.2927103,301.15457,1677169366999,0.47351578,1.5476395,604164637156000,5.990836,Car
Fix,FLP,37.3994334,-122.1099175,-8.40000057220459,17.22362,8.028,300.98965,1677169369280,0.47351578,1.5476395,604164637156000,1.8892804,Car
Fix,GPS,37.3995186064,-122.1100893753,-11.965600594196664,17.241747,6.265931,301.95422,1677169367999,0.47978252,1.559048,604165637219000,5.912597,Car
Fix,FLP,37.3995165,-122.1100876,-8.40000057220459,17.241589,7.96,300.99994,1677169370280,0.47978252,1.559048,604165637219000,2.483335,Car
Fix,GPS,37.3996028555,-122.1102533868,-12.397497552023609,17.308025,5.9562235,302.65576,1677169368999,0.47787052,1.5474671,604166637218000,5.694395,Car
Fix,FLP,37.3996005,-122.110254,-8.40000057220459,17.307337,6.375,301.98972,1677169371280,0.47787052,1.5474671,604166637218000,2.493335,Car
Fix,GPS,37.3996886141,-122.1104185869,-12.604614575095493,17.206638,5.9061003,302.83414,1677169369999,0.47613704,1.5491121,604167637341000,5.5773797,Car
Fix,FLP,37.3996865,-122.1104192,-8.40000057220459,17.207705,6.252,301.99997,1677169372279,0.47613704,1.5491121,604167637341000,2.503345,Car
Fix,GPS,37.3997721892,-122.1105788007,-12.684395415336564,17.324572,5.787428,303.11072,1677169370999,0.47537118,1.5475771,604168637247000,5.493479,Car
Fix,FLP,37.3997709,-122.1105809,-8.40000057220459,17.323322,6.116,302.98975,1677169373280,0.47537118,1.5475771,604168637247000,2.5134048,Car
Fix,GPS,37.3998563489,-122.1107402207,-12.525401977347755,17.663261,5.716803,303.52295,1677169371999,0.47421008,1.5141121,604169637578000,5.433843,Car
Fix,FLP,37.3998561,-122.1107421,-5.900000095367432,17.659689,5.926,303.00003,1677169374280,0.47421008,1.5141121,604169637578000,2.523325,Car
Fix,GPS,37.3999445494,-122.110906521,-12.353656414926473,18.025126,5.677319,303.92554,1677169372999,0.47626385,1.4908756,604170637270000,5.3994102,Car
Fix,FLP,37.3999438,-122.1109077,-5.900000095367432,18.021261,5.808,303.00012,1677169375280,0.47626385,1.4908756,604170637270000,2.532335,Car
Fix,GPS,37.4000359478,-122.1110774249,-12.14509194519409,18.15445,5.6479654,304.05817,1677169373999,0.4791963,1.4901712,604171637531000,5.3863916,Car
Fix,FLP,37.4000346,-122.111078,-8.40000057220459,18.153023,5.747,303.98956,1677169376280,0.4791963,1.4901712,604171637531000,2.543335,Car
Fix,GPS,37.4001280915,-122.1112486542,-12.110846236552389,17.970432,5.735967,304.27975,1677169374999,0.4997666,1.5660473,604172637283000,5.412729,Car
Fix,FLP,37.4001273,-122.1112486,-8.40000057220459,17.972557,5.745,303.99988,1677169377280,0.4997666,1.5660473,604172637283000,2.552355,Car
Fix,GPS,37.4002172668,-122.1114135126,-12.124384060288572,17.55352,5.8573456,304.4662,1677169375999,0.5066768,1.6285824,604173637300000,5.448932,Car
Fix,FLP,37.4002174,-122.1114149,-8.40000057220459,17.558485,5.727,303.99994,1677169378280,0.5066768,1.6285824,604173637300000,2.563395,Car
Fix,GPS,37.4003047161,-122.1115737586,-12.314381864224115,17.0736,6.045606,304.34808,1677169376999,0.51048195,1.6895701,604174637573000,5.4989986,Car
Fix,FLP,37.4003051,-122.1115761,-8.40000057220459,17.079424,5.78,303.99997,1677169379280,0.51048195,1.6895701,604174637573000,2.573355,Car
Fix,GPS,37.4003872765,-122.1117253976,-12.377323955466318,16.647495,6.120348,304.50885,1677169377999,0.50828516,1.7230781,604175637390000,5.5605397,Car
