Fix,Provider,LatitudeDegrees,LongitudeDegrees,AltitudeMeters,SpeedMps,AccuracyMeters,BearingDegrees,UnixTimeMillis,SpeedAccuracyMps,BearingAccuracyDegrees,elapsedRealtimeNanos,VerticalAccuracyMeters,TransitType
Fix,FLP,37.421729,-122.1586141,-8.5,0.110465966,13.458,314.03348,1678500901694,0.6654071,30.472954,1935716571966000,1.5261543,Car
Fix,GPS,37.4217401769,-122.1586066962,-5.2070616828211245,0.43204418,12.414205,64.14706,1678500900000,0.5232588,40.951897,1935717571945000,10.023611,Car
Fix,FLP,37.4217338,-122.1586107,-8.5,0.14671628,13.197,29.021347,1678500902694,0.5232588,40.951897,1935717571945000,1.2914251,Car
Fix,GPS,37.4217480646,-122.1585973322,-3.421800627640614,0.77836317,12.102016,51.055134,1678500901000,0.5370627,26.258112,1935718571972000,9.631022,Car
Fix,FLP,37.42174,-122.1586042,-8.5,0.31506196,12.978,44.50675,1678500903694,0.5370627,26.258112,1935718571972000,1.391918,Car
Fix,GPS,37.4217545583,-122.1585778553,-2.1602134256137733,1.2528564,11.712546,40.786842,1678500902000,0.5773917,20.261728,1935719571984000,9.252466,Car
Fix,FLP,37.4217471,-122.1585928,-8.5,0.50252795,12.767,44.665436,1678500904694,0.5773917,20.261728,1935719571984000,1.6279259,Car
Fix,GPS,37.4217607548,-122.1585601674,-0.4058709664124071,1.4119244,11.319842,42.46981,1678500903000,0.69566685,23.52382,1935720571993000,8.921022,Car
Fix,FLP,37.4217543,-122.1585793,-8.5,0.62577724,12.442,44.697956,1678500905694,0.69566685,23.52382,1935720571993000,1.5785359,Car
Fix,NLP,37.4217354,-122.1586431,-8.5,,26.926,,1678500906448,,,1935721325000000,2.7550764,Car
Fix,FLP,37.4217581,-122.1585721,29.97617561187973,0.62741494,12.141,44.788536,1678500906448,0.69566685,23.52382,1935721325000000,7.79066,Car
Fix,GPS,37.4217726602,-122.158545656,0.9300947481460916,1.5563391,11.171299,36.210426,1678500904000,0.681272,17.546177,1935721572006000,8.772386,Car
Fix,FLP,37.4217635,-122.1585638,27.707691874952225,0.77001464,11.861,43.331753,1678500906694,0.681272,17.546177,1935721572006000,7.7950654,Car
Fix,GPS,37.4217851672,-122.1585295556,1.944500967735923,1.6809766,11.080737,37.547173,1678500905000,0.6585533,16.893082,1935722572016000,8.631595,Car
Fix,FLP,37.4217741,-122.1585495,28.42057794552204,0.91456896,11.639,42.196556,1678500907695,0.6585533,16.893082,1935722572016000,8.002522,Car
Fix,GPS,37.4218044534,-122.1585121645,2.8096762142226783,1.9068854,10.838913,36.533684,1678500906000,0.501906,10.0,1935723572158000,8.507228,Car
Fix,FLP,37.4217893,-122.1585321,-8.5,1.1692901,11.428,40.644264,1678500908695,0.501906,10.0,1935723572158000,2.8634388,Car
Fix,GPS,37.42182152,-122.1584906631,3.989156126537569,2.0556357,10.638123,31.385365,1678500907000,0.49702942,11.850297,1935724572047000,8.412724,Car
Fix,FLP,37.4218063,-122.1585135,-8.5,1.3524684,11.249,37.857113,1678500909695,0.49702942,11.850297,1935724572047000,2.6535215,Car
Fix,GPS,37.4218390313,-122.1584744508,4.392125711437981,2.1137965,10.311432,22.61228,1678500908000,0.4674138,10.8018055,1935725572061000,8.233156,Car
Fix,FLP,37.4218229,-122.158496,-8.5,1.9529403,11.081,24.148134,1678500910695,0.4674138,10.8018055,1935725572061000,2.671566,Car
Fix,NLP,37.4219691,-122.1585346,-9.800000190734863,,30.325,,1678500911392,,,1935726269000000,1.6292521,Car
Fix,FLP,37.4218341,-122.1584894,-9.800000190734863,1.9531064,15.421,24.152132,1678500911392,0.4674138,10.8018055,1935726269000000,2.2741165,Car
Fix,GPS,37.4218542149,-122.1584638041,4.769124181669306,2.0911825,10.054131,23.700064,1678500909000,0.50905716,10.514979,1935726572097000,8.08687,Car
Fix,FLP,37.4218434,-122.1584804,-9.800000190734863,2.0660472,15.731,23.262407,1678500911695,0.50905716,10.514979,1935726572097000,2.2807028,Car
Fix,GPS,37.4218745625,-122.1584526447,5.210115870084001,2.1509418,9.85595,25.122362,1678500910000,0.48877093,10.0,1935727572095000,7.9901414,Car
Fix,FLP,37.4218645,-122.1584659,-9.800000190734863,2.1380758,15.527,24.781765,1678500912695,0.48877093,10.0,1935727572095000,2.7442079,Car
Fix,GPS,37.4218972515,-122.1584372132,5.875805707214827,2.2517862,9.679279,26.403107,1678500911000,0.5304812,10.0,1935728572121000,7.9097056,Car
Fix,FLP,37.4218863,-122.1584505,-9.800000190734863,2.231312,14.691,25.856855,1678500913695,0.5304812,10.0,1935728572121000,2.6973844,Car
Fix,GPS,37.4219215573,-122.1584163092,6.4056849774815925,2.3846617,9.497913,31.021206,1678500912000,0.54418683,10.0,1935729572181000,7.848126,Car
Fix,FLP,37.4219093,-122.1584326,-9.800000190734863,2.3569033,15.143,30.143219,1678500914695,0.54418683,10.0,1935729572181000,5.0712843,Car
Fix,GPS,37.4219539583,-122.1583926982,6.691404902913055,2.587747,9.327497,32.41985,1678500913000,0.50879115,10.0,1935730572126000,7.7406754,Car
Fix,FLP,37.4219355,-122.1584113,-9.800000190734863,2.5463254,14.979,31.697433,1678500915694,0.50879115,10.0,1935730572126000,5.0808144,Car
Fix,NLP,37.4268643,-122.155268,,,800.0,,1678500915653,,,1935730530000000,,Car
Fix,GPS,37.4219838522,-122.158364572,7.054132879982943,2.7572088,8.940796,33.018414,1678500914000,0.037690274,10.0,1935731572150000,7.2812552,Car
Fix,FLP,37.4219666,-122.1583839,-9.800000190734863,2.7382443,9.438,32.722992,1678500916695,0.037690274,10.0,1935731572150000,4.4823203,Car
Fix,GPS,37.422013367,-122.1583401119,7.4641534774455875,2.8783782,8.714119,33.069714,1678500915000,0.08767163,10.0,1935732572160000,7.106717,Car
Fix,FLP,37.4219949,-122.1583593,-9.800000190734863,2.863742,9.247,32.882195,1678500917695,0.08767163,10.0,1935732572160000,4.1836014,Car
Fix,GPS,37.4220407077,-122.1583160746,8.189205261390159,2.9628193,8.3959255,33.201115,1678500916000,0.49749714,10.0,1935733572164000,6.928934,Car
Fix,FLP,37.422024,-122.1583337,-9.800000190734863,2.9425647,9.033,33.001724,1678500918694,0.49749714,10.0,1935733572164000,2.0528893,Car
Fix,GPS,37.4220693186,-122.158293941,8.705334216066717,3.0358105,8.202322,34.175434,1678500917000,0.5071593,10.0,1935734572185000,6.802685,Car
Fix,FLP,37.4220535,-122.1583085,-9.800000190734863,3.019201,8.817,33.79489,1678500919695,0.5071593,10.0,1935734572185000,2.0856683,Car
Fix,GPS,37.4220966647,-122.1582713616,9.067808153442304,3.0893538,8.175315,31.96172,1678500918000,0.45291713,10.0,1935735572206000,6.72813,Car
Fix,FLP,37.4220828,-122.1582839,30.725191508776277,3.0799594,8.485,31.551773,1678500920695,0.45291713,10.0,1935735572206000,7.6759844,Car
Fix,NLP,37.4220164,-122.158382,-9.800000190734863,,24.213,,1678500921449,,,1935736326000000,2.120623,Car
Fix,FLP,37.4221019,-122.1582688,-9.800000190734863,3.0871594,13.21,31.185005,1678500921449,0.45291713,10.0,1935736326000000,2.126407,Car
Fix,GPS,37.4221204217,-122.1582479855,9.356496173424327,3.1143413,8.187359,33.24561,1678500919000,0.5162219,10.0,1935736572211000,6.6978335,Car
Fix,FLP,37.422111,-122.1582599,-9.800000190734863,3.1086226,13.102,32.46823,1678500921695,0.5162219,10.0,1935736572211000,2.1179738,Car
Fix,GPS,37.4221454856,-122.1582246565,9.938018293901946,3.146791,8.226021,31.196339,1678500920000,0.5168827,10.0,1935737572273000,6.706995,Car
Fix,FLP,37.422138,-122.1582356,28.791225255448094,3.1394584,12.427,31.486864,1678500922694,0.5168827,10.0,1935737572273000,7.8989654,Car
Fix,GPS,37.4221724416,-122.1581986665,10.064881533272514,3.2040691,7.958105,32.980022,1678500921000,0.5729605,10.0,1935738572270000,6.566414,Car
Fix,FLP,37.4221652,-122.1582115,29.083569424881716,3.1910174,12.372,31.901684,1678500923695,0.5729605,10.0,1935738572270000,7.9057894,Car
Fix,GPS,37.4222019627,-122.1581732221,9.97227362020391,3.2792764,7.7087154,33.39968,1678500922000,0.031213267,10.0,1935739572274000,6.398461,Car
Fix,FLP,37.4221936,-122.158186,-9.800000190734863,3.268358,12.31,32.790943,1678500924695,0.031213267,10.0,1935739572274000,1.518859,Car
Fix,GPS,37.4222380699,-122.1581535063,9.519149650215926,3.3857841,7.475362,34.064793,1678500923000,0.44920963,10.0,1935740572326000,6.259388,Car
Fix,FLP,37.4222251,-122.1581616,-9.800000190734863,3.3607407,12.223,33.72155,1678500925695,0.44920963,10.0,1935740572326000,1.3974332,Car
Fix,GPS,37.4222685126,-122.1581298455,9.422616533991327,3.4583216,7.4874134,35.823368,1678500924000,0.46995154,10.0,1935741572297000,6.19448,Car
Fix,FLP,37.4222564,-122.1581367,-9.800000190734863,3.4386752,7.84,34.694157,1678500926695,0.46995154,10.0,1935741572297000,1.4078667,Car
Fix,NLP,37.4221973,-122.1582037,-10.0,,29.913,,1678500926454,,,1935741331000000,1.1684728,Car
Fix,GPS,37.4223016691,-122.1581018586,9.312207789079483,3.562183,7.5191355,35.069542,1678500925000,0.51421297,10.0,1935742572469000,6.1524005,Car
Fix,FLP,37.4222945,-122.1581055,-10.0,3.5378518,7.605,34.941273,1678500927695,0.51421297,10.0,1935742572469000,1.4273899,Car
Fix,GPS,37.4223375316,-122.1580733015,9.141476006204634,3.6825063,7.538101,32.74694,1678500926000,0.48020557,10.0,1935743572316000,6.142464,Car
Fix,FLP,37.4223264,-122.1580796,-10.0,3.6555398,7.535,32.650333,1678500928695,0.48020557,10.0,1935743572316000,1.3888215,Car
Fix,GPS,37.4223744504,-122.1580442237,9.330996676817218,3.8030791,7.2351103,30.446604,1678500927000,0.49027732,10.0,1935744572368000,5.984801,Car
Fix,FLP,37.4223615,-122.1580528,-10.0,3.7757766,7.456,30.623976,1678500929694,0.49027732,10.0,1935744572368000,2.4822843,Car
Fix,GPS,37.4224178065,-122.1580090605,8.69923655424026,3.9805532,7.234192,33.41612,1678500928000,0.5021012,10.0,1935745572479000,5.9826922,Car
Fix,FLP,37.4224002,-122.1580229,-10.0,3.9331203,7.416,32.35862,1678500930695,0.5021012,10.0,1935745572479000,2.4960093,Car
Fix,GPS,37.4224511872,-122.1579715005,7.65472314719003,4.0817947,6.930564,36.8446,1678500929000,0.031094704,10.0,1935746572399000,5.7090387,Car
Fix,FLP,37.4224345,-122.1579921,-10.0,4.0309668,7.281,34.6952,1678500931695,0.031094704,10.0,1935746572399000,2.5291035,Car
Fix,GPS,37.4224888044,-122.1579312993,7.397339827028465,4.210378,6.785634,36.434223,1678500930000,0.43584007,10.0,1935747572367000,5.5786185,Car
Fix,FLP,37.42247,-122.1579558,-10.0,4.147941,7.176,35.843285,1678500932694,0.43584007,10.0,1935747572367000,2.4860303,Car
Fix,GPS,37.4225251219,-122.1578923118,7.388969133541184,4.3111,6.862357,32.961258,1678500931000,0.4783732,10.0,1935748572401000,5.509847,Car
Fix,FLP,37.4224984,-122.1579295,-10.0,4.1498632,8.185,36.017773,1678500933663,,,1935748540510404,2.3602107,Car
Fix,GPS,37.4225615575,-122.1578576732,7.321628668646503,4.384629,6.697608,35.613026,1678500932000,0.07315147,10.0,1935749572395000,5.3923206,Car
Fix,FLP,37.4225295,-122.1578998,-10.0,4.21396,8.754,34.93585,1678500934748,,,1935749625617094,2.5374327,Car
Fix,GPS,37.4225966008,-122.1578221487,7.335108849231445,4.443488,6.7246323,34.287495,1678500933000,0.45917633,10.0,1935750572455000,5.351205,Car
Fix,FLP,37.4225624,-122.1578667,-10.0,4.2982507,9.082,35.06658,1678500935833,,,1935750710715910,1.7874984,Car
Fix,GPS,37.4226324841,-122.1577930893,7.325872927701918,4.471981,6.498953,34.038822,1678500934000,0.033990685,10.0,1935751572447000,5.2531652,Car
Fix,FLP,37.4225963,-122.1578331,-10.0,4.3884277,10.278,35.049576,1678500936376,,,1935751253265470,1.7979497,Car
Fix,GPS,37.4226672072,-122.1577641759,7.44993631689429,4.4860134,6.3398876,33.72392,1678500935000,0.04637862,10.0,1935752572441000,5.1762414,Car
Fix,FLP,37.4226305,-122.1578001,-11.813647342019737,4.4583907,11.611,34.81407,1678500937461,,,1935752338363371,2.059019,Car
Fix,GPS,37.4227040968,-122.1577363779,7.442541186334916,4.5122375,6.347121,33.94479,1678500936000,0.39031017,10.0,1935753572456000,5.146548,Car
Fix,FLP,37.4226676,-122.1577675,-11.84992027127901,4.531633,11.378,34.23107,1678500938546,,,1935753423458952,2.0160987,Car
Fix,FLP,37.4226915,-122.1577465,-11.84992027127901,4.594853,11.29,34.01511,1678500939088,,,1935753965992276,2.0160987,Car
Fix,GPS,37.4227396566,-122.1577052982,7.21657590054986,4.9457545,5.992922,34.02189,1678500937000,0.028017633,10.0,1935754572474000,5.0317793,Car
Fix,FLP,37.4227065,-122.1577337,-12.08236985562656,4.5864463,11.152,33.72916,1678500939631,,,1935754508553007,2.0485249,Car
Fix,GPS,37.4227753173,-122.1576741962,6.729718411530866,5.1510386,5.714084,34.563988,1678500938000,0.033625644,10.0,1935755572499000,4.940734,Car
Fix,FLP,37.4227616,-122.1576857,-12.485437609664997,5.1218443,10.154,33.982304,1678500940695,0.033625644,10.0,1935755572499000,1.9057138,Car
Fix,GPS,37.4228170724,-122.157643032,6.269556200355891,5.333462,5.4457364,34.9078,1678500939000,0.02743606,10.0,1935756572570000,4.8281355,Car
Fix,FLP,37.4228084,-122.1576479,-12.638179430318626,5.2898216,9.127,33.91049,1678500941695,0.02743606,10.0,1935756572570000,1.94416,Car
Fix,GPS,37.4228533379,-122.1576080537,6.185006454361951,5.496079,5.223199,34.12791,1678500940000,0.022780389,10.0,1935757572595000,4.732089,Car
Fix,FLP,37.4228506,-122.1576112,-12.739324668899265,5.4451613,8.092,33.876133,1678500942695,0.022780389,10.0,1935757572595000,2.014354,Car
Fix,GPS,37.4228941955,-122.1575738396,6.487272941057936,5.4694314,5.0651526,32.5149,1678500941000,0.037931792,10.0,1935758572944000,4.654838,Car
Fix,FLP,37.4228928,-122.1575756,-12.817481524364275,5.477102,7.21,32.577675,1678500943695,0.037931792,10.0,1935758572944000,1.727888,Car
Fix,GPS,37.4229318687,-122.1575405471,6.457383429938964,5.3621507,5.3294315,30.254463,1678500942000,0.06430711,10.0,1935759572645000,4.6057286,Car
Fix,FLP,37.4229333,-122.1575419,-12.87878051321388,5.4058905,5.355,30.911245,1678500944695,0.06430711,10.0,1935759572645000,1.7556841,Car
Fix,GPS,37.4229718674,-122.1575102066,6.628768064280113,5.055262,5.633713,23.48042,1678500943000,0.41278788,10.0,1935760572577000,4.721881,Car
Fix,FLP,37.4229738,-122.1575118,-12.920667899943036,5.1723075,5.339,25.983799,1678500945695,0.41278788,10.0,1935760572577000,1.7312256,Car
Fix,GPS,37.4230123056,-122.1574887604,6.788521056718863,4.839669,6.2082615,20.877491,1678500944000,0.4585854,10.0,1935761572999000,4.8418202,Car
Fix,FLP,37.4230143,-122.1574884,-12.9206539427214,4.9355073,5.491,22.22808,1678500946695,0.4585854,10.0,1935761572999000,1.8836291,Car
Fix,GPS,37.4230522484,-122.1574691593,6.497964019364224,4.6447964,6.607954,19.937521,1678500945000,0.48308066,10.0,1935762572650000,4.900931,Car
Fix,FLP,37.4230541,-122.1574687,-12.96867072086373,4.720154,5.768,20.208601,1678500947695,0.48308066,10.0,1935762572650000,1.9972196,Car
Fix,NLP,37.4268643,-122.155268,,,800.0,,1678500946063,,,1935760940000000,,Car
Fix,GPS,37.4230851336,-122.1574500576,6.404522428159408,3.3132503,7.008864,27.176243,1678500946000,0.4394239,10.0,1935763572655000,5.023677,Car
Fix,FLP,37.4231255,-122.1574345,-13.074408834513855,3.4288416,6.065,26.095163,1678500948695,0.4394239,10.0,1935763572655000,1.9489148,Car
Fix,GPS,37.4231133267,-122.1574326573,6.223701742837815,2.4596994,7.1778073,25.399685,1678500947000,0.45455208,10.0,1935764572786000,5.1658506,Car
Fix,FLP,37.4231374,-122.1574241,-13.191383274387611,2.6153228,6.54,25.07799,1678500949695,0.45455208,10.0,1935764572786000,1.8290539,Car
Fix,GPS,37.423128167,-122.1574215346,6.4177635126764265,0.94511825,7.385729,25.399685,1678500948000,0.41684636,13.382982,1935765572646000,5.2651935,Car
Fix,FLP,37.4231466,-122.157416,-13.21130452423791,1.1512414,6.832,22.92389,1678500950695,0.41684636,13.382982,1935765572646000,1.8394268,Car
Fix,GPS,37.4231292605,-122.1574133908,7.04518851554956,0.7946915,7.0064497,25.399685,1678500949000,0.04579271,10.212863,1935766572683000,5.0269136,Car
Fix,FLP,37.423146,-122.1574119,-13.283327112787411,0.79730064,6.899,25.083803,1678500951695,0.04579271,10.212863,1935766572683000,1.740597,Car
Fix,GPS,37.4231328235,-122.1574107396,7.186049245534288,0.75358605,6.6216364,25.399685,1678500950000,0.02526809,10.0,1935767572689000,4.9194465,Car
Fix,FLP,37.423145,-122.1574091,-12.686528920682118,0.7538871,7.04,25.017647,1678500952695,0.02526809,10.0,1935767572689000,1.5133921,Car
Fix,GPS,37.4231400332,-122.1574034848,7.420492091345182,1.2352277,6.29376,28.345028,1678500951000,0.0462492,10.0,1935768572786000,4.819682,Car
Fix,FLP,37.4231468,-122.1574046,-12.681420922561692,1.2246052,6.897,27.662546,1678500953695,0.0462492,10.0,1935768572786000,1.5229932,Car
Fix,GPS,37.4231584717,-122.1573928534,7.796013325361161,2.397557,5.9948664,28.284096,1678500952000,0.062354647,10.0,1935769572993000,4.7267966,Car
Fix,FLP,37.4231574,-122.1573959,-12.668140113001414,2.3159583,6.66,26.859327,1678500954695,0.062354647,10.0,1935769572993000,1.695223,Car
Fix,GPS,37.4231920763,-122.1573869344,8.920796603719452,3.9160688,5.726059,8.006149,1678500953000,0.06658216,10.0,1935770572730000,4.6266947,Car
Fix,FLP,37.4231832,-122.1573855,-12.307375215098345,3.9146793,6.328,10.488249,1678500955695,0.06658216,10.0,1935770572730000,2.7503421,Car
Fix,GPS,37.4232259443,-122.15738588,9.082496239798983,3.7170823,6.111455,346.29132,1678500954000,0.4319807,10.0,1935771572734000,4.671897,Car
Fix,FLP,37.4232209,-122.1573832,-12.28030251341798,3.6844413,6.149,352.7628,1678500956695,0.4319807,10.0,1935771572734000,2.7607684,Car
Fix,GPS,37.4232563758,-122.1574102446,8.779712027388365,3.8390567,6.4497776,329.463,1678500955000,0.53130776,10.0,1935772572750000,4.7831254,Car
Fix,FLP,37.4232545,-122.157399,-12.337001845881598,3.731645,6.115,335.0798,1678500957694,0.53130776,10.0,1935772572750000,2.7936566,Car
Fix,NLP,37.4235954,-122.1576705,-11.90000057220459,,23.809,,1678500958729,,,1935773607000000,1.0,Car
Fix,GPS,37.4232849078,-122.1574514763,8.532147022160238,5.0649004,6.8409452,309.49796,1678500956000,0.79942626,10.0,1935773572932000,4.9440594,Car
Fix,FLP,37.4232849,-122.1574353,-12.258848612771663,5.011271,6.224,309.5955,1678500958695,0.79942626,10.0,1935773572932000,2.751794,Car
Fix,GPS,37.4233109231,-122.1575208554,8.966046388372433,6.397027,7.2697134,297.4869,1678500957000,0.50960857,10.0,1935774572796000,5.255807,Car
Fix,FLP,37.423312,-122.1575033,-11.90000057220459,6.3701534,6.525,297.2554,1678500959695,0.50960857,10.0,1935774572796000,1.8445171,Car
Fix,GPS,37.4233387906,-122.1576071725,7.773070523822137,7.154274,7.5194907,303.25177,1678500958000,0.43418622,10.0,1935775573065000,5.555729,Car
Fix,FLP,37.4233387,-122.1575886,-11.90000057220459,7.1205926,6.912,302.70474,1678500960696,0.43418622,10.0,1935775573065000,1.6365515,Car
Fix,GPS,37.4233792397,-122.1577068659,8.472613067231778,7.9040265,7.1397963,301.47958,1678500959000,0.0740634,10.0,1935776572812000,5.211033,Car
Fix,FLP,37.4233767,-122.1576852,-11.90000057220459,7.8829074,7.083,300.98523,1678500961695,0.0740634,10.0,1935776572812000,1.6433582,Car
Fix,GPS,37.4234206613,-122.1577873045,8.68650055169288,8.319713,6.7810516,301.5685,1678500960000,0.04734374,10.0,1935777572845000,5.125407,Car
Fix,FLP,37.4234177,-122.1577768,-11.90000057220459,8.305096,7.139,300.9526,1678500962695,0.04734374,10.0,1935777572845000,1.6496146,Car
Fix,GPS,37.4234551158,-122.1578835681,8.375931206050902,8.680006,6.479271,301.81897,1678500961000,0.058062233,10.0,1935778572925000,5.0266757,Car
Fix,FLP,37.4234556,-122.1578733,-11.90000057220459,8.665696,7.044,300.94638,1678500963695,0.058062233,10.0,1935778572925000,1.492525,Car
Fix,GPS,37.4234901793,-122.15797595,8.431827664636847,8.884723,6.224423,302.6064,1678500962000,0.054208737,10.0,1935779572855000,4.9383335,Car
Fix,FLP,37.4234923,-122.1579689,-11.90000057220459,8.87221,6.828,301.9007,1678500964694,0.054208737,10.0,1935779572855000,1.8504266,Car
Fix,GPS,37.4235293833,-122.1580648549,8.360170384896481,8.884435,6.5361223,305.21173,1678500963000,0.36674005,10.0,1935780572866000,5.0174384,Car
Fix,FLP,37.4235315,-122.1580605,-11.90000057220459,8.876227,6.779,304.80475,1678500965695,0.36674005,10.0,1935780572866000,1.8827288,Car
Fix,GPS,37.4235752331,-122.1581518424,8.52484118003858,8.762305,6.9080954,305.0158,1678500964000,0.5378132,10.0,1935781572925000,5.123586,Car
Fix,FLP,37.423576,-122.158148,-11.90000057220459,8.767985,6.585,304.99265,1678500966695,0.5378132,10.0,1935781572925000,1.7543423,Car
Fix,GPS,37.4236217936,-122.1582383212,8.441157336708727,9.184864,7.088645,300.9806,1678500965000,0.39493838,10.0,1935782572942000,5.220457,Car
Fix,FLP,37.4236215,-122.1582346,-11.90000057220459,9.180539,6.647,300.27158,1678500967695,0.39493838,10.0,1935782572942000,1.8468379,Car
Fix,GPS,37.4236677324,-122.1583303711,8.397165217944247,9.355944,7.260173,300.52423,1678500966000,0.42245972,10.0,1935783573305000,5.4135394,Car
Fix,FLP,37.4236657,-122.1583278,-11.90000057220459,9.349441,6.803,300.00403,1678500968696,0.42245972,10.0,1935783573305000,1.8572521,Car
Fix,GPS,37.4237165777,-122.1584324722,8.970335145576037,10.123861,6.8868074,301.22958,1678500967000,0.05493469,10.0,1935784573077000,5.2334075,Car
Fix,FLP,37.4237132,-122.1584272,-11.90000057220459,10.082141,6.936,300.8357,1678500969696,0.05493469,10.0,1935784573077000,1.5986236,Car
Fix,GPS,37.423758379,-122.158528234,9.13181537517834,9.66679,7.065502,299.1193,1678500968000,0.35929862,10.0,1935785572927000,5.3142877,Car
Fix,FLP,37.4237588,-122.1585269,-11.90000057220459,9.69341,7.042,299.1968,1678500970695,0.35929862,10.0,1935785572927000,1.621197,Car
Fix,GPS,37.4237976214,-122.1586343266,9.6727797643631,10.114367,6.7369576,296.15747,1678500969000,0.11008432,10.0,1935786573037000,5.2132792,Car
Fix,FLP,37.423799,-122.1586297,-11.90000057220459,10.111405,7.007,296.18295,1678500971696,0.11008432,10.0,1935786573037000,1.7446632,Car
Fix,GPS,37.4238299686,-122.1587319032,9.351784019166548,10.427867,6.8891563,292.25974,1678500970000,0.3457967,10.0,1935787572954000,5.2394032,Car
Fix,FLP,37.4238336,-122.1587322,-11.90000057220459,10.434879,6.967,292.31882,1678500972695,0.3457967,10.0,1935787572954000,1.7518113,Car
Fix,GPS,37.4238630043,-122.1588414863,9.288838780970606,10.733153,7.0845523,286.4418,1678500971000,0.37612656,10.0,1935788572965000,5.3040886,Car
Fix,FLP,37.4238652,-122.1588416,-11.90000057220459,10.754984,6.987,286.62827,1678500973695,0.37612656,10.0,1935788572965000,1.788467,Car
Fix,GPS,37.423887294,-122.1589569631,8.946406767235569,10.624211,7.3821344,280.48483,1678500972000,0.4867692,10.0,1935789572970000,5.389206,Car
Fix,FLP,37.4238892,-122.1589577,-11.90000057220459,10.64875,7.007,280.79376,1678500974695,0.4867692,10.0,1935789572970000,1.798114,Car
Fix,GPS,37.4239073423,-122.1590783967,8.822769227387912,11.122443,7.5391903,282.63284,1678500973000,0.43651918,10.0,1935790572987000,5.4772954,Car
Fix,FLP,37.4239074,-122.1590774,-11.90000057220459,11.107164,7.126,281.7942,1678500975695,0.43651918,10.0,1935790572987000,1.4153274,Car
Fix,GPS,37.4239309758,-122.1592014471,8.481595361333452,11.029871,7.682054,284.42117,1678500974000,0.39733884,10.0,1935791573004000,5.5659947,Car
Fix,FLP,37.4239298,-122.159201,-11.90000057220459,11.021043,7.219,283.7513,1678500976696,0.39733884,10.0,1935791573004000,1.4257281,Car
Fix,GPS,37.4239566216,-122.1593187426,8.26397836942541,10.362248,7.728073,283.79703,1678500975000,0.36126038,10.0,1935792573033000,5.601045,Car
Fix,FLP,37.423955,-122.1593203,-11.90000057220459,10.378336,7.483,283.18256,1678500977696,0.36126038,10.0,1935792573033000,1.2618158,Car
Fix,GPS,37.4239778269,-122.1594365908,8.372881884644336,10.305508,7.708103,285.09702,1678500976000,0.37475806,10.0,1935793573031000,5.670596,Car
Fix,FLP,37.4239773,-122.1594358,-11.90000057220459,10.299261,7.607,284.81644,1678500978695,0.37475806,10.0,1935793573031000,1.3449427,Car
Fix,GPS,37.4240060964,-122.1595556188,8.40810765668413,10.256719,7.1895103,285.07953,1678500977000,0.03825979,10.0,1935794573046000,5.328553,Car
Fix,FLP,37.424004,-122.1595526,-11.90000057220459,10.257474,7.569,285.00403,1678500979696,0.03825979,10.0,1935794573046000,1.4086611,Car
Fix,GPS,37.424030688,-122.1596690653,8.362679870943754,9.621901,7.232815,283.4228,1678500978000,0.3379739,10.0,1935795573215000,5.3376265,Car
Fix,FLP,37.4240293,-122.1596672,-11.90000057220459,9.639942,7.508,283.2945,1678500980696,0.3379739,10.0,1935795573215000,1.3935566,Car
Fix,GPS,37.4240501531,-122.1597788718,8.307656415812389,9.136843,7.2019625,283.08963,1678500979000,0.3821132,10.0,1935796573078000,5.3755627,Car
Fix,FLP,37.4240498,-122.1597765,-11.90000057220459,9.146286,7.412,283.0878,1678500981696,0.3821132,10.0,1935796573078000,1.824975,Car
Fix,GPS,37.4240742182,-122.1598894307,7.636756959920419,9.064527,6.6924963,284.38864,1678500980000,0.038911454,10.0,1935797573083000,5.2260056,Car
Fix,FLP,37.424072,-122.1598845,-11.90000057220459,9.063243,7.205,283.94562,1678500982696,0.038911454,10.0,1935797573083000,1.8345796,Car
Fix,GPS,37.4240950187,-122.1599863197,7.75477580518613,8.266948,7.142531,284.43195,1678500981000,0.4399202,10.0,1935798573327000,5.275373,Car
Fix,FLP,37.4240935,-122.1599853,-11.90000057220459,8.281567,7.092,284.08813,1678500983696,0.4399202,10.0,1935798573327000,1.8607371,Car
Fix,GPS,37.4241138867,-122.1600717418,8.002500707434086,7.135061,7.593279,287.12128,1678500982000,0.5118433,10.0,1935799573146000,5.340062,Car
Fix,FLP,37.4241129,-122.1600738,-11.90000057220459,7.1539984,7.172,286.9226,1678500984696,0.5118433,10.0,1935799573146000,1.8393494,Car
Fix,GPS,37.4241330154,-122.1601437601,8.150426949014875,6.074544,8.118554,290.87607,1678500983000,0.6561764,10.0,1935800573181000,5.467093,Car
Fix,FLP,37.4241323,-122.1601474,-11.90000057220459,6.099793,7.33,289.91745,1678500985696,0.6561764,10.0,1935800573181000,2.0139172,Car
Fix,GPS,37.4241445951,-122.1601823654,8.531470581067484,3.993528,7.982659,290.57657,1678500984000,0.074537925,10.0,1935801573181000,5.320035,Car
Fix,FLP,37.4241475,-122.1601964,-11.90000057220459,4.0034986,7.506,290.1544,1678500986696,0.074537925,10.0,1935801573181000,2.0238833,Car
Fix,GPS,37.4241513424,-122.1602138863,9.07052581579759,2.906902,7.8740206,291.94275,1678500985000,0.069646984,10.0,1935802573306000,5.259615,Car
Fix,FLP,37.4241553,-122.1602258,-11.90000057220459,2.9098825,7.742,291.05066,1678500987696,0.069646984,10.0,1935802573306000,1.8990064,Car
Fix,GPS,37.4241587426,-122.1602444364,9.205744005869208,2.2952197,8.141392,297.7832,1678500986000,0.53287923,12.34395,1935803573205000,5.311372,Car
Fix,FLP,37.4241616,-122.1602504,-11.90000057220459,2.3030286,7.808,296.90128,1678500988695,0.53287923,12.34395,1935803573205000,1.909063,Car
Fix,NLP,37.424533,-122.1603489,-10.40000057220459,,48.9,,1678500988720,,,1935803597000000,7.123377,Car
Fix,GPS,37.4241669178,-122.1602686733,9.551810608501391,2.0430527,8.44443,296.20444,1678500987000,0.5162613,12.981517,1935804573398000,5.445943,Car
Fix,FLP,37.4241685,-122.1602702,-11.90000057220459,2.046026,8.168,296.00607,1678500989696,0.5162613,12.981517,1935804573398000,1.9274439,Car
Fix,GPS,37.4241740537,-122.1602914636,9.982715453283111,1.6145388,8.7499275,292.92822,1678500988000,0.6128615,19.30989,1935805573575000,5.65227,Car
Fix,FLP,37.4241754,-122.1602912,-11.90000057220459,1.6215093,8.273,292.06042,1678500990696,0.6128615,19.30989,1935805573575000,1.933519,Car
Fix,GPS,37.4241759504,-122.1602954268,10.695114826217567,0.861029,8.401792,292.92822,1678500989000,0.11422696,32.076454,1935806573422000,5.501645,Car
Fix,FLP,37.4241784,-122.1603017,-11.90000057220459,0.8633762,8.343,292.12946,1678500991696,0.11422696,32.076454,1935806573422000,1.9616915,Car
Fix,GPS,37.4241793948,-122.1602939421,11.489950480086527,0.0,8.132884,292.92822,1678500990000,0.11798923,95.40185,1935807573391000,5.457723,Car
Fix,FLP,37.4241803,-122.160302,-11.90000057220459,0.00045948935,8.386,,1678500992696,0.11798923,,1935807573391000,1.8668412,Car
Fix,NLP,37.4245282,-122.1603572,-10.40000057220459,,32.099,,1678500993740,,,1935808617000000,4.297532,Car
Fix,FLP,37.4241802,-122.1603009,-11.90000057220459,0.00042214384,11.085,,1678500993739,0.11798923,,1935808617000000,1.8067787,Car
Fix,GPS,37.4241793948,-122.1602939421,11.716880152579682,0.0,7.899022,292.92822,1678500991000,0.11201177,21.339193,1935808573583000,5.4104247,Car
Fix,GPS,37.4241866816,-122.1602985165,12.17544012953612,1.4370425,7.7993274,302.96527,1678500992000,0.5230872,19.139336,1935809573259000,5.3803687,Car
Fix,FLP,37.4241854,-122.1603009,-11.90000057220459,1.427894,10.241,302.05743,1678500994696,0.5230872,19.139336,1935809573259000,1.5718821,Car
Fix,NLP,37.4245324,-122.1603502,-10.40000057220459,,45.6,,1678500995096,,,1935809973000000,4.735779,Car
Fix,FLP,37.4241878,-122.1603046,-10.40000057220459,1.4268152,10.891,302.0736,1678500995096,0.5230872,19.139336,1935809973000000,1.7234743,Car
Fix,GPS,37.4241950776,-122.1603155645,12.621688207264343,2.536327,8.224956,293.03082,1678500993000,0.5636455,11.562038,1935810573302000,5.5229344,Car
Fix,FLP,37.4241937,-122.1603158,-10.40000057220459,2.5202756,10.558,293.0903,1678500995696,0.5636455,11.562038,1935810573302000,1.634282,Car
Fix,GPS,37.4242072407,-122.1603476725,12.905362029627886,3.441792,8.556045,294.65372,1678500994000,0.59275955,10.0,1935811573319000,5.7159004,Car
Fix,FLP,37.4242049,-122.1603449,-10.40000057220459,3.4266284,10.534,293.9873,1678500996696,0.59275955,10.0,1935811573319000,1.7132725,Car
Fix,GPS,37.424224242,-122.1603884814,13.199738470446682,3.986856,8.826572,301.0855,1678500995000,0.65458775,10.0,1935812573382000,5.986762,Car
Fix,FLP,37.4242207,-122.1603843,-10.40000057220459,3.9745464,10.587,300.86703,1678500997696,0.65458775,10.0,1935812573382000,1.8336444,Car
Fix,GPS,37.4242564665,-122.1604436814,12.956172639709251,5.3512087,8.5914345,302.77017,1678500996000,0.08091968,10.0,1935813573688000,5.658252,Car
Fix,FLP,37.4242479,-122.1604335,-10.40000057220459,5.3283157,10.956,301.86856,1678500998696,0.08091968,10.0,1935813573688000,1.8078736,Car
Fix,GPS,37.424287225,-122.1605002001,13.171449249319634,5.205713,8.787303,288.43942,1678500997000,0.47762364,10.0,1935814573390000,5.7061486,Car
Fix,FLP,37.4242799,-122.1604923,-10.40000057220459,5.213592,9.33,288.4609,1678500999695,0.47762364,10.0,1935814573390000,1.5162133,Car
Fix,NLP,37.4245527,-122.1603385,-10.40000057220459,,52.4,,1678501000186,,,1935815063000000,5.937324,Car
Fix,FLP,37.4242872,-122.1605159,-10.40000057220459,5.211769,9.689,288.46768,1678501000186,0.47762364,10.0,1935815063000000,1.5668529,Car
Fix,GPS,37.4242896263,-122.1605696802,14.469119178910503,5.6489844,8.5255785,267.0929,1678500998000,0.05222214,10.0,1935815573374000,5.6263947,Car
Fix,FLP,37.4242899,-122.1605576,-10.40000057220459,5.645096,9.739,267.84714,1678501000696,0.05222214,10.0,1935815573374000,1.892759,Car
Fix,GPS,37.4242879236,-122.1606353037,14.79484050034783,5.549173,8.756136,254.16637,1678500999000,0.4774173,10.0,1935816573718000,5.694708,Car
Fix,FLP,37.4242877,-122.1606281,-10.40000057220459,5.539142,9.773,254.52422,1678501001695,0.4774173,10.0,1935816573718000,1.880385,Car
Fix,GPS,37.4242725098,-122.1606974412,15.138824541372916,5.481891,9.041067,238.3794,1678501000000,0.51147,10.0,1935817573763000,5.763668,Car
Fix,FLP,37.4242732,-122.1606927,-10.40000057220459,5.469549,9.808,238.49359,1678501002696,0.51147,10.0,1935817573763000,2.0531092,Car
Fix,GPS,37.4242456302,-122.1607333475,15.08012943050951,4.52073,9.080281,226.89587,1678501001000,0.69146216,10.0,1935818573580000,5.8485703,Car
Fix,FLP,37.4242465,-122.1607395,-10.40000057220459,4.5413723,9.704,226.37341,1678501003696,0.69146216,10.0,1935818573580000,2.1521049,Car
Fix,GPS,37.4242137865,-122.1607542345,14.805601410254353,3.3773422,9.095619,212.55646,1678501002000,0.8119544,12.817435,1935819573556000,5.9339848,Car
Fix,FLP,37.4242162,-122.1607657,-10.40000057220459,3.4055107,9.941,212.50436,1678501004696,0.8119544,12.817435,1935819573556000,2.3598664,Car
Fix,NLP,37.4246386,-122.1602398,-10.5,,128.899,,1678501005187,,,1935820064000000,35.448284,Car
Fix,FLP,37.4242055,-122.1607717,-10.5,3.4009113,9.995,212.46806,1678501005187,0.8119544,12.817435,1935820064000000,10.631884,Car
Fix,GPS,37.4241780584,-122.1607284352,14.885538533177789,3.1615665,8.5905075,175.19489,1678501003000,0.039464153,10.0,1935820573760000,5.828312,Car
Fix,FLP,37.4241852,-122.1607531,-10.5,3.1595473,10.005,175.43187,1678501005696,0.039464153,10.0,1935820573760000,10.501759,Car
Fix,GPS,37.4241637093,-122.1607315249,15.25728339751481,1.8517383,8.288786,173.02165,1678501004000,0.08344353,10.0,1935821573754000,5.783307,Car
Fix,FLP,37.4241603,-122.1607407,-10.5,1.8522854,9.928,172.99677,1678501006696,0.08344353,10.0,1935821573754000,10.868598,Car
Fix,GPS,37.4241443097,-122.1607260063,15.429267007754197,1.089339,8.41819,165.31369,1678501005000,0.49270695,21.132698,1935822573499000,5.8101187,Car
Fix,FLP,37.424144,-122.160732,-10.5,1.0977993,9.712,165.14153,1678501007696,0.49270695,21.132698,1935822573499000,11.178667,Car
Fix,GPS,37.4241382251,-122.1607203828,15.574107427900492,0.3192597,8.124156,165.31369,1678501006000,0.07993839,65.57502,1935823573494000,5.731193,Car
Fix,FLP,37.4241365,-122.1607245,-10.5,0.32008356,9.581,164.81868,1678501008696,0.07993839,65.57502,1935823573494000,11.430615,Car
Fix,GPS,37.4241355761,-122.1607163987,15.829762456438791,0.0,7.8909836,165.31369,1678501007000,0.08380521,180.0,1935824573533000,5.655539,Car
Fix,FLP,37.4241347,-122.1607197,-10.5,9.7258126e-05,9.411,,1678501009696,0.08380521,,1935824573533000,3.793124,Car
Fix,NLP,37.424656,-122.1602342,-10.5,,98.4,,1678501010704,,,1935825581000000,18.49,Car
Fix,FLP,37.4241348,-122.1607193,-10.5,9.4308634e-05,10.742,,1678501010704,0.08380521,,1935825581000000,3.0953803,Car
Fix,GPS,37.4241321919,-122.1607137474,16.129440570642522,0.39408708,7.7034454,165.31369,1678501008000,0.079236634,93.529625,1935825573522000,5.5908723,Car
Fix,GPS,37.4241287028,-122.1607127522,16.29581943827756,0.0,7.992697,165.31369,1678501009000,0.45933565,23.283646,1935826573507000,5.656612,Car
Fix,FLP,37.4241307,-122.1607143,-10.5,0.00078300614,9.929,,1678501011696,0.45933565,,1935826573507000,3.3728786,Car
Fix,GPS,37.42412115,-122.1607099888,16.24799270677317,1.1489203,7.9186406,169.78517,1678501010000,0.5718852,21.17723,1935827573550000,5.6151404,Car
Fix,FLP,37.4241255,-122.160712,-10.5,1.1319122,10.119,168.93256,1678501012696,0.5718852,21.17723,1935827573550000,3.6747246,Car
Fix,GPS,37.4240980997,-122.1607084799,16.548931867043827,2.886633,8.278774,179.67642,1678501011000,0.53873277,10.0,1935828573584000,5.7235384,Car
Fix,FLP,37.4241066,-122.160709,-10.5,2.8627326,10.145,178.95164,1678501013696,0.53873277,10.0,1935828573584000,3.8471258,Car
Fix,GPS,37.4240496108,-122.1607025782,16.099252813572708,5.5501723,7.912696,181.65219,1678501012000,0.049564175,10.0,1935829573614000,5.574356,Car
Fix,FLP,37.4240641,-122.1607053,-10.5,5.549716,10.148,180.93335,1678501014695,0.049564175,10.0,1935829573614000,3.6932046,Car
Fix,GPS,37.4239896694,-122.1607050989,15.822506913071887,6.362521,7.593102,188.41771,1678501013000,0.03675947,10.0,1935830573643000,5.4723845,Car
Fix,FLP,37.4240008,-122.1607058,-10.5,6.3558965,10.114,187.62527,1678501015696,0.03675947,10.0,1935830573643000,3.600657,Car
Fix,NLP,37.4246482,-122.1602399,-10.5,,116.1,,1678501015738,,,1935830615000000,26.6256,Car
Fix,GPS,37.4239195907,-122.1607186624,15.89470874001062,7.3209453,7.344908,191.84024,1678501014000,0.041240517,10.0,1935831573653000,5.3862367,Car
Fix,FLP,37.4239299,-122.1607172,-10.5,7.311672,7.863,190.72437,1678501016696,0.041240517,10.0,1935831573653000,6.720426,Car
Fix,GPS,37.4238461217,-122.1607364215,15.896796572802383,8.154409,7.1430287,192.6127,1678501015000,0.049787536,10.0,1935832573974000,5.312992,Car
Fix,FLP,37.4238546,-122.1607349,-10.5,8.145711,7.733,191.82556,1678501017696,0.049787536,10.0,1935832573974000,4.0880527,Car
Fix,GPS,37.4237728022,-122.1607556461,15.654731213703966,8.645002,7.4986935,192.26602,1678501016000,0.50414556,10.0,1935833573647000,5.3790655,Car
Fix,FLP,37.4237775,-122.1607548,-10.5,8.635164,7.603,191.94008,1678501018696,0.50414556,10.0,1935833573647000,7.7182307,Car
Fix,GPS,37.4236919034,-122.1607753953,15.44578083675626,8.9665365,7.8576813,193.92323,1678501017000,0.5192405,10.0,1935834573773000,5.492004,Car
Fix,FLP,37.4236965,-122.1607754,-10.5,8.956885,7.594,192.87364,1678501019696,0.5192405,10.0,1935834573773000,6.6028833,Car
Fix,GPS,37.4236068001,-122.1607944788,15.420008871458844,9.392588,8.183228,194.59921,1678501018000,0.56187415,10.0,1935835573656000,5.653024,Car
Fix,FLP,37.4236123,-122.1607963,-10.40000057220459,9.378008,7.693,193.84045,1678501020696,0.56187415,10.0,1935835573656000,3.6570287,Car
Fix,GPS,37.4235178504,-122.1608223808,15.544484578955132,9.592552,8.507456,195.81596,1678501019000,0.5387551,10.0,1935836573769000,5.8821216,Car
Fix,FLP,37.4235242,-122.1608222,-8.686336846491471,9.583208,7.838,194.8642,1678501021696,0.5387551,10.0,1935836573769000,3.6666508,Car
Fix,NLP,37.4248419,-122.1609453,,,600.0,,1678501019978,,,1935834855000000,,Car
Fix,GPS,37.4234282062,-122.160848336,15.920426693517513,9.769015,8.814602,194.9923,1678501020000,0.557257,10.0,1935837574016000,6.15088,Car
Fix,FLP,37.4233773,-122.1608659,-10.5,9.765979,8.228,193.99074,1678501022696,0.557257,10.0,1935837574016000,4.151493,Car
Fix,GPS,37.4233392676,-122.1608788874,16.521491321732746,9.743852,9.146447,196.13579,1678501021000,0.60126793,10.0,1935838573732000,6.439762,Car
Fix,FLP,37.4233158,-122.1608856,-10.5,9.735313,8.502,195.78146,1678501023696,0.60126793,10.0,1935838573732000,4.2651024,Car
Fix,GPS,37.4232475904,-122.1609098034,17.46839562536771,9.653097,9.440837,199.92505,1678501022000,0.56904745,10.0,1935839573918000,6.656822,Car
Fix,FLP,37.4232391,-122.1609131,-8.3137998250767,9.642345,8.766,198.70015,1678501024696,0.56904745,10.0,1935839573918000,3.6322668,Car
Fix,GPS,37.4231597403,-122.1609449658,18.86655828449274,9.334195,9.681877,200.54466,1678501023000,0.49360517,10.0,1935840574065000,6.9181194,Car
Fix,FLP,37.4231582,-122.1609467,-8.2085257574095,9.3388195,9.118,199.92291,1678501025697,0.49360517,10.0,1935840574065000,3.6422646,Car
Fix,GPS,37.4230767041,-122.1609826024,20.16954792245208,8.978441,9.819454,204.01111,1678501024000,0.4668484,10.0,1935841573754000,7.141193,Car
Fix,FLP,37.4230782,-122.1609829,-8.645137719581573,8.976798,9.235,203.7306,1678501026696,0.4668484,10.0,1935841573754000,4.582211,Car
Fix,GPS,37.4230046995,-122.1610296266,21.473177915142216,7.9582667,9.399449,209.1596,1678501025000,0.0506194,10.0,1935842573783000,6.5761876,Car
Fix,FLP,37.4230046,-122.1610268,-8.584834321782882,7.9743614,9.383,208.81927,1678501027696,0.0506194,10.0,1935842573783000,4.592234,Car
Fix,GPS,37.4229382871,-122.1610728199,22.048479853239854,7.329789,9.457012,209.47911,1678501026000,0.44454846,10.0,1935843574087000,6.586943,Car
Fix,FLP,37.4229402,-122.1610714,-8.048567989848113,7.350141,9.559,209.0574,1678501028697,0.44454846,10.0,1935843574087000,3.7554429,Car
Fix,GPS,37.4228851294,-122.1611060847,22.061736755529207,6.108997,9.335234,209.92403,1678501027000,0.53249717,10.0,1935844574345000,6.5642467,Car
Fix,FLP,37.4228838,-122.1611089,-8.024037457495108,6.1418343,9.538,209.09117,1678501029697,0.53249717,10.0,1935844574345000,12.156511,Car
Fix,GPS,37.4228296112,-122.1611475496,22.0751324615562,4.764255,9.369237,220.29079,1678501028000,0.48537484,10.0,1935845573815000,6.6046147,Car
Fix,FLP,37.4228329,-122.161145,-8.024037457495108,4.7890687,9.51,219.7263,1678501030696,0.48537484,10.0,1935845573815000,12.166519,Car
Fix,GPS,37.4227893712,-122.1611787743,21.93169905770398,3.8271751,9.332614,225.03807,1678501029000,0.4542839,10.0,1935846574107000,6.648585,Car
Fix,FLP,37.4227949,-122.1611792,-7.942779560624274,3.8414972,9.378,224.8992,1678501031697,0.4542839,10.0,1935846574107000,12.176521,Car
Fix,GPS,37.4227609128,-122.1612087855,22.273385025497603,3.3078132,9.375147,221.37216,1678501030000,0.46573755,10.0,1935847573881000,6.7225385,Car
Fix,FLP,37.422766,-122.1612094,-8.036989616684636,3.3146768,9.373,221.06093,1678501032696,0.46573755,10.0,1935847573881000,10.386332,Car
Fix,GPS,37.4227377881,-122.1612357004,22.29091602534436,3.308185,9.382165,223.41695,1678501031000,0.44848984,10.0,1935848573881000,6.8116174,Car
Fix,FLP,37.4227408,-122.1612348,-7.716377652561217,3.3082454,9.375,222.9754,1678501033696,0.44848984,10.0,1935848573881000,12.166189,Car
Fix,GPS,37.4227164543,-122.1612625801,22.192538386325023,3.6143005,9.377515,232.42842,1678501032000,0.47482446,10.0,1935849573884000,6.920708,Car
Fix,FLP,37.4227179,-122.1612615,-8.611820450070116,3.609831,9.362,231.883,1678501034696,0.47482446,10.0,1935849573884000,9.430189,Car
Fix,GPS,37.4226980161,-122.1613082774,22.57089899187582,4.8509283,9.231569,245.73329,1678501033000,0.439072,10.0,1935850573893000,7.0318346,Car
Fix,FLP,37.4226979,-122.1613008,-8.413007615936134,4.8342605,9.34,244.84103,1678501035696,0.439072,10.0,1935850573893000,9.516546,Car
Fix,GPS,37.4226744048,-122.1613843187,22.71585048629507,5.732853,8.620884,254.72002,1678501034000,0.038579512,10.0,1935851573921000,6.664498,Car
Fix,FLP,37.4226769,-122.1613677,-7.690451704916651,5.734425,9.22,253.79753,1678501036696,0.038579512,10.0,1935851573921000,10.061448,Car
Fix,GPS,37.4226562328,-122.161457101,22.9062058903208,6.318701,8.266385,252.47081,1678501035000,0.04673065,10.0,1935852573950000,6.5529804,Car
Fix,FLP,37.4226591,-122.1614441,-8.330721244474947,6.3109283,8.975,252.13503,1678501037696,0.04673065,10.0,1935852573950000,8.992928,Car
Fix,NLP,37.422697,-122.1609028,-6.499999523162842,,110.0,,1678501037748,,,1935852625000000,23.401405,Car
Fix,GPS,37.4226372741,-122.1615294684,22.93480465700789,6.379073,8.344118,240.97916,1678501036000,0.4165087,10.0,1935853573944000,6.5581856,Car
Fix,FLP,37.4226387,-122.1615218,-8.298010911590598,6.361836,8.795,240.46043,1678501038696,0.4165087,10.0,1935853573944000,4.254684,Car
Fix,GPS,37.4225938192,-122.1615806224,22.86122418431344,5.954343,8.040165,219.95253,1678501037000,0.04730053,10.0,1935854573964000,6.4274387,Car
Fix,FLP,37.4226015,-122.1615823,-8.330721244474947,5.966183,8.572,219.56888,1678501039696,0.04730053,10.0,1935854573964000,4.2358446,Car
Fix,GPS,37.422551848,-122.1616245322,22.69351434583779,5.4322968,8.263004,205.79803,1678501038000,0.5041974,10.0,1935855573994000,6.431249,Car
Fix,FLP,37.4225558,-122.1616247,-8.330721244474947,5.4500356,8.41,205.52995,1678501040696,0.5041974,10.0,1935855573994000,4.130491,Car
Fix,GPS,37.4225166277,-122.161630508,21.655246826817063,5.046241,8.320858,186.57451,1678501039000,0.5603044,10.0,1935856574241000,6.404398,Car
Fix,FLP,37.4225141,-122.1616403,-8.227478825595206,5.051577,8.36,186.70251,1678501041697,0.5603044,10.0,1935856574241000,8.030111,Car
Fix,GPS,37.4224698363,-122.1616255799,21.67248741221071,5.7527056,8.577194,168.24754,1678501040000,0.7363431,10.0,1935857574079000,6.467896,Car
Fix,FLP,37.4224693,-122.161636,-6.499999523162842,5.7215776,8.412,168.725,1678501042697,0.7363431,10.0,1935857574079000,5.807616,Car
Fix,GPS,37.4224247212,-122.1615867598,21.756620194961247,6.02124,8.679653,155.61443,1678501041000,0.8633219,10.0,1935858574249000,6.554752,Car
Fix,FLP,37.4224217,-122.1616048,-6.499999523162842,5.999829,8.376,155.56718,1678501043697,0.8633219,10.0,1935858574249000,7.595253,Car
Fix,GPS,37.422404937,-122.1614847457,21.472475506440446,7.481076,8.272334,119.30722,1678501042000,0.050629098,10.0,1935859574080000,6.3707566,Car
Fix,FLP,37.4223897,-122.1615275,-6.499999523162842,7.46919,8.422,119.95105,1678501044697,0.050629098,10.0,1935859574080000,7.000129,Car
Fix,GPS,37.4223818478,-122.1613958391,21.281481417486702,7.9625998,8.402637,118.8001,1678501043000,0.4311563,10.0,1935860574412000,6.3777657,Car
Fix,FLP,37.4223693,-122.1614245,-6.499999523162842,7.948418,8.45,118.01938,1678501045697,0.4311563,10.0,1935860574412000,5.8478446,Car
Fix,GPS,37.4223538695,-122.1613052994,21.145609992292098,7.9645133,8.5291,128.67291,1678501044000,0.46105278,10.0,1935861574152000,6.433706,Car
Fix,FLP,37.4223446,-122.1613253,-6.499999523162842,7.947677,8.463,127.49007,1678501046697,0.46105278,10.0,1935861574152000,5.914412,Car
Fix,GPS,37.4223064303,-122.1612287187,21.25750518709684,8.919616,8.5402775,140.14192,1678501045000,0.48951194,10.0,1935862574095000,6.527962,Car
Fix,FLP,37.4223033,-122.1612413,-4.584940935874911,8.86961,8.484,139.39261,1678501047697,0.48951194,10.0,1935862574095000,5.2207465,Car
Fix,GPS,37.4222307219,-122.1611530296,22.11983830397038,9.986998,8.1760645,141.71423,1678501046000,0.07476032,10.0,1935863574433000,6.3631997,Car
Fix,FLP,37.4222361,-122.1611636,-4.189704960077222,9.923805,8.384,140.96893,1678501048697,0.07476032,10.0,1935863574433000,5.1978245,Car
Fix,GPS,37.4221536475,-122.1610788006,22.01901809972745,10.515157,7.9267344,142.17703,1678501047000,0.063362114,10.0,1935864574070000,6.264744,Car
Fix,FLP,37.4221595,-122.1610851,-3.9043872986340418,10.481389,8.307,141.96754,1678501049697,0.063362114,10.0,1935864574070000,5.2794876,Car
Fix,GPS,37.422072758,-122.1610045589,21.79909378414409,10.964269,7.733735,142.55013,1678501048000,0.05893146,10.0,1935865574109000,6.163891,Car
Fix,FLP,37.4220783,-122.1610077,-3.35222880749474,10.932412,8.218,142.03409,1678501050697,0.05893146,10.0,1935865574109000,5.584504,Car
Fix,GPS,37.4219966538,-122.1609336974,21.844663054676328,11.186149,7.478284,141.6691,1678501049000,0.06492723,10.0,1935866574321000,6.0709376,Car
Fix,FLP,37.4219985,-122.1609326,-3.311833165720301,11.164428,7.971,141.10454,1678501051696,0.06492723,10.0,1935866574321000,5.594504,Car
Fix,GPS,37.4219148199,-122.1608565679,21.91778699487909,11.312269,7.708579,140.98051,1678501050000,0.49031648,10.0,1935867574400000,6.1055307,Car
Fix,FLP,37.4219173,-122.1608549,-3.237177420985873,11.297879,7.804,140.10962,1678501052697,0.49031648,10.0,1935867574400000,5.6043634,Car
Fix,GPS,37.4218333519,-122.1607751818,22.06028918866484,11.308466,8.029593,139.33864,1678501051000,0.5252055,10.0,1935868574231000,6.182679,Car
Fix,FLP,37.4218362,-122.160774,-3.2162123329989782,11.306174,7.842,139.10263,1678501053697,0.5252055,10.0,1935868574231000,5.4973807,Car
Fix,GPS,37.4217478561,-122.1606903765,22.348660152035187,11.697939,7.7255974,139.11163,1678501052000,0.049731255,10.0,1935869574193000,6.0570064,Car
Fix,FLP,37.4217529,-122.1606902,-3.230529959691559,11.667391,7.735,139.03706,1678501054697,0.049731255,10.0,1935869574193000,5.506843,Car
Fix,GPS,37.4216680027,-122.1606066635,22.54772637243989,11.558315,7.9899473,137.56358,1678501053000,0.49776143,10.0,1935870574383000,6.1074705,Car
Fix,FLP,37.4216708,-122.1606051,-3.2647898965560387,11.565933,7.786,137.18576,1678501055697,0.49776143,10.0,1935870574383000,12.869927,Car
Fix,GPS,37.4215884041,-122.1605104066,22.79396710655312,11.538047,8.290834,136.66156,1678501054000,0.48162842,10.0,1935871574471000,6.169952,Car
Fix,FLP,37.4215914,-122.160513,-3.2791074409725454,11.542045,7.949,136.10286,1678501056697,0.48162842,10.0,1935871574471000,12.879941,Car
Fix,GPS,37.4215080307,-122.1604160447,23.127477561663383,11.56017,8.555159,136.64348,1678501055000,0.5468369,10.0,1935872574248000,6.241814,Car
Fix,FLP,37.4215122,-122.1604191,-3.368080209126049,11.561422,8.05,136.01189,1678501057697,0.5468369,10.0,1935872574248000,12.889943,Car
Fix,GPS,37.4214264117,-122.1603198354,23.46387114182386,11.439206,8.679789,136.61205,1678501056000,0.5024538,10.0,1935873574514000,6.3276258,Car
Fix,FLP,37.4214318,-122.1603239,-3.4207475559326284,11.453211,8.248,136.00287,1678501058697,0.5024538,10.0,1935873574514000,12.87188,Car
Fix,GPS,37.4213492703,-122.1602293935,23.77606507989416,11.255606,8.8484125,137.36784,1678501057000,0.5379494,10.0,1935874574501000,6.43484,Car
Fix,FLP,37.4213535,-122.1602317,-3.436087498151928,11.275098,8.472,136.9139,1678501059697,0.5379494,10.0,1935874574501000,14.471346,Car
Fix,GPS,37.4212714395,-122.160132416,23.949089547863014,11.398887,8.950692,136.41145,1678501058000,0.49992266,10.0,1935875574367000,6.554914,Car
Fix,FLP,37.4212754,-122.1601383,-4.478209260662602,11.391231,8.552,136.07516,1678501060696,0.49992266,10.0,1935875574367000,9.794436,Car
Fix,GPS,37.4211984272,-122.1600416045,23.761596374162917,11.640706,8.965972,135.8907,1678501059000,0.48393866,10.0,1935876574436000,6.6912894,Car
Fix,FLP,37.4212,-122.1600451,-3.4821071577875173,11.620449,8.715,135.08963,1678501061697,0.48393866,10.0,1935876574436000,14.177251,Car
Fix,GPS,37.4211245832,-122.1599517868,23.9438888785859,11.598832,9.117804,133.75119,1678501060000,0.5070037,10.0,1935877574569000,6.848532,Car
Fix,FLP,37.4211254,-122.1599518,-3.937650482605044,11.602489,8.912,133.18518,1678501062697,0.5070037,10.0,1935877574569000,10.746801,Car
Fix,GPS,37.4210495744,-122.1598583024,24.31658036609609,11.446045,9.310852,135.50807,1678501061000,0.60221994,10.0,1935878574309000,7.0325055,Car
Fix,FLP,37.4210518,-122.1598573,-4.61166558340426,11.459941,8.979,134.8452,1678501063697,0.60221994,10.0,1935878574309000,9.353929,Car
Fix,GPS,37.4209793574,-122.1597622515,24.743140192559927,11.695654,8.954946,133.4031,1678501062000,0.05587299,10.0,1935879574352000,6.5664377,Car
Fix,FLP,37.4209793,-122.1597635,-4.6157561653799135,11.677811,9.024,133.14415,1678501064696,0.05587299,10.0,1935879574352000,4.5783076,Car
Fix,GPS,37.4209119147,-122.1596648307,23.870716834466908,11.618736,8.622874,132.78166,1678501063000,0.0557721,10.0,1935880574355000,6.4571743,Car
Fix,FLP,37.4209098,-122.1596658,-4.652571314095987,11.624542,8.987,132.09216,1678501065697,0.0557721,10.0,1935880574355000,4.5882764,Car
Fix,GPS,37.4208431637,-122.1595731301,23.890954052930898,11.661593,8.2387085,132.9131,1678501064000,0.05574395,10.0,1935881574360000,6.3749876,Car
Fix,FLP,37.4208416,-122.1595707,-4.74665374349906,11.6571665,8.868,132.00519,1678501066697,0.05574395,10.0,1935881574360000,4.5326166,Car
Fix,GPS,37.4207682688,-122.1594703298,24.03566270860211,11.743151,7.9301734,132.6897,1678501065000,0.057563666,10.0,1935882574406000,6.290512,Car
Fix,FLP,37.4207697,-122.1594713,-4.833065487102601,11.737012,8.696,131.99986,1678501067697,0.057563666,10.0,1935882574406000,4.3798976,Car
Fix,GPS,37.4206968612,-122.1593765268,24.26149846143861,11.747218,8.145845,131.42986,1678501066000,0.48154208,10.0,1935883574437000,6.33763,Car
Fix,FLP,37.4206979,-122.1593745,-6.499999523162842,11.748019,8.378,131.09528,1678501068697,0.48154208,10.0,1935883574437000,8.360597,Car
Fix,GPS,37.4206251137,-122.15928012,24.508390509534603,11.155022,8.302047,133.13316,1678501067000,0.49595696,10.0,1935884574754000,6.3818645,Car
Fix,FLP,37.4206267,-122.1592776,-4.069602797648514,11.201075,8.248,132.85689,1678501069696,0.49595696,10.0,1935884574754000,6.1651306,Car
Fix,GPS,37.420553779,-122.159189166,24.31905262588004,11.096331,7.9743648,131.22919,1678501068000,0.049440198,10.0,1935885574398000,6.285728,Car
Fix,FLP,37.4205559,-122.159187,-6.499999523162842,11.107546,8.118,131.15892,1678501070697,0.049440198,10.0,1935885574398000,7.648697,Car
Fix,GPS,37.4204917914,-122.1590973427,24.258253906380776,10.763033,7.706482,130.89975,1678501069000,0.0452836,10.0,1935886574687000,6.2009144,Car
Fix,FLP,37.4204912,-122.1590951,-6.499999523162842,10.788779,8.011,130.10907,1678501071697,0.0452836,10.0,1935886574687000,7.3266163,Car
Fix,GPS,37.4204293051,-122.1590106477,24.23727866499648,10.366917,7.4734955,130.81393,1678501070000,0.04589293,10.0,1935887574704000,6.121496,Car
Fix,FLP,37.4204291,-122.1590067,-4.659102638185495,10.3940325,7.92,130.03477,1678501072697,0.04589293,10.0,1935887574704000,6.2436247,Car
Fix,GPS,37.4203716331,-122.1589299809,24.2765783300948,9.709957,7.2593665,129.87544,1678501071000,0.051629633,10.0,1935888574735000,6.0556693,Car
Fix,FLP,37.4203706,-122.1589243,-6.499999523162842,9.7500925,7.742,129.11519,1678501073697,0.051629633,10.0,1935888574735000,6.2237363,Car
Fix,GPS,37.4203172538,-122.1588463768,24.47408060329076,8.939851,7.5603313,128.25163,1678501072000,0.5010924,10.0,1935889574490000,6.1049066,Car
Fix,FLP,37.4203166,-122.158843,-6.499999523162842,8.985099,7.712,128.12238,1678501074697,0.5010924,10.0,1935889574490000,5.531376,Car
Fix,GPS,37.4202721124,-122.1587730859,24.518391298345907,8.128295,7.3268604,129.52577,1678501073000,0.085291654,10.0,1935890574499000,6.027875,Car
Fix,FLP,37.4202699,-122.1587688,-6.499999523162842,8.162066,7.465,129.0024,1678501075697,0.085291654,10.0,1935890574499000,5.571261,Car
Fix,GPS,37.420227787,-122.1587019913,24.38735480550284,7.0798125,7.6424093,129.03856,1678501074000,0.48647714,10.0,1935891574727000,6.050847,Car
Fix,FLP,37.420226,-122.1586998,-6.499999523162842,7.1202593,7.452,129.0443,1678501076697,0.48647714,10.0,1935891574727000,5.88279,Car
Fix,GPS,37.4201908543,-122.1586443239,24.508302333196987,6.2466426,8.01103,127.60748,1678501075000,0.61097765,10.0,1935892574543000,6.1486964,Car
Fix,FLP,37.4201885,-122.158641,-6.499999523162842,6.276505,7.545,127.11766,1678501077697,0.61097765,10.0,1935892574543000,5.892763,Car
Fix,GPS,37.4201583935,-122.1585868496,24.45062325792985,5.661818,8.327417,127.96489,1678501076000,0.54810005,10.0,1935893574596000,6.3373475,Car
Fix,FLP,37.4201565,-122.1585856,-6.499999523162842,5.678702,7.687,127.02614,1678501078697,0.54810005,10.0,1935893574596000,5.8669934,Car
Fix,GPS,37.4201277003,-122.1585336319,24.131140842315816,5.024191,8.614302,129.77217,1678501077000,0.552299,10.0,1935894574903000,6.580833,Car
Fix,FLP,37.4201267,-122.158534,-6.499999523162842,5.0394115,7.984,128.95886,1678501079697,0.552299,10.0,1935894574903000,5.912854,Car
Fix,GPS,37.4201028486,-122.1584890317,23.70497992999915,4.2760477,8.861001,133.27177,1678501078000,0.52759176,10.0,1935895574924000,6.848966,Car
Fix,FLP,37.4201005,-122.1584894,-6.499999523162842,4.290267,8.291,132.91179,1678501080697,0.52759176,10.0,1935895574924000,5.759772,Car
Fix,GPS,37.4200842104,-122.1584533148,23.630213091619897,3.749054,9.019165,131.18253,1678501079000,0.49356037,10.0,1935896574625000,7.082016,Car
Fix,FLP,37.420079,-122.1584536,-6.499999523162842,3.757429,8.412,131.03761,1678501081697,0.49356037,10.0,1935896574625000,13.208674,Car
Fix,GPS,37.4200690275,-122.1584278353,23.73208438380961,3.104251,9.1329775,136.05894,1678501080000,0.476659,10.0,1935897574674000,7.2872524,Car
Fix,FLP,37.4200626,-122.1584245,-6.499999523162842,3.111973,8.79,135.92578,1678501082697,0.476659,10.0,1935897574674000,13.221309,Car
Fix,GPS,37.4200547357,-122.1584066068,24.422041210561684,3.013067,9.220964,135.49612,1678501081000,0.46137697,10.0,1935898574665000,7.48092,Car
Fix,FLP,37.4200483,-122.1584031,-6.499999523162842,3.0141413,8.969,135.01054,1678501083697,0.46137697,10.0,1935898574665000,13.231307,Car
Fix,GPS,37.4200470505,-122.1583833828,24.235422286441096,2.5963802,8.784155,125.01296,1678501082000,0.061193455,10.0,1935899574672000,6.6652102,Car
Fix,FLP,37.4200381,-122.1583812,-6.499999523162842,2.598782,8.938,125.07522,1678501084697,0.061193455,10.0,1935899574672000,13.227114,Car
Fix,GPS,37.4200355167,-122.1583508067,24.20841219279598,2.505109,8.383943,124.26333,1678501083000,0.060761403,10.0,1935900574882000,6.5219398,Car
Fix,FLP,37.4200302,-122.1583539,-6.499999523162842,2.5055504,8.9,124.0088,1678501085697,0.060761403,10.0,1935900574882000,13.223775,Car
Fix,GPS,37.420028782,-122.158324329,24.216822505861668,2.5015297,8.0731325,123.88183,1678501084000,0.051579475,10.0,1935901574665000,6.393629,Car
Fix,FLP,37.4200235,-122.1583272,-6.499999523162842,2.5016084,8.719,123.00517,1678501086697,0.051579475,10.0,1935901574665000,14.828203,Car
Fix,GPS,37.4200217746,-122.1583048245,23.837066607032988,2.4825144,7.8134184,124.987656,1678501085000,0.05151922,10.0,1935902574751000,6.2761474,Car
Fix,FLP,37.4200169,-122.1583041,-6.499999523162842,2.482512,8.455,123.99518,1678501087696,0.05151922,10.0,1935902574751000,10.137286,Car
Fix,GPS,37.4200142108,-122.158281099,23.56810082928448,2.6573186,7.564727,124.577736,1678501086000,0.051342595,10.0,1935903574738000,6.17275,Car
Fix,FLP,37.4200097,-122.158281,-6.499999523162842,2.6565259,8.123,123.99309,1678501088697,0.051342595,10.0,1935903574738000,11.076873,Car
Fix,GPS,37.4200050112,-122.1582540725,23.29645946310329,2.8018672,7.3208585,123.79113,1678501087000,0.051111136,10.0,1935904574693000,6.0658526,Car
Fix,FLP,37.4200012,-122.1582549,-6.499999523162842,2.801249,7.831,122.99973,1678501089697,0.051111136,10.0,1935904574693000,11.086865,Car
Fix,GPS,37.4199959846,-122.1582297785,23.0567202124337,2.5568857,7.1057262,124.20217,1678501088000,0.051132858,10.0,1935905574823000,5.9634924,Car
Fix,FLP,37.4199923,-122.1582292,-6.499999523162842,2.5578063,7.71,124.00244,1678501090696,0.051132858,10.0,1935905574823000,9.811313,Car
Fix,GPS,37.4199903323,-122.158211592,22.845012520983964,1.8777955,6.9204006,123.649536,1678501089000,0.051101033,10.0,1935906574731000,5.86407,Car
Fix,FLP,37.4199857,-122.1582089,-6.499999523162842,1.8793329,7.345,123.02297,1678501091697,0.051101033,10.0,1935906574731000,4.872181,Car
Fix,GPS,37.4199901899,-122.1582009353,22.628559374522844,1.1616966,6.76359,124.06199,1678501090000,0.051240426,10.0,1935907574731000,5.7751627,Car
Fix,FLP,37.4199844,-122.1581967,-6.499999523162842,1.162343,7.248,124.00929,1678501092697,0.051240426,10.0,1935907574731000,4.8821826,Car
Fix,GPS,37.4199916747,-122.1581981751,22.555793764103875,0.50930756,6.596545,124.06199,1678501091000,0.061821755,53.63378,1935908574757000,5.6918406,Car
Fix,FLP,37.4199863,-122.1581931,-6.499999523162842,0.5124207,6.941,124.13409,1678501093697,0.061821755,53.63378,1935908574757000,4.8271046,Car
Fix,GPS,37.4199924952,-122.1581999929,22.5616792507361,0.0,6.440998,124.06199,1678501092000,0.061697032,76.15189,1935909574954000,5.60796,Car
Fix,FLP,37.419989,-122.1581953,-6.499999523162842,5.537198e-05,6.765,,1678501094697,0.061697032,,1935909574954000,8.682294,Car
Fix,GPS,37.4199924952,-122.1581999929,22.513877148861493,0.0,6.32473,124.06199,1678501093000,0.053057052,40.72845,1935910574910000,5.5314345,Car
Fix,FLP,37.4199911,-122.1581981,-6.499999523162842,2.6452038e-09,6.609,,1678501095697,0.053057052,,1935910574910000,8.692295,Car
Fix,GPS,37.419989546,-122.1581941354,22.26980079774972,0.96332866,6.1829348,124.06199,1678501094000,0.051005993,10.0,1935911574799000,5.4482713,Car
Fix,FLP,37.4199901,-122.1581957,-6.499999523162842,0.9626975,6.462,123.987724,1678501096697,0.051005993,10.0,1935911574799000,6.3830795,Car
Fix,GPS,37.4199799936,-122.1581722286,22.14987204797914,2.2686663,6.055657,124.18046,1678501095000,0.051126335,10.0,1935912574875000,5.3668528,Car
Fix,FLP,37.419982,-122.1581777,-6.499999523162842,2.2643619,6.32,123.95783,1678501097697,0.051126335,10.0,1935912574875000,7.97861,Car
Fix,GPS,37.4199690597,-122.1581473585,22.15079231591265,2.6546125,5.969638,124.164345,1678501096000,0.051156275,10.0,1935913574876000,5.294561,Car
Fix,FLP,37.4199697,-122.1581508,-6.499999523162842,2.6528702,6.195,123.985146,1678501098697,0.051156275,10.0,1935913574876000,7.654459,Car
Fix,GPS,37.4199606425,-122.158125772,21.956302018086284,2.1676245,5.858223,123.700165,1678501097000,0.05209362,10.0,1935914575107000,5.228836,Car
Fix,FLP,37.419959,-122.1581258,-6.499999523162842,2.1690934,6.078,123.020454,1678501099698,0.05209362,10.0,1935914575107000,6.5530906,Car
Fix,GPS,37.4199543093,-122.1581051971,21.66299468297688,2.3218596,5.8168197,122.96925,1678501098000,0.052132223,10.0,1935915574887000,5.1649466,Car
Fix,FLP,37.4199521,-122.1581052,-6.499999523162842,2.3214161,6.034,121.998604,1678501100697,0.052132223,10.0,1935915574887000,6.533746,Car
Fix,GPS,37.4199395309,-122.1580733012,21.569313452838315,3.597419,10.807852,123.25916,1678501099000,0.077730715,10.0,1935916574958000,5.1173334,Car
Fix,FLP,37.4199405,-122.1580797,-6.499999523162842,3.5871143,6.901,122.92411,1678501101697,0.077730715,10.0,1935916574958000,5.8429804,Car
Fix,GPS,37.4199231403,-122.1580399262,21.766160777928544,5.522782,6.2540455,123.8676,1678501100000,0.4960072,10.0,1935917574988000,5.148804,Car
Fix,FLP,37.419923,-122.1580418,-6.499999523162842,5.475054,6.941,122.88425,1678501102697,0.4960072,10.0,1935917574988000,5.8931284,Car
Fix,GPS,37.4198906467,-122.1579782913,21.59667302702255,6.6424093,6.1352854,124.007835,1678501101000,0.06283784,10.0,1935918574930000,5.1025567,Car
Fix,FLP,37.4198926,-122.1579825,-6.499999523162842,6.6109776,6.974,123.8681,1678501103697,0.06283784,10.0,1935918574930000,6.191721,Car
Fix,GPS,37.4198579149,-122.1579172783,21.567311513599314,7.6756887,6.6343393,122.99563,1678501102000,0.47577244,10.0,1935919575053000,5.1744404,Car
Fix,FLP,37.4198585,-122.1579185,-6.499999523162842,7.637538,6.917,121.98113,1678501104698,0.47577244,10.0,1935919575053000,6.2017136,Car
Fix,GPS,37.4198142804,-122.1578332852,21.416354191242924,8.772313,6.48665,123.54219,1678501103000,0.051642355,10.0,1935920574987000,5.1063733,Car
Fix,FLP,37.4198172,-122.1578379,-6.499999523162842,8.72264,7.263,122.8255,1678501105697,0.051642355,10.0,1935920574987000,6.1767616,Car
