Fix,Provider,LatitudeDegrees,LongitudeDegrees,AltitudeMeters,SpeedMps,AccuracyMeters,BearingDegrees,UnixTimeMillis,SpeedAccuracyMps,BearingAccuracyDegrees,elapsedRealtimeNanos,VerticalAccuracyMeters,TransitType
Fix,GPS,37.412501618,-121.9501397778,-18.280609625444875,0.0,11.211544,,1676137014072,0.5262608,,172208378496087,14.953443,Car
Fix,FLP,37.4124978,-121.9501386,-26.80427063868833,0.5120738,10.405,11.879157,1676137015685,0.5262608,,172208378496087,2.3035166,Car
Fix,GPS,37.4124728746,-121.9501587282,-22.89102859552703,0.0,6.7229214,,1676137015072,0.5314335,,172209370499261,5.2255244,Car
Fix,FLP,37.4124756,-121.9501567,-26.84292459673109,1.5841349,8.967,215.71425,1676137016677,0.5314335,,172209370499261,6.441928,Car
Fix,NLP,37.413141,-121.9491744,-28.899999618530277,,84.608,,1676137009539,,,172202232000000,6.792245,Car
Fix,GPS,37.4124881156,-121.9501736096,-22.86283870364251,0.0,5.960876,,1676137016072,0.42310026,,172210400365839,9.219559,Car
Fix,FLP,37.4124854,-121.9501729,-26.7951157280005,1.2395564,7.965,279.75336,1676137017707,0.42310026,,172210400365839,6.515934,Car
Fix,GPS,37.4124785491,-121.9501409045,-21.477976436554,0.0,7.211603,,1676137017072,0.25089726,,172211408555740,9.291706,Car
Fix,FLP,37.4124803,-121.9501501,-26.661859794417637,0.6887177,7.777,110.43653,1676137018715,0.25089726,,172211408555740,2.3339167,Car
Fix,NLP,37.4131193,-121.9491723,-28.899999618530277,,110.0,,1676137018652,,,172211345000000,14.095906,Car
Fix,GPS,37.412478101,-121.9501326596,-20.886986156601203,0.0,6.4874935,,1676137018072,0.25955755,,172212421066889,8.413489,Car
Fix,FLP,37.4124778,-121.9501332,-26.487911865441177,0.9942425,7.467,102.65712,1676137019727,0.25955755,,172212421066889,10.765193,Car
Fix,FLP,37.4124864,-121.9501337,-26.487911865441177,0.6270528,7.258,45.91339,1676137020624,0.25803274,,172213317227616,10.4860115,Car
Fix,GPS,37.4124959303,-121.9501346942,-20.942591283810888,0.0,5.6528873,,1676137020000,0.24529769,,172214340537797,7.2795534,Car
Fix,NLP,37.4080817,-121.9453556,,,800.0,,1676137020904,,,172213597000000,,Car
Fix,FLP,37.4124951,-121.9501338,-26.654739189225666,0.748173,6.464,14.8797455,1676137021647,0.24529769,,172214340537797,7.626878,Car
Fix,GPS,37.4125012947,-121.950133043,-21.083051032758917,0.0,5.43499,,1676137021000,0.2579178,,172215338236487,6.796173,Car
Fix,FLP,37.4124991,-121.9501337,-26.751375462310204,0.36503232,6.14,10.02919,1676137022645,0.2579178,,172215338236487,10.942758,Car
Fix,GPS,37.4125032317,-121.9501363765,-20.904423325621813,0.0,5.195928,,1676137022000,0.29055548,,172216314196000,6.352135,Car
Fix,FLP,37.4125031,-121.9501359,-26.26309666645377,0.43586463,6.055,345.53143,1676137023621,0.29055548,,172216314196000,10.732424,Car
Fix,GPS,37.4125042395,-121.9501377158,-20.795966695072465,0.0,4.9289026,,1676137023000,0.24852091,,172217314218000,5.8678246,Car
Fix,FLP,37.4125045,-121.9501376,-26.119659410718285,0.30247435,5.625,333.69064,1676137024621,0.24852091,,172217314218000,7.6750836,Car
Fix,GPS,37.4125063676,-121.9501340387,-20.66936521599228,0.0,4.797242,,1676137024000,0.22021408,,172218314220000,5.4730763,Car
Fix,FLP,37.4125065,-121.9501347,-26.14000526888225,0.25715196,5.414,21.265009,1676137025620,0.22021408,,172218314220000,7.685484,Car
Fix,NLP,37.4147567,-121.9544245,-18.5,,135.6,,1676137026665,,,172219358000000,41.6025,Car
Fix,FLP,37.4125067,-121.9501339,-26.31599489823318,0.13361831,7.024,33.810406,1676137026664,0.22021408,,172219358000000,10.101401,Car
Fix,GPS,37.4125103047,-121.9501330305,-20.50526211767944,0.0,4.6917677,,1676137025000,0.22028545,,172219314243000,5.1289477,Car
Fix,GPS,37.4125108844,-121.9501361535,-20.396916053604944,0.0,4.51349,,1676137026000,0.20266154,,172220314250000,4.78776,Car
Fix,FLP,37.4125108,-121.9501356,-26.81088251246326,0.26639172,6.549,343.07773,1676137027621,0.20266154,,172220314250000,7.2914505,Car
Fix,GPS,37.4125098198,-121.950141481,-20.26247037243266,0.0,5.127981,,1676137027000,0.20272666,,172221314261000,4.51769,Car
Fix,FLP,37.4125102,-121.9501408,-26.77019397645194,0.30530512,6.827,284.05884,1676137028621,0.20272666,,172221314261000,8.673738,Car
Fix,GPS,37.4125072731,-121.9501460736,-20.571529947383024,0.0,4.7878275,,1676137028000,0.19396996,,172222314283000,4.302962,Car
Fix,FLP,37.4125078,-121.9501458,-26.62829117457141,0.40087277,6.807,251.75714,1676137029620,0.19396996,,172222314283000,10.089903,Car
Fix,GPS,37.4125071844,-121.9501461968,-20.62623407732446,0.0,4.787498,,1676137029000,0.18823999,,172223314292000,4.0755687,Car
Fix,FLP,37.4125071,-121.9501467,-26.53470522750721,0.2267215,6.805,245.35771,1676137030621,0.18823999,,172223314292000,11.120361,Car
Fix,GPS,37.4125071334,-121.950146327,-20.504723471028424,0.0,5.0710506,,1676137030000,0.1885369,,172224314369000,3.9422305,Car
Fix,FLP,37.412507,-121.9501467,-26.463497834579385,0.097982414,6.778,,1676137031620,0.1885369,,172224314369000,6.6641383,Car
Fix,NLP,37.4148291,-121.9541486,-29.0,,156.9,,1676137031682,,,172224375000000,73.96,Car
Fix,GPS,37.4125070808,-121.9501464762,-20.39594253296757,0.0,5.0709295,,1676137031000,0.19074571,,172225314326000,3.8207147,Car
Fix,FLP,37.412507,-121.9501466,-26.4289111701588,0.039973695,5.117,,1676137032621,0.19074571,,172225314326000,8.97501,Car
Fix,GPS,37.412507028,-121.9501466062,-20.261330929267604,0.0,5.0708094,,1676137032000,0.20663318,,172226314408000,3.7167106,Car
Fix,FLP,37.412507,-121.9501467,-26.40246244894214,0.01994933,5.107,,1676137033621,0.20663318,,172226314408000,9.633298,Car
Fix,GPS,37.4125069548,-121.9501465031,-20.410726330399516,0.0,5.145784,,1676137033000,0.2166682,,172227314564000,3.5236201,Car
Fix,FLP,37.412507,-121.9501465,-26.41110915536686,0.0047681574,5.167,,1676137034621,0.2166682,,172227314564000,7.830518,Car
Fix,GPS,37.4125038996,-121.950143934,-20.430801675747755,0.0,4.105489,,1676137034000,0.20981151,,172228314387000,3.3558118,Car
Fix,FLP,37.4125043,-121.9501442,-26.37601364497188,0.20774692,5.053,146.2405,1676137035621,0.20981151,,172228314387000,6.8970714,Car
Fix,NLP,37.4131226,-121.9495243,-28.899999618530277,,63.305,,1676137036712,,,172229405000000,5.7218337,Car
Fix,GPS,37.4125018904,-121.9501447366,-20.499474230290517,0.0,4.1242895,,1676137035000,0.21092066,,172229314399000,3.2377355,Car
Fix,FLP,37.412502,-121.9501445,-26.32209851906064,0.22269095,4.896,170.23465,1676137036621,0.21092066,,172229314399000,6.7932897,Car
Fix,FLP,37.4125019,-121.9501446,-26.32108124922943,0.21873449,4.803,172.31496,1676137036712,0.21092066,,172229405000000,7.219228,Car
Fix,GPS,37.4124997768,-121.9501472463,-20.713250880996178,0.0,4.1883383,,1676137036000,0.19618666,,172230314437000,3.1438286,Car
Fix,FLP,37.4124998,-121.9501467,-26.306839458728973,0.2577033,4.655,204.7946,1676137037620,0.19618666,,172230314437000,6.468555,Car
Fix,GPS,37.412499908,-121.9501489255,-20.833212614656915,0.0,4.269992,,1676137037000,0.19665062,,172231314433000,3.0960267,Car
Fix,FLP,37.4124996,-121.9501488,-26.306839458728973,0.18891084,4.522,232.214,1676137038620,0.19665062,,172231314433000,5.6948476,Car
Fix,GPS,37.412500996,-121.9501495605,-21.004876141006488,0.0,4.3920608,,1676137038000,0.19831702,,172232314447000,3.0638468,Car
Fix,FLP,37.4125007,-121.9501497,-26.30785673027475,0.11289942,4.503,279.2828,1676137039620,0.19831702,,172232314447000,6.073632,Car
Fix,GPS,37.4125019645,-121.9501512978,-21.285488458288704,0.0,4.3577976,,1676137039000,0.21999365,,172233314456000,3.0279157,Car
Fix,FLP,37.4125018,-121.9501513,-26.30073582688386,0.1502991,4.438,303.29306,1676137040620,0.21999365,,172233314456000,7.2592797,Car
Fix,GPS,37.4125012771,-121.9501501227,-21.361897105255466,0.0,4.309681,,1676137040000,0.20122336,,172234314473000,3.0,Car
Fix,NLP,37.4146776,-121.9543761,-18.5,,55.252,,1676137041718,,,172234411000000,18.744045,Car
Fix,FLP,37.4125015,-121.9501504,-26.29870128195587,0.016086176,4.469,,1676137041621,0.20122336,,172234314473000,6.569613,Car
Fix,FLP,37.4125014,-121.9501503,-26.29870128195587,0.004182929,4.513,,1676137041718,0.20122336,,172234411000000,7.303601,Car
Fix,GPS,37.412498608,-121.9501441563,-21.40478840911332,0.0,4.248281,,1676137041000,0.20346531,,172235314492000,3.0,Car
Fix,FLP,37.4124991,-121.9501452,-26.30175309916364,0.32663202,4.523,119.76034,1676137042621,0.20346531,,172235314492000,6.940146,Car
Fix,GPS,37.4124957168,-121.9501416924,-21.4996589464929,0.0,4.2097936,,1676137042000,0.20716277,,172236314533000,3.0,Car
Fix,FLP,37.412496,-121.9501417,-26.37245322273308,0.3968903,4.513,132.01477,1676137043621,0.20716277,,172236314533000,7.274015,Car
Fix,GPS,37.4124956335,-121.9501416039,-21.509265275527397,0.0,4.1859913,,1676137043000,0.20541406,,172237314579000,3.0,Car
Fix,FLP,37.4124953,-121.9501412,-26.342952523636637,0.2176649,4.479,134.78018,1676137044621,0.20541406,,172237314579000,7.393515,Car
Fix,GPS,37.4124955708,-121.9501415502,-21.66516678452136,0.0,4.185383,,1676137044000,0.20511325,,172238314639000,3.0,Car
Fix,FLP,37.4124954,-121.9501413,-26.361263314505788,0.08514496,4.45,,1676137045621,0.20511325,,172238314639000,7.3855314,Car
Fix,GPS,37.4124955081,-121.950141496,-21.812607086409454,0.0,4.1669517,,1676137045000,0.20411494,,172239314539000,3.0,Car
Fix,NLP,37.4148499,-121.954224,-22.200000762939453,,135.6,,1676137046755,,,172239448000000,46.327114,Car
Fix,FLP,37.4124954,-121.9501414,-26.383643116147557,0.032191552,4.426,,1676137046620,0.20411494,,172239314539000,7.3052993,Car
Fix,FLP,37.4124954,-121.9501414,-26.383643116147557,0.025714446,4.482,,1676137046755,0.20411494,,172239448000000,6.0045953,Car
Fix,GPS,37.4124953565,-121.9501414993,-21.849114581327168,0.0,4.1047726,,1676137046000,0.19811234,,172240314560000,3.0,Car
Fix,FLP,37.4124954,-121.9501415,-26.37194459086254,0.013925858,4.459,,1676137047621,0.19811234,,172240314560000,5.67134,Car
Fix,GPS,37.4124923723,-121.9501383001,-22.000401469671583,0.0,4.104901,,1676137047000,0.2001021,,172241314558000,3.0,Car
Fix,FLP,37.4124928,-121.9501387,-26.366858270471145,0.21884756,4.441,140.45255,1676137048621,0.2001021,,172241314558000,6.181389,Car
Fix,GPS,37.4124920612,-121.950135138,-22.08075905918005,0.0,4.105028,,1676137048000,0.19148608,,172242314590000,3.0,Car
Fix,FLP,37.412492,-121.9501354,-26.366858270471145,0.25937358,4.428,118.27759,1676137049621,0.19148608,,172242314590000,6.150079,Car
Fix,GPS,37.4124897486,-121.9501331034,-22.20126101757284,0.0,4.105156,,1676137049000,0.17842253,,172243314811000,3.0,Car
Fix,FLP,37.4124899,-121.9501331,-26.357702886053985,0.2855068,4.414,131.30539,1676137050621,0.17842253,,172243314811000,6.0297484,Car
Fix,GPS,37.412486802,-121.9501314222,-22.23590226370703,0.0,4.1294107,,1676137050000,20.0,,172244314771000,3.0,Car
Fix,FLP,37.412487,-121.9501313,-26.366858270471145,0.31976917,4.408,145.64719,1676137051621,20.0,,172244314771000,5.130362,Car
Fix,NLP,37.414843,-121.9542454,-18.399999618530277,,128.899,,1676137051766,,,172244459000000,100.0,Car
Fix,FLP,37.4124867,-121.9501312,-26.36787553479391,0.30743358,4.425,146.88928,1676137051766,20.0,,172244459000000,4.8351955,Car
Fix,GPS,37.4124797783,-121.9501324256,-22.18868297508068,0.6072111,4.1687016,187.16779,1676137051000,0.18951282,16.425362,172245314650000,3.0,Car
Fix,FLP,37.4124805,-121.9501321,-26.357702886053985,0.60714346,4.436,186.99156,1676137052620,0.18951282,16.425362,172245314650000,4.806807,Car
Fix,GPS,37.4124737001,-121.9501331627,-22.25140657895359,0.35532472,4.1055393,180.934,1676137052000,0.18242662,27.644474,172246314644000,3.0,Car
Fix,FLP,37.4124741,-121.9501331,-26.35312519012723,0.35571954,4.436,180.01678,1676137053621,0.18242662,27.644474,172246314644000,5.2376165,Car
Fix,GPS,37.4124708634,-121.9501327249,-22.14791136381768,0.6506883,4.105667,206.75943,1676137053000,0.16876975,14.173521,172247314667000,3.0,Car
Fix,FLP,37.4124709,-121.9501328,-26.34447842439112,0.65025365,4.436,205.98328,1676137054621,0.16876975,14.173521,172247314667000,4.829222,Car
Fix,GPS,37.4124658243,-121.9501351143,-21.91808245383212,0.5680251,4.1057944,210.00278,1676137054000,0.1671291,16.693369,172248314826000,3.0,Car
Fix,FLP,37.4124658,-121.9501354,-26.253941169656223,0.5681325,4.436,209.99387,1676137055620,0.1671291,16.693369,172248314826000,4.61912,Car
Fix,NLP,37.4148016,-121.954449,-29.100000381469727,,156.9,,1676137056239,,,172248932000000,73.96,Car
Fix,FLP,37.4124636,-121.9501369,-26.17561040283839,0.56805533,5.535,209.99345,1676137056239,0.1671291,16.693369,172248932000000,4.5424695,Car
Fix,GPS,37.4124608263,-121.9501385197,-21.776714430274037,0.4697198,4.1059227,222.3134,1676137055000,0.16684912,19.518469,172249314680000,3.0,Car
Fix,FLP,37.4124613,-121.9501384,-26.165437522725128,0.46985763,5.356,221.97931,1676137056621,0.16684912,19.518469,172249314680000,4.2989945,Car
Fix,GPS,37.412457534,-121.9501415388,-21.648421473982992,0.37001657,4.10605,81.149345,1676137056000,0.16156258,25.146997,172250314692000,3.0,Car
Fix,FLP,37.4124577,-121.9501416,-26.109486463272678,0.36909539,5.443,81.0583,1676137057621,0.16156258,25.146997,172250314692000,3.9279637,Car
Fix,GPS,37.4124567954,-121.950136201,-21.48956994775381,1.0017143,4.106178,102.52755,1676137057000,0.17096193,9.312113,172251314709000,3.0,Car
Fix,FLP,37.4124573,-121.9501366,-26.047939870139544,1.0008037,5.443,101.991234,1676137058621,0.17096193,9.312113,172251314709000,4.3937645,Car
Fix,GPS,37.4124493007,-121.9501200539,-21.335376618845736,2.4759402,4.106305,118.402466,1676137058000,0.16962047,3.7693317,172252314892000,3.0,Car
Fix,FLP,37.4124522,-121.9501242,-26.042344703089373,2.471056,5.252,117.981865,1676137059621,0.16962047,3.7693317,172252314892000,4.487535,Car
Fix,GPS,37.4124325812,-121.9500875694,-21.1971600383732,3.3823588,4.106432,138.79169,1676137059000,0.15836596,2.5387442,172253314757000,3.0,Car
Fix,FLP,37.4124386,-121.9500977,-25.97723703240683,3.3779716,4.908,137.94016,1676137060621,0.15836596,2.5387442,172253314757000,4.466066,Car
Fix,GPS,37.4123996405,-121.9500590568,-20.682220761934087,4.5446033,4.10656,145.43239,1676137060000,0.17185679,2.0438468,172254314906000,3.0,Car
Fix,FLP,37.4124114,-121.9500682,-25.92026740920143,4.5382605,4.106,144.97127,1676137061621,0.17185679,2.0438468,172254314906000,4.004923,Car
Fix,NLP,37.4149321,-121.9542114,-27.200000762939453,,149.6,,1676137061825,,,172254518000000,100.0,Car
Fix,FLP,37.4124005,-121.9500593,-25.91670679500342,4.5445743,4.326,144.99986,1676137061825,0.17185679,2.0438468,172254518000000,3.7410994,Car
Fix,GPS,37.4123488686,-121.9500361475,-21.017172432816828,5.074746,4.1916294,146.459,1676137061000,0.17614241,1.8260344,172255314766000,3.0,Car
Fix,FLP,37.4123641,-121.9500389,-25.86482338939574,5.074491,4.519,146.00192,1676137062620,0.17614241,1.8260344,172255314766000,3.7430403,Car
Fix,GPS,37.4123014155,-121.9500025549,-21.129252428646453,4.916857,4.1917615,139.71478,1676137062000,0.17685212,1.9405245,172256314778000,3.0,Car
Fix,FLP,37.4123098,-121.950004,-25.84498553250744,4.917037,4.525,139.01022,1676137063621,0.17685212,1.9405245,172256314778000,4.176077,Car
Fix,GPS,37.4122621517,-121.9499633007,-20.98162629386161,5.165072,4.1918926,128.84378,1676137063000,0.1663915,1.838748,172257314804000,3.0,Car
Fix,FLP,37.4122668,-121.9499646,-25.887204505380137,5.1646247,4.532,128.0138,1676137064620,0.1663915,1.838748,172257314804000,4.2064567,Car
Fix,GPS,37.4122307634,-121.9499156371,-20.808066081792877,5.1772842,4.1920238,122.33161,1676137064000,0.16015776,1.8035294,172258314816000,3.0,Car
Fix,FLP,37.4122332,-121.9499165,-25.88873048840274,5.1772385,4.668,122.00752,1676137065621,0.16015776,1.8035294,172258314816000,4.226225,Car
Fix,GPS,37.4122036994,-121.9498654302,-20.9866262591809,4.6243844,4.192155,126.3619,1676137065000,0.1734163,2.1622503,172259314821000,3.0,Car
Fix,FLP,37.4122052,-121.9498659,-25.92026740920143,4.625168,4.74,125.99354,1676137066621,0.1734163,2.1622503,172259314821000,3.5637023,Car
Fix,NLP,37.4149558,-121.9542254,-18.5,,128.899,,1676137066848,,,172259541000000,17.724142,Car
Fix,FLP,37.412201,-121.9498593,-25.934509850997262,4.62498,4.868,125.99383,1676137066848,0.1734163,2.1622503,172259541000000,4.912122,Car
Fix,GPS,37.4121783199,-121.9498251011,-20.991010395331628,3.9617276,4.1922855,135.0281,1676137066000,0.17759822,2.4569242,172260314841000,3.0,Car
Fix,FLP,37.4121795,-121.9498262,-25.99961785076532,3.9626853,4.682,134.98505,1676137067620,0.17759822,2.4569242,172260314841000,4.89793,Car
Fix,GPS,37.4121533446,-121.9497938938,-20.850444601864677,3.4945183,4.192416,142.82895,1676137067000,0.19999829,3.0877929,172261314863000,3.0,Car
Fix,FLP,37.4121536,-121.9497941,-25.99249668771484,3.4953022,4.682,141.98589,1676137068620,0.19999829,3.0877929,172261314863000,4.9753118,Car
Fix,GPS,37.4121269341,-121.9497725657,-20.434473323142136,3.7153158,4.1925473,164.6217,1676137068000,0.19844031,2.8591962,172262314888000,3.0,Car
Fix,FLP,37.412138,-121.9497806,-25.991479378218088,3.5266926,4.559,153.57643,1676137069621,0.19844031,2.8591962,172262314888000,5.114949,Car
Fix,GPS,37.4120904297,-121.9497676386,-20.490431452690743,4.1254363,4.1926785,182.82855,1676137069000,0.18773033,2.5469923,172263314901000,3.0,Car
Fix,FLP,37.412103,-121.9497676,-25.94926092613129,4.121419,4.519,181.89595,1676137070621,0.18773033,2.5469923,172263314901000,4.750033,Car
Fix,GPS,37.4120488973,-121.9497750639,-20.41265917393581,4.4108253,4.1928105,192.14684,1676137070000,0.18193556,2.287705,172264314903000,3.0,Car
Fix,FLP,37.4120683,-121.9497708,-25.86838402544756,4.256753,4.459,187.35828,1676137071621,0.18193556,2.287705,172264314903000,5.088606,Car
Fix,NLP,37.4114776,-121.9497628,-28.899999618530277,,61.807,,1676137072493,,,172265186000000,4.411458,Car
Fix,FLP,37.4120367,-121.9497778,-25.86838402544756,4.410198,5.136,191.98767,1676137072493,0.18193556,2.287705,172265186000000,4.5803704,Car
Fix,GPS,37.4120070285,-121.9497878189,-20.163285363082508,4.091115,4.192942,187.11172,1676137071000,0.19428933,2.6228666,172265315267000,3.0,Car
Fix,FLP,37.4120201,-121.9497831,-25.86838402544756,4.0926375,5.934,187.01955,1676137072622,0.19428933,2.6228666,172265315267000,4.6322856,Car
Fix,GPS,37.4119670639,-121.9497919518,-20.164129917195787,3.8727698,4.1930733,167.02528,1676137072000,0.21179366,2.6208599,172266314927000,3.0,Car
Fix,FLP,37.4119781,-121.9497907,-25.86838402544756,3.8731244,5.81,167.09384,1676137073620,0.21179366,2.6208599,172266314927000,4.6669893,Car
Fix,GPS,37.411929036,-121.9497746604,-20.33100955303124,3.7711446,4.1082187,139.39041,1676137073000,0.27307606,3.987763,172267314942000,3.0,Car
Fix,FLP,37.4119431,-121.9497817,-25.822095639786944,3.7633045,5.697,139.64804,1676137074621,0.27307606,3.987763,172267314942000,4.4241977,Car
Fix,GPS,37.4119066026,-121.9497311668,-20.896629907089327,4.16693,4.1933355,106.831696,1676137074000,0.26046357,3.4825802,172268314952000,3.0,Car
Fix,FLP,37.4119114,-121.9497434,-25.79106701958812,4.159894,5.798,106.18823,1676137075621,0.26046357,3.4825802,172268314952000,4.6973767,Car
Fix,GPS,37.4119061823,-121.9496710289,-21.38052814975899,4.8183327,4.1934648,76.34119,1676137075000,0.20040703,2.3613825,172269314958000,3.0,Car
Fix,FLP,37.4119048,-121.9496991,-25.76156429147402,4.771797,5.691,76.96965,1676137076620,0.20040703,2.3613825,172269314958000,4.649048,Car
Fix,GPS,37.4119242576,-121.9496119221,-21.93967952902978,4.947105,4.1935945,52.91219,1676137076000,0.21687695,2.4923713,172270314986000,3.0,Car
Fix,FLP,37.4119194,-121.9496263,-25.79818835232667,4.9448304,4.989,52.09592,1676137077620,0.21687695,2.4923713,172270314986000,4.8352222,Car
Fix,GPS,37.4119552,-121.9495719966,-22.210023263249315,4.561954,4.259296,28.561468,1676137077000,0.3254473,3.8184216,172271315005000,3.0189981,Car
Fix,FLP,37.4119416,-121.9495886,-25.83532091869659,4.718439,4.185,44.746693,1676137078622,0.3254473,3.8184216,172271315005000,4.709482,Car
Fix,GPS,37.4119989337,-121.9495552121,-22.19413744929231,4.29811,4.193852,16.48089,1676137078000,0.21407148,2.6433582,172272315016000,3.074538,Car
Fix,FLP,37.4119763,-121.9495605,-25.854141472240947,4.354098,4.197,19.715652,1676137079622,0.21407148,2.6433582,172272315016000,4.6661725,Car
Fix,GPS,37.4120403335,-121.9495473646,-22.278663069404907,3.698881,4.193981,20.56912,1676137079000,0.19202672,2.7288346,172273315057000,3.0926907,Car
Fix,FLP,37.412019,-121.9495499,-25.89330843581818,3.9631379,4.203,18.071516,1676137080622,0.19202672,2.7288346,172273315057000,4.629161,Car
Fix,GPS,37.4120763671,-121.9495379741,-22.604182847048424,3.3960943,4.194111,24.63331,1676137080000,0.20125283,3.090869,172274315044000,3.1325197,Car
Fix,FLP,37.4120623,-121.9495395,-25.878048601457497,3.3985965,4.204,23.965467,1676137081622,0.20125283,3.090869,172274315044000,4.6252313,Car
Fix,GPS,37.4121077226,-121.9495247617,-23.14396495842756,2.835828,4.1942396,33.93224,1676137081000,0.18082608,3.376312,172275315050000,3.148421,Car
Fix,FLP,37.4120928,-121.9495297,-25.91670679500342,3.0736215,4.204,28.56475,1676137082622,0.18082608,3.376312,172275315050000,4.779592,Car
Fix,GPS,37.4121296797,-121.9495082232,-23.56293319365262,1.7793715,4.194369,36.895714,1676137082000,0.17834759,5.3578157,172276315078000,3.1465514,Car
Fix,FLP,37.4121216,-121.9495131,-25.98130627651525,1.7860163,4.199,35.96609,1676137083622,0.17834759,5.3578157,172276315078000,4.867963,Car
Fix,GPS,37.4121397926,-121.9494976492,-23.57160417645125,0.90517354,4.1944985,38.338085,1676137083000,0.17732586,10.67445,172277315121000,3.1363497,Car
Fix,FLP,37.412138,-121.9494988,-26.285476727989128,0.9064423,4.199,37.993317,1676137084622,0.17732586,10.67445,172277315121000,4.892304,Car
Fix,GPS,37.4121423279,-121.9494955175,-23.480489493249024,0.0,4.1946282,38.338085,1676137084000,0.17309451,22.660093,172278315399000,3.093796,Car
Fix,FLP,37.412143,-121.9494945,-26.127797759860517,0.00070607103,4.194,,1676137085622,0.17309451,,172278315399000,5.072797,Car
Fix,GPS,37.4121406386,-121.9494958666,-23.512955298134543,0.0,4.1947584,38.338085,1676137085000,0.1688787,38.075726,172279315238000,3.0845623,Car
Fix,FLP,37.4121414,-121.9494955,-26.065742649753226,4.404192e-07,4.194,,1676137086622,0.1688787,,172279315238000,4.6800203,Car
Fix,GPS,37.4121412243,-121.9494975308,-23.44678550246227,0.0,4.1948886,38.338085,1676137086000,0.17230104,62.292206,172280315144000,3.0263665,Car
Fix,FLP,37.4121413,-121.9494968,-26.05556963742252,3.1866243e-08,4.194,,1676137087622,0.17230104,,172280315144000,4.7106795,Car
Fix,GPS,37.4121412505,-121.9495003355,-23.48470565167746,0.0,4.1950183,38.338085,1676137087000,0.16933942,130.11969,172281315208000,3.0,Car
Fix,FLP,37.4121413,-121.9494992,-26.011316891324554,5.26193e-08,4.194,,1676137088621,0.16933942,,172281315208000,4.7645335,Car
Fix,GPS,37.4121412326,-121.9495003841,-23.502826142333188,0.0,4.1951485,38.338085,1676137088000,0.16931213,180.0,172282315183000,3.0,Car
Fix,FLP,37.4121412,-121.9495,-26.02708513776497,1.8324513e-08,4.195,,1676137089622,0.16931213,,172282315183000,4.8090415,Car
Fix,GPS,37.4121411944,-121.9495004344,-23.515182148069258,0.0,4.1952777,38.338085,1676137089000,0.16668771,180.0,172283315337000,3.0,Car
Fix,FLP,37.4121412,-121.9495003,-25.946208981663204,5.713875e-09,4.195,,1676137090622,0.16668771,,172283315337000,5.0879407,Car
Fix,GPS,37.4121411688,-121.9495004884,-23.51517310322184,0.0,4.195408,38.338085,1676137090000,0.16555116,180.0,172284315369000,3.0,Car
Fix,FLP,37.4121412,-121.9495004,-25.946208981663204,3.0978422e-09,4.195,,1676137091621,0.16555116,,172284315369000,5.0983605,Car
Fix,GPS,37.4121411474,-121.9495005281,-23.50906179690049,0.0,4.195537,38.338085,1676137091000,0.16626364,109.96769,172285315194000,3.0,Car
Fix,FLP,37.4121411,-121.9495005,-25.95383884076651,4.8005764e-09,4.195,,1676137092622,0.16626364,,172285315194000,4.9223933,Car
Fix,GPS,37.4121411219,-121.9495005696,-23.50433868371121,0.0,4.195667,38.338085,1676137092000,0.16342339,149.93457,172286315379000,3.0,Car
Fix,FLP,37.4121411,-121.9495006,-25.94875226879625,2.196978e-09,4.195,,1676137093622,0.16342339,,172286315379000,4.882137,Car
Fix,GPS,37.4121410819,-121.9495005976,-23.54561507421423,0.0,4.195796,38.338085,1676137093000,0.16542807,49.862946,172287315249000,3.0,Car
Fix,FLP,37.4121411,-121.9495006,-25.949769583434936,7.000339e-10,4.195,,1676137094622,0.16542807,,172287315249000,4.827488,Car
Fix,GPS,37.4121410492,-121.9495006172,-23.59018563396773,0.0,4.1959257,38.338085,1676137094000,0.17008452,180.0,172288315276000,3.0,Car
Fix,FLP,37.412141,-121.9495006,-25.960960036382037,4.939935e-09,4.195,,1676137095622,0.17008452,,172288315276000,4.8194103,Car
Fix,GPS,37.4121410237,-121.9495006443,-23.57791684600592,0.0,4.1960554,38.338085,1676137095000,0.16948275,81.00783,172289315461000,3.0,Car
Fix,FLP,37.412141,-121.9495006,-25.960960036382037,1.6713508e-09,4.196,,1676137096622,0.16948275,,172289315461000,5.005016,Car
Fix,GPS,37.4121409733,-121.9495006706,-23.54872473094421,0.0,4.1961846,38.338085,1676137096000,0.16773905,180.0,172290315285000,3.0,Car
Fix,FLP,37.412141,-121.9495007,-25.961977349552,1.5539059e-09,4.196,,1676137097622,0.16773905,,172290315285000,5.0223703,Car
Fix,NLP,37.4128999,-121.94942,-28.899999618530277,,43.904,,1676137097948,,,172290641000000,2.1176245,Car
Fix,FLP,37.412141,-121.9495007,-25.962994662599183,2.3552434e-07,4.901,,1676137097948,0.16773905,,172290641000000,3.6846654,Car
Fix,GPS,37.4121409332,-121.9495007171,-23.530461706070188,0.0,4.196314,38.338085,1676137097000,0.1626244,114.91542,172291315294000,3.0,Car
Fix,FLP,37.4121409,-121.9495007,-25.961977349552,1.2705351e-06,4.8,,1676137098621,0.1626244,,172291315294000,3.8070316,Car
Fix,GPS,37.4121408458,-121.9495008969,-23.50502597727196,0.044226557,3.140679,38.338085,1676137098000,0.14830337,180.0,172292315344000,3.0,Car
Fix,FLP,37.4121408,-121.9495008,-25.987918794014767,0.044182535,4.725,,1676137099622,0.14830337,,172292315344000,3.8696868,Car
Fix,GPS,37.4121407709,-121.9495010752,-23.47334373865698,0.036675327,3.2292871,38.338085,1676137099000,0.14706893,61.400745,172293315307000,3.0,Car
Fix,FLP,37.4121409,-121.9495009,-25.973167786338543,0.036679693,4.676,,1676137100622,0.14706893,,172293315307000,3.843489,Car
Fix,GPS,37.412140682,-121.9495011209,-23.4588846732434,0.031812236,3.2729437,38.338085,1676137100000,0.14669088,180.0,172294315323000,3.0,Car
Fix,FLP,37.4121409,-121.949501,-26.00165246767802,0.03181598,4.476,,1676137101622,0.14669088,,172294315323000,3.9548922,Car
Fix,GPS,37.4121405945,-121.9495011734,-23.427191517446374,0.027806493,3.2998374,38.338085,1676137101000,0.14729632,180.0,172295315451000,3.0,Car
Fix,FLP,37.4121408,-121.9495011,-26.010808237723666,0.027809372,4.473,,1676137102622,0.14729632,,172295315451000,3.8286474,Car
Fix,NLP,37.4128843,-121.9494251,-28.899999618530277,,56.857,,1676137102966,,,172295659000000,3.87,Car
Fix,FLP,37.4121408,-121.949501,-25.986392828897262,0.027805667,4.462,,1676137102966,0.14729632,,172295659000000,3.7235982,Car
Fix,GPS,37.4121405242,-121.9495012201,-23.462073512481417,0.062779434,3.3286467,38.338085,1676137102000,0.14806479,180.0,172296315377000,3.0,Car
Fix,FLP,37.4121406,-121.9495011,-26.000635159282595,0.06271745,4.413,,1676137103622,0.14806479,,172296315377000,3.6644,Car
Fix,GPS,37.4121404222,-121.9495011287,-23.508602055091828,0.051967837,3.3349807,38.338085,1676137103000,0.14840922,180.0,172297315400000,3.0,Car
Fix,FLP,37.4121406,-121.949501,-26.000635159282595,0.051980224,4.539,,1676137104622,0.14840922,,172297315400000,3.677491,Car
Fix,GPS,37.4121403188,-121.9495010925,-23.533373821034186,0.050345257,3.3779116,38.338085,1676137104000,0.14739518,180.0,172298315389000,3.0,Car
Fix,FLP,37.4121405,-121.9495009,-25.976728376755617,0.05034701,4.539,,1676137105622,0.14739518,,172298315389000,3.6831088,Car
Fix,GPS,37.4121402026,-121.9495010586,-23.607691774739298,0.048761588,3.3716216,38.338085,1676137105000,0.14429721,42.812435,172299315599000,3.0,Car
Fix,FLP,37.4121404,-121.9495009,-25.96604660100685,0.04876244,4.644,,1676137106622,0.14429721,,172299315599000,3.6926353,Car
Fix,GPS,37.4121401007,-121.9495010649,-23.703391423112237,0.04560742,3.3198595,38.338085,1676137106000,0.14489985,180.0,172300315417000,3.0,Car
Fix,FLP,37.4121403,-121.9495009,-25.93654448358037,0.04561054,4.455,,1676137107622,0.14489985,,172300315417000,3.9170418,Car
Fix,NLP,37.4129932,-121.9490649,-28.899999618530277,,72.692,,1676137108018,,,172300711000000,4.870537,Car
Fix,FLP,37.4121403,-121.9495009,-28.899999618530277,0.04560223,4.563,,1676137108018,0.14489985,,172300711000000,4.0041595,Car
Fix,GPS,37.4121399935,-121.9495010513,-23.754854373585623,0.044598103,3.3729844,38.338085,1676137107000,0.1486349,180.0,172301315483000,3.0,Car
Fix,FLP,37.4121402,-121.949501,-28.899999618530277,0.044588387,4.563,,1676137108621,0.1486349,,172301315483000,3.9150105,Car
Fix,GPS,37.4121398618,-121.9495010975,-23.81170838901879,0.052269116,3.4109273,38.338085,1676137108000,0.14483437,180.0,172302315483000,3.0,Car
Fix,FLP,37.4121401,-121.949501,-25.96604660100685,0.052260287,4.482,,1676137109622,0.14483437,,172302315483000,3.9455018,Car
Fix,GPS,37.4121397487,-121.9495011889,-23.79058435426095,0.038310777,3.4044304,38.338085,1676137109000,0.1453847,35.556942,172303315486000,3.0,Car
Fix,FLP,37.4121399,-121.949501,-25.96604660100685,0.03831841,4.482,,1676137110622,0.1453847,,172303315486000,3.8991635,Car
Fix,GPS,37.4121396808,-121.949501302,-23.83953107211798,0.028913502,3.395752,38.338085,1676137110000,0.1433865,180.0,172304315486000,3.0,Car
Fix,FLP,37.4121399,-121.9495011,-25.961977349552,0.028920153,4.399,,1676137111622,0.1433865,,172304315486000,3.9081917,Car
Fix,GPS,37.4121396032,-121.9495013788,-23.91896400546465,0.03267108,3.364847,38.338085,1676137111000,0.14239098,180.0,172305315885000,3.0,Car
Fix,FLP,37.4121398,-121.9495012,-25.961977349552,0.032598723,4.578,,1676137112621,0.14239098,,172305315885000,3.973962,Car
Fix,NLP,37.4130973,-121.9488144,-28.899999618530277,,75.877,,1676137113057,,,172305750000000,3.0992033,Car
Fix,FLP,37.4121399,-121.9495011,-28.899999618530277,0.03259192,4.759,,1676137113057,0.14239098,,172305750000000,3.5206077,Car
Fix,GPS,37.4121395318,-121.9495015056,-23.90322361295682,0.070982754,3.3247914,38.338085,1676137112000,0.14475553,180.0,172306315529000,3.0,Car
Fix,FLP,37.4121398,-121.9495012,-28.899999618530277,0.069373794,4.759,,1676137113622,0.14475553,,172306315529000,3.5176666,Car
Fix,GPS,37.4121394671,-121.9495016047,-23.928498545073666,0.08053066,3.3820915,38.338085,1676137113000,0.14562531,180.0,172307315545000,3.0,Car
Fix,FLP,37.41214,-121.9495011,-28.899999618530277,0.079986654,4.84,,1676137114622,0.14562531,,172307315545000,3.5295267,Car
Fix,GPS,37.4121393931,-121.949501714,-23.89912055572817,0.0611436,3.3945408,38.338085,1676137114000,0.1474413,180.0,172308315842000,3.0,Car
Fix,FLP,37.41214,-121.9495011,-28.899999618530277,0.061764434,4.84,,1676137115622,0.1474413,,172308315842000,3.5694191,Car
Fix,GPS,37.4121393604,-121.9495018964,-23.859200015723648,0.04586938,3.3710036,38.338085,1676137115000,0.14482379,180.0,172309315573000,3.0,Car
Fix,FLP,37.41214,-121.9495012,-28.899999618530277,0.04625833,4.84,,1676137116622,0.14482379,,172309315573000,3.717932,Car
Fix,GPS,37.4121393,-121.9495020626,-23.791942632081945,0.028686613,3.3578067,38.338085,1676137116000,0.14487505,180.0,172310315815000,3.0,Car
Fix,FLP,37.4121399,-121.9495014,-28.899999618530277,0.029000755,4.706,,1676137117622,0.14487505,,172310315815000,3.6227357,Car
Fix,NLP,37.4129833,-121.9487852,-28.899999618530277,,78.763,,1676137118068,,,172310761000000,2.7156663,Car
Fix,FLP,37.4121399,-121.9495014,-28.899999618530277,0.02898715,4.864,,1676137118068,0.14487505,,172310761000000,3.2659857,Car
Fix,GPS,37.4121392215,-121.9495022432,-23.731458118949615,0.08206493,3.3210435,38.338085,1676137117000,0.1413977,180.0,172311315793000,3.0,Car
Fix,FLP,37.4121397,-121.9495016,-28.899999618530277,0.07937857,4.864,,1676137118622,0.1413977,,172311315793000,3.2771027,Car
Fix,GPS,37.412140135,-121.9495017267,-23.54112306512308,0.18919419,3.24868,38.338085,1676137118000,0.14234488,17.100534,172312315640000,3.0,Car
Fix,FLP,37.4121402,-121.9495013,-28.899999618530277,0.18760191,4.864,38.079502,1676137119622,0.14234488,17.100534,172312315640000,3.286035,Car
Fix,GPS,37.4121423673,-121.9494939082,-23.440812136460178,0.6902207,3.1975071,28.072247,1676137119000,0.16374353,7.3585258,172313315682000,3.0,Car
Fix,FLP,37.412142,-121.9494973,-28.899999618530277,0.6776443,4.626,28.271038,1676137120622,0.16374353,7.3585258,172313315682000,3.2956457,Car
Fix,GPS,37.412152354,-121.9494801288,-23.450825603879437,1.1552627,3.3020606,31.307678,1676137120000,0.14402905,4.921954,172314315843000,3.0,Car
Fix,FLP,37.4121497,-121.9494875,-28.899999618530277,1.1458426,4.747,31.034363,1676137121622,0.14402905,4.921954,172314315843000,3.3052304,Car
Fix,GPS,37.4121654374,-121.949466519,-23.17686794981946,1.4657934,3.3235493,28.729326,1676137121000,0.14275263,3.9071453,172315315629000,3.0,Car
Fix,FLP,37.4121595,-121.9494755,-28.899999618530277,1.4359623,4.535,28.331457,1676137122622,0.14275263,3.9071453,172315315629000,3.3167655,Car
Fix,NLP,37.4129797,-121.9493646,-28.899999618530277,,47.683,,1676137123072,,,172315765000000,2.62063,Car
Fix,FLP,37.4121647,-121.9494714,-28.899999618530277,1.4359998,4.634,28.333122,1676137123072,0.14275263,3.9071453,172315765000000,3.0317204,Car
Fix,GPS,37.4121888346,-121.9494521263,-23.30999701004155,1.9205327,3.2257733,31.234653,1676137122000,0.13616751,2.8583617,172316315677000,3.0,Car
Fix,FLP,37.4121785,-121.9494607,-28.899999618530277,1.912358,4.542,31.0005,1676137123622,0.13616751,2.8583617,172316315677000,3.0226305,Car
Fix,GPS,37.4122110567,-121.9494403744,-23.204617018830604,2.181848,3.2760758,31.518024,1676137123000,0.1896885,3.097549,172317315671000,3.0,Car
Fix,FLP,37.412201,-121.9494456,-28.899999618530277,2.1730778,4.634,31.036871,1676137124621,0.1896885,3.097549,172317315671000,3.0260706,Car
Fix,GPS,37.4122410092,-121.9494274047,-23.36394017971831,2.5598412,3.3736775,22.14093,1676137124000,0.2575644,2.770212,172318315975000,3.0,Car
Fix,FLP,37.4122282,-121.9494305,-28.899999618530277,2.5298994,4.734,22.3811,1676137125621,0.2575644,2.770212,172318315975000,3.0425515,Car
Fix,GPS,37.4122823317,-121.9494183752,-23.513063529808274,3.0374985,3.4957795,13.146971,1676137125000,0.32996088,3.3851082,172319315803000,3.0,Car
Fix,FLP,37.4122642,-121.9494191,-28.899999618530277,2.9747512,4.63,13.514664,1676137126621,0.32996088,3.3851082,172319315803000,3.0603466,Car
Fix,GPS,37.4123331269,-121.949426836,-23.75353495288183,3.517453,3.6552906,8.827698,1676137126000,0.6545863,8.468991,172320315785000,3.0,Car
Fix,FLP,37.4123183,-121.9494214,-28.899999618530277,3.5064318,4.873,8.068953,1676137127621,0.6545863,8.468991,172320315785000,3.069957,Car
Fix,NLP,37.413116,-121.9491396,-28.899999618530277,,72.947,,1676137128087,,,172320780000000,6.0269217,Car
Fix,FLP,37.4123329,-121.9494208,-28.899999618530277,3.506338,4.905,8.043892,1676137128086,0.6545863,8.468991,172320780000000,3.3232777,Car
Fix,GPS,37.4123925378,-121.9494681688,-24.085373587430585,3.5183818,3.7440014,8.827698,1676137127000,0.6962104,3.9770818,172321315736000,3.0,Car
Fix,FLP,37.4123777,-121.9494508,-28.899999618530277,3.5357912,4.905,7.9206543,1676137128621,0.6962104,3.9770818,172321315736000,3.3100529,Car
Fix,GPS,37.4124489613,-121.9495349388,-24.434456630867285,5.627804,3.7187767,8.827698,1676137128000,0.8085022,5.762577,172322316003000,3.012471,Car
Fix,FLP,37.4124365,-121.9495059,-28.899999618530277,5.568442,4.905,8.035661,1676137129623,0.8085022,5.762577,172322316003000,3.2640414,Car
Fix,GPS,37.4125204215,-121.9496230339,-24.846856703968182,3.7857027,3.916513,336.3557,1676137129000,0.7974165,9.804419,172323315762000,3.1601098,Car
Fix,FLP,37.4125094,-121.949583,-28.899999618530277,3.8201928,4.764,336.99426,1676137130622,0.7974165,9.804419,172323315762000,3.2512186,Car
Fix,GPS,37.4125913844,-121.9497401801,-25.48980339057351,3.7857027,4.0232134,336.3557,1676137130000,0.8251347,24.514217,172324315773000,3.3647506,Car
Fix,FLP,37.4125755,-121.9496957,-28.899999618530277,3.7964895,4.782,335.88867,1676137131622,0.8251347,24.514217,172324315773000,3.2477067,Car
Fix,GPS,37.4126797253,-121.9498686358,-26.97708285799901,9.229041,4.2554126,336.3557,1676137131000,0.89390624,180.0,172325315788000,3.5381663,Car
Fix,FLP,37.4126392,-121.9497996,-28.899999618530277,4.1478844,4.85,333.66794,1676137132622,0.89390624,180.0,172325315788000,3.2581584,Car
Fix,NLP,37.4119949,-121.9537381,-22.600000381469727,,142.5,,1676137133105,,,172325798000000,49.510414,Car
Fix,FLP,37.4126609,-121.9498233,-28.899999618530277,4.367401,4.934,331.16055,1676137133104,0.89390624,180.0,172325798000000,3.026364,Car
Fix,GPS,37.4127720943,-121.9500083559,-28.51841675972643,4.6643357,4.363101,317.491,1676137132000,0.7102752,3.546124,172326315808000,3.6742961,Car
Fix,FLP,37.4127401,-121.9499524,-28.899999618530277,4.721835,5.0,317.00204,1676137133622,0.7102752,3.546124,172326315808000,3.2094784,Car
Fix,GPS,37.4128651907,-121.9501456261,-29.071216288001366,5.409664,4.417267,315.31424,1676137133000,0.72703254,3.3564062,172327315813000,3.7713044,Car
Fix,FLP,37.4128351,-121.9500955,-28.899999618530277,5.401909,4.927,315.0234,1676137134622,0.72703254,3.3564062,172327315813000,3.197816,Car
Fix,GPS,37.4129658698,-121.9503024905,-29.409886144175086,6.132205,4.3783436,312.89172,1676137134000,0.69807535,2.8728325,172328315848000,3.8214788,Car
Fix,FLP,37.4129352,-121.9502504,-28.899999618530277,6.124065,5.14,312.03912,1676137135622,0.69807535,2.8728325,172328315848000,3.1964593,Car
Fix,GPS,37.4130698179,-121.9504718236,-28.80974650343661,15.957155,4.6541805,309.365,1676137135000,0.7197093,2.4529855,172329315857000,3.9390872,Car
Fix,FLP,37.4130388,-121.9504181,-28.899999618530277,15.735611,5.23,309.033,1676137136622,0.7197093,2.4529855,172329315857000,3.204219,Car
Fix,GPS,37.4131782594,-121.950666432,-28.23780733833336,17.963804,4.4098997,307.25208,1676137136000,0.36323348,1.1569386,172330315954000,3.9433234,Car
Fix,FLP,37.4131624,-121.9506318,-28.899999618530277,17.950983,5.457,307.01056,1676137137621,0.36323348,1.1569386,172330315954000,3.2146466,Car
Fix,GPS,37.4132839731,-121.950848624,-27.707048677120408,18.324194,4.1391954,307.66177,1676137137000,0.34065875,1.0579951,172331316033000,3.8996706,Car
Fix,FLP,37.4132762,-121.9508312,-28.899999618530277,18.322264,4.399,307.00003,1676137138622,0.34065875,1.0579951,172331316033000,3.2667022,Car
Fix,GPS,37.4133848611,-121.9510294862,-26.7378956245946,18.464333,4.1052036,307.50757,1676137138000,0.3300022,1.0180911,172332315893000,3.7556715,Car
Fix,FLP,37.4133819,-121.9510191,-28.899999618530277,18.463652,4.337,306.99997,1676137139622,0.3300022,1.0180911,172332315893000,3.2971172,Car
Fix,GPS,37.4134845683,-121.9512015533,-26.33974651710141,18.297724,4.1053066,307.54547,1676137139000,0.34269783,1.0697396,172333315923000,3.3806376,Car
Fix,FLP,37.4134837,-121.9511966,-28.899999618530277,18.29867,4.282,306.99997,1676137140622,0.34269783,1.0697396,172333315923000,3.186968,Car
Fix,GPS,37.4135822288,-121.9513683456,-26.033942707207256,18.086258,4.10541,307.4921,1676137140000,0.34363627,1.0835149,172334315917000,3.1586301,Car
Fix,FLP,37.4135824,-121.9513663,-28.899999618530277,18.087454,4.172,306.99997,1676137141622,0.34363627,1.0835149,172334315917000,3.18012,Car
Fix,GPS,37.4136795477,-121.9515351914,-25.790375491353124,17.853703,4.1055136,307.70166,1676137141000,0.33283386,1.0589054,172335315984000,3.0050778,Car
Fix,FLP,37.4136798,-121.9515335,-28.899999618530277,17.85493,4.112,306.99997,1676137142621,0.33283386,1.0589054,172335315984000,3.1782467,Car
Fix,GPS,37.4137745271,-121.9516970466,-25.665526001190585,17.723934,4.0869374,307.2889,1676137142000,0.35244554,1.1390239,172336315948000,3.0,Car
Fix,FLP,37.4137751,-121.9516964,-28.899999618530277,17.724709,4.107,306.99997,1676137143622,0.35244554,1.1390239,172336315948000,3.1871347,Car
Fix,GPS,37.4138703046,-121.9518573297,-25.764830515609717,17.606594,4.10572,307.15314,1676137143000,0.34773248,1.1296768,172337315973000,3.0,Car
Fix,FLP,37.4138706,-121.9518571,-28.899999618530277,17.607271,4.101,307.0,1676137144622,0.34773248,1.1296768,172337315973000,3.2017105,Car
Fix,GPS,37.4139633995,-121.9520147975,-25.848535723138543,17.183561,4.1058235,306.92087,1676137144000,0.3493193,1.1643403,172338315975000,3.0,Car
Fix,FLP,37.4139642,-121.9520153,-28.16343292771352,17.185997,4.102,306.00592,1676137145622,0.3493193,1.1643403,172338315975000,3.0768418,Car
Fix,GPS,37.4140554025,-121.9521700628,-25.808493137568448,16.752472,4.1059265,306.94547,1676137145000,0.3540136,1.2133437,172339316347000,3.0,Car
Fix,FLP,37.4140553,-121.952171,-28.34300240849666,16.755054,4.102,306.00006,1676137146623,0.3540136,1.2133437,172339316347000,3.2928982,Car
Fix,GPS,37.4141444976,-121.9523199743,-25.895623702373427,16.342394,4.10603,307.07303,1676137146000,0.34000728,1.1892675,172340316020000,3.0,Car
Fix,FLP,37.4141443,-121.9523214,-28.41218396677107,16.344639,4.102,306.9944,1676137147623,0.34000728,1.1892675,172340316020000,3.1457882,Car
Fix,GPS,37.4142336568,-121.9524653907,-25.78935936611657,16.072617,4.1061335,307.4653,1676137147000,0.35081488,1.2495706,172341316071000,3.0,Car
Fix,FLP,37.4142334,-121.9524667,-28.44982663563394,16.074203,4.106,307.0,1676137148623,0.35081488,1.2495706,172341316071000,3.172369,Car
Fix,GPS,37.4143211878,-121.9526061285,-25.3959674860022,15.704936,4.106236,307.66748,1676137148000,0.35146064,1.281567,172342316211000,3.0,Car
Fix,FLP,37.414321,-121.952608,-28.45796556902458,15.707095,4.106,307.00003,1676137149622,0.35146064,1.281567,172342316211000,3.1799495,Car
Fix,GPS,37.4144067894,-121.9527443258,-25.094270218212763,15.36645,4.1063395,306.98706,1676137149000,0.32896292,1.2225112,172343316076000,3.0,Car
Fix,FLP,37.4144065,-121.9527462,-28.595817562947037,15.368178,4.106,306.00525,1676137150623,0.32896292,1.2225112,172343316076000,3.19143,Car
Fix,GPS,37.4144893541,-121.9528785051,-24.89692867432316,14.85859,4.1064425,307.13876,1676137150000,0.32925054,1.2634989,172344316081000,3.0,Car
Fix,FLP,37.4144889,-121.9528812,-28.705181936797302,14.86119,4.106,306.99475,1676137151622,0.32925054,1.2634989,172344316081000,3.2251525,Car
Fix,GPS,37.4145674457,-121.9530079663,-24.814862015310148,14.020841,4.106546,306.70898,1676137151000,0.3319398,1.3539014,172345316409000,3.0,Car
Fix,FLP,37.414568,-121.9530105,-28.509867659048645,14.025215,4.106,306.00552,1676137152623,0.3319398,1.3539014,172345316409000,3.3613625,Car
Fix,GPS,37.4146396635,-121.9531273971,-24.515808706450397,13.027118,4.1066484,307.12314,1676137152000,0.33262044,1.4579166,172346316148000,3.0,Car
Fix,FLP,37.4146405,-121.9531311,-29.17924742080572,13.032331,4.106,306.9944,1676137153623,0.33262044,1.4579166,172346316148000,3.3213196,Car
Fix,GPS,37.4147074737,-121.95323636,-24.499655138082176,11.946791,4.1067514,307.5301,1676137153000,0.33752275,1.6127633,172347316288000,3.0,Car
Fix,FLP,37.4147086,-121.9532404,-29.276905677233334,11.952635,4.106,306.99997,1676137154622,0.33752275,1.6127633,172347316288000,2.9961624,Car
Fix,GPS,37.4147672637,-121.9533328996,-24.64619140524829,10.659026,4.1068544,307.46832,1676137154000,0.33510676,1.7936137,172348316148000,3.0,Car
Fix,FLP,37.4147692,-121.9533379,-29.47323535974241,10.665885,4.106,307.0,1676137155623,0.33510676,1.7936137,172348316148000,3.3024979,Car
Fix,GPS,37.4148196277,-121.9534161821,-24.623788888847415,9.149538,4.106957,307.4723,1676137155000,0.33546555,2.0925086,172349316154000,3.0,Car
Fix,FLP,37.414822,-121.953422,-29.640062419789466,9.157598,4.107,306.99997,1676137156622,0.33546555,2.0925086,172349316154000,3.1700308,Car
Fix,GPS,37.4148636128,-121.9534861447,-24.59630720835172,7.7356834,4.10706,306.15176,1676137156000,0.31486925,2.3354843,172350316164000,3.0,Car
Fix,FLP,37.4148661,-121.9534921,-29.745853046245777,7.7423687,4.107,306.00565,1676137157623,0.31486925,2.3354843,172350316164000,3.1863563,Car
Fix,GPS,37.4148998123,-121.9535470619,-24.657558182803797,6.828648,4.1071625,306.6199,1676137157000,0.30163467,2.5210183,172351316179000,3.0,Car
Fix,FLP,37.4149021,-121.9535522,-29.85367674547041,6.832576,4.107,306.0,1676137158623,0.30163467,2.5210183,172351316179000,3.224083,Car
Fix,GPS,37.4149341308,-121.9536009916,-24.45379192083754,5.615395,4.107266,308.52838,1676137158000,0.2894478,2.9129424,172352316363000,3.0,Car
Fix,FLP,37.4149354,-121.9536054,-29.960481884090008,5.6201696,4.107,307.99033,1676137159623,0.2894478,2.9129424,172352316363000,2.9992566,Car
Fix,GPS,37.4149613309,-121.9536392456,-24.484430417698256,3.860363,4.107368,307.4255,1676137159000,0.26947558,3.9735522,172353316241000,3.0,Car
Fix,FLP,37.414963,-121.9536444,-30.187311178394488,3.8664117,4.107,307.00485,1676137160623,0.26947558,3.9735522,172353316241000,3.306901,Car
Fix,GPS,37.4149776076,-121.9536634379,-24.459545493526857,2.1002514,4.107471,303.55765,1676137160000,0.22447355,6.1546206,172354316222000,3.0,Car
Fix,FLP,37.4149796,-121.9536685,-30.337340663304992,2.1044948,4.107,303.01807,1676137161623,0.22447355,6.1546206,172354316222000,3.2198915,Car
Fix,NLP,37.4150081,-121.9542689,-21.899999618530277,,21.994,,1676137161529,,,172354222000000,3.267717,Car
Fix,GPS,37.4149837681,-121.9536719098,-24.33174628501898,0.81419384,4.1075735,303.55765,1676137161000,0.2008756,9.715905,172355316239000,3.0,Car
Fix,FLP,37.4149859,-121.9536774,-30.067236090443465,0.815969,4.107,302.9844,1676137162623,0.2008756,9.715905,172355316239000,3.2323835,Car
Fix,GPS,37.41498532,-121.9536710037,-24.345979470863185,0.31295422,4.08671,303.55765,1676137162000,0.17984496,42.921932,172356316252000,3.0,Car
Fix,FLP,37.4149868,-121.9536756,-29.857681115106168,0.31395894,4.103,303.0185,1676137163623,0.17984496,42.921932,172356316252000,3.455131,Car
Fix,GPS,37.4149847096,-121.9536669866,-24.33250138228828,0.0,4.0866976,303.55765,1676137163000,0.17039736,50.83272,172357316262000,3.0,Car
Fix,FLP,37.4149859,-121.9536707,-30.395826012371,0.00026616617,4.101,,1676137164623,0.17039736,,172357316262000,3.2008846,Car
Fix,GPS,37.4149847096,-121.9536669866,-24.470913990762785,0.0,4.086684,303.55765,1676137164000,0.16165349,180.0,172358316287000,3.0,Car
Fix,FLP,37.4149851,-121.9536682,-29.8780479207502,5.505825e-08,4.097,,1676137165623,0.16165349,,172358316287000,3.141579,Car
Fix,GPS,37.4149847096,-121.9536669866,-24.39774044495638,0.0,4.0866714,303.55765,1676137165000,0.16566017,180.0,172359316586000,3.0,Car
Fix,FLP,37.4149848,-121.9536674,-29.431480621551863,5.27382e-08,4.091,,1676137166622,0.16566017,,172359316586000,3.3888998,Car
Fix,NLP,37.415012,-121.9542484,-18.5,,19.525,,1676137166567,,,172359260000000,3.2060435,Car
Fix,GPS,37.4149847096,-121.9536669866,-24.334755970080696,0.0,4.086658,303.55765,1676137166000,0.16965804,180.0,172360316304000,3.0,Car
Fix,FLP,37.4149847,-121.9536671,-27.217757101351875,5.9747465e-09,4.087,,1676137167623,0.16965804,,172360316304000,2.8283427,Car
Fix,GPS,37.4149819965,-121.9536609355,-24.39137353691669,0.37562576,4.086645,303.55765,1676137167000,0.17803574,18.108267,172361316323000,3.0,Car
Fix,FLP,37.4149829,-121.9536629,-27.128754958427574,0.37518638,4.087,303.009,1676137168622,0.17803574,18.108267,172361316323000,2.8142397,Car
Fix,GPS,37.4149864786,-121.9536689427,-24.12211274233085,2.3134468,4.086633,297.1194,1676137168000,0.20433591,5.271443,172362316788000,3.0,Car
Fix,FLP,37.4149859,-121.9536681,-26.971091719265445,2.309459,4.087,297.0001,1676137169623,0.20433591,5.271443,172362316788000,2.8547907,Car
Fix,GPS,37.4150004453,-121.9537017766,-24.283314986649035,4.584512,4.0866203,306.5034,1676137169000,0.2527788,3.1632333,172363316511000,3.0,Car
Fix,FLP,37.4149988,-121.9536985,-26.756970160079558,4.5774636,4.087,305.9861,1676137170622,0.2527788,3.1632333,172363316511000,2.891762,Car
Fix,GPS,37.415031785,-121.953754364,-24.331841268975808,6.37757,4.0866084,308.88397,1676137170000,0.2871811,2.5503173,172364316554000,3.0,Car
Fix,FLP,37.415029,-121.9537499,-26.67254069095945,6.3705587,4.087,307.99454,1676137171623,0.2871811,2.5503173,172364316554000,2.9410214,Car
Fix,NLP,37.4150295,-121.954238,-23.200000762939453,,18.725,,1676137171558,,,172364251000000,3.5636408,Car
Fix,GPS,37.415076435,-121.9538206995,-24.172252919002293,7.393958,4.0865974,307.48846,1676137171000,0.2952737,2.2794852,172365316381000,3.0,Car
Fix,FLP,37.4150734,-121.9538179,-26.64253242351339,7.3899827,4.087,307.0034,1676137172623,0.2952737,2.2794852,172365316381000,2.8805425,Car
Fix,GPS,37.4151237302,-121.9538955151,-24.12010767726711,8.5328,4.086586,306.7509,1676137172000,0.31121612,2.0888908,172366316470000,3.0,Car
Fix,FLP,37.4151204,-121.953892,-26.56267939633363,8.527537,4.087,306.00406,1676137173623,0.31121612,2.0888908,172366316470000,2.8515217,Car
Fix,GPS,37.415174087,-121.9539791443,-24.106781227970444,9.506693,4.0865746,307.2204,1676137173000,0.32247415,1.9394243,172367316424000,3.0,Car
Fix,FLP,37.4151714,-121.9539763,-26.502661974917768,9.501863,4.087,306.99564,1676137174623,0.32247415,1.9394243,172367316424000,2.8619945,Car
Fix,GPS,37.4152318187,-121.9540724719,-24.332170245741956,10.701711,4.086564,308.4739,1676137174000,0.3348423,1.7828523,172368316611000,3.0,Car
Fix,FLP,37.4152289,-121.9540692,-26.379574065711203,10.695356,4.087,307.99533,1676137175622,0.3348423,1.7828523,172368316611000,2.8705406,Car
Fix,GPS,37.4152976249,-121.9541771766,-24.180796022670997,11.994259,4.0865536,307.4156,1676137175000,0.34124902,1.6333354,172369316558000,3.0,Car
Fix,FLP,37.4152946,-121.9541732,-26.2646225816217,11.987068,4.087,307.0049,1676137176622,0.34124902,1.6333354,172369316558000,2.8716335,Car
Fix,NLP,37.4151368,-121.9542894,-19.100000381469727,,20.101,,1676137176570,,,172369263000000,2.8352156,Car
Fix,GPS,37.4153680418,-121.9542935706,-23.79973875502176,13.105664,4.561501,306.88516,1676137176000,0.3722222,1.6127958,172370316653000,3.0,Car
Fix,FLP,37.4153667,-121.9542921,-26.147634953069677,13.098723,4.166,306.00577,1676137177623,0.3722222,1.6127958,172370316653000,2.8846405,Car
Fix,GPS,37.4154437238,-121.9544209698,-23.693407610556683,14.122956,4.086532,306.08038,1676137177000,0.36483923,1.5031388,172371316481000,3.0,Car
Fix,FLP,37.4154412,-121.9544182,-26.016403425647702,14.116421,4.166,305.99994,1676137178623,0.36483923,1.5031388,172371316481000,2.8729703,Car
Fix,GPS,37.4155220167,-121.9545550193,-23.593099832982904,14.883714,4.0865226,306.33594,1676137178000,0.35982096,1.4049983,172372316474000,3.0,Car
Fix,FLP,37.41552,-121.9545526,-25.7834370135672,14.878958,4.166,305.99994,1676137179623,0.35982096,1.4049983,172372316474000,2.8389802,Car
Fix,GPS,37.4156049883,-121.9546951218,-23.73814860978162,15.439097,4.086512,307.65128,1676137179000,0.35440627,1.317369,172373316686000,3.044599,Car
Fix,FLP,37.415603,-121.9546932,-25.67051211924472,15.435756,4.166,306.99426,1676137180622,0.35440627,1.317369,172373316686000,2.8615344,Car
Fix,GPS,37.4156924923,-121.9548382113,-23.46346097258342,16.038034,4.0865026,307.61978,1676137180000,0.35005417,1.2548271,172374316505000,3.0637472,Car
Fix,FLP,37.4156906,-121.9548365,-25.554533630497662,16.034533,4.166,306.99997,1676137181623,0.35005417,1.2548271,172374316505000,2.8847852,Car
Fix,GPS,37.4157831562,-121.9549866415,-23.285884989033743,16.532032,4.0864925,307.49268,1676137181000,0.37363392,1.3058802,172375316667000,3.0952954,Car
Fix,FLP,37.4157814,-121.954985,-25.370389076864857,16.528727,4.086,307.0,1676137182623,0.37363392,1.3058802,172375316667000,2.8656204,Car
Fix,GPS,37.4158758278,-121.9551381682,-23.257978075543377,16.837303,4.5597167,307.52243,1676137182000,0.39119697,1.3213782,172376316574000,3.130734,Car
Fix,FLP,37.4158742,-121.955137,-25.30120666098456,16.835096,4.181,307.00003,1676137183623,0.39119697,1.3213782,172376316574000,2.887845,Car
Fix,GPS,37.4159724197,-121.9552914832,-22.610593546967177,16.979727,4.0864735,307.78467,1676137183000,0.37446082,1.2745876,172377316596000,3.1662374,Car
Fix,FLP,37.4159702,-121.9552908,-25.265597843863983,16.978775,4.181,307.00003,1676137184622,0.37446082,1.2745876,172377316596000,2.9306266,Car
Fix,GPS,37.4160679992,-121.9554455048,-22.308575894753737,17.013937,4.0864644,307.20862,1676137184000,0.349573,1.1837165,172378316572000,3.1756673,Car
Fix,FLP,37.4160661,-121.9554452,-25.228462774801617,17.013742,4.165,307.00003,1676137185623,0.349573,1.1837165,172378316572000,2.954773,Car
Fix,GPS,37.4161569061,-121.9556032473,-22.514552098171297,16.934404,4.0864544,306.7654,1676137185000,0.3481801,1.1805472,172379316599000,3.1138372,Car
Fix,FLP,37.4161573,-121.9556019,-25.1964145703574,16.934853,4.18,306.00577,1676137186623,0.3481801,1.1805472,172379316599000,2.9689066,Car
Fix,GPS,37.4162499124,-121.9557589644,-22.8907578411572,16.954584,4.086445,307.48596,1676137186000,0.34024101,1.147454,172380316599000,3.0852056,Car
Fix,FLP,37.4162489,-121.9557584,-25.1964145703574,16.95447,4.165,306.99457,1676137187623,0.34024101,1.147454,172380316599000,2.9468048,Car
Fix,GPS,37.416344168,-121.9559121759,-22.77803030297001,16.940289,4.0864353,307.50934,1676137187000,0.3355595,1.1313907,172381316607000,3.0398984,Car
Fix,FLP,37.4163431,-121.9559121,-25.267632637454515,16.940369,4.086,307.0,1676137188623,0.3355595,1.1313907,172381316607000,2.9533978,Car
Fix,GPS,37.4164381981,-121.9560648557,-22.634819250583345,17.055632,4.086426,306.70245,1676137188000,0.32535186,1.0913187,172382316789000,3.0106804,Car
Fix,FLP,37.4164371,-121.9560651,-25.267632637454515,17.05504,4.086,306.005,1676137189623,0.32535186,1.0913187,172382316789000,2.9723146,Car
Fix,GPS,37.4165320506,-121.9562206544,-22.55104914343381,17.073164,4.0864162,306.5434,1676137189000,0.3130253,1.0432377,172383316666000,3.0,Car
Fix,FLP,37.4165306,-121.9562209,-25.42227551721352,17.073084,4.086,306.00006,1676137190623,0.3130253,1.0432377,172383316666000,2.9520903,Car
Fix,GPS,37.4166262619,-121.9563768243,-22.619576686669305,17.002522,4.086407,306.9191,1676137190000,0.33550736,1.124877,172384316653000,3.0,Car
Fix,FLP,37.4166246,-121.956377,-25.489930887529997,17.002903,4.086,306.00003,1676137191622,0.33550736,1.124877,172384316653000,2.9855561,Car
Fix,GPS,37.4167179762,-121.9565288538,-22.77572145785429,16.803783,4.0863976,307.47217,1676137191000,0.33945742,1.146897,172385316673000,3.0,Car
Fix,FLP,37.4167169,-121.9565302,-25.54130791228588,16.804855,4.086,306.99454,1676137192622,0.33945742,1.146897,172385316673000,3.03157,Car
Fix,GPS,37.4168103253,-121.956677312,-22.71239141379986,16.297245,4.086388,307.47308,1676137192000,0.3306305,1.155268,172386316683000,3.0,Car
Fix,FLP,37.4168095,-121.9566789,-25.62167926529389,16.299868,4.086,307.0,1676137193623,0.3306305,1.155268,172386316683000,3.053258,Car
Fix,GPS,37.4169003037,-121.9568203963,-22.707734056943952,15.654378,4.086379,307.1536,1676137193000,0.32996503,1.2047368,172387316688000,3.0,Car
Fix,FLP,37.4168995,-121.9568223,-25.82769095262008,15.657711,4.086,307.00003,1676137194622,0.32996503,1.2047368,172387316688000,3.033635,Car
Fix,GPS,37.416984496,-121.9569552691,-22.789559495375972,14.931817,4.0863695,307.388,1676137194000,0.3321635,1.2720296,172388316734000,3.0,Car
Fix,FLP,37.4169844,-121.9569581,-25.98028896567162,14.935612,4.086,307.00003,1676137195622,0.3321635,1.2720296,172388316734000,3.0485897,Car
Fix,GPS,37.4170655858,-121.9570836814,-22.920254291262285,14.377252,4.08636,307.14987,1676137195000,0.33003885,1.3116785,172389316747000,3.0,Car
Fix,FLP,37.4170655,-121.9570867,-23.200000762939453,14.380128,4.086,307.00003,1676137196623,0.33003885,1.3116785,172389316747000,3.3542476,Car
Fix,GPS,37.4171427704,-121.9572077863,-23.01542756257249,13.969135,4.1111574,307.9086,1676137196000,0.33656392,1.3711468,172390316734000,3.0,Car
Fix,FLP,37.417143,-121.9572107,-23.200000762939453,13.971326,4.091,307.0,1676137197623,0.33656392,1.3711468,172390316734000,3.363747,Car
Fix,GPS,37.4172193486,-121.9573260555,-22.781164301400757,13.397389,4.1112595,310.73425,1676137197000,0.30881715,1.2849889,172391316760000,3.0,Car
Fix,FLP,37.4172191,-121.9573296,-26.267674411133125,13.399849,4.096,309.98618,1676137198623,0.30881715,1.2849889,172391316760000,3.087896,Car
Fix,GPS,37.4172985745,-121.957434011,-22.73118978075624,12.945048,4.111361,314.27216,1676137198000,0.28800252,1.2255858,172392316771000,3.0,Car
Fix,FLP,37.417298,-121.9574378,-26.192395628259582,12.946653,4.101,313.98422,1676137199623,0.28800252,1.2255858,172392316771000,3.074567,Car
Fix,GPS,37.4173818441,-121.957529602,-22.696325680256663,12.577048,4.1114626,316.42218,1676137199000,0.2898422,1.2635491,172393316782000,3.0,Car
Fix,FLP,37.4173809,-121.957534,-26.02148995691056,12.578429,4.106,315.9921,1676137200622,0.2898422,1.2635491,172393316782000,3.0965657,Car
Fix,NLP,37.416932,-121.9576478,-29.0,,50.293,,1676137200386,,,172393079000000,3.6181517,Car
Fix,GPS,37.4174701337,-121.9576233682,-22.7549993171726,12.952899,4.209329,319.47284,1676137200000,0.2823188,1.1816407,172394316794000,3.0,Car
Fix,FLP,37.4174739,-121.9576333,-25.611505718546624,12.951725,4.127,318.9915,1676137201622,0.2823188,1.1816407,172394316794000,2.9227693,Car
Fix,GPS,37.4175618032,-121.9577143815,-22.519858923711016,13.392805,4.2094517,321.4463,1676137201000,0.29817864,1.1968405,172395316826000,3.0,Car
Fix,FLP,37.4175618,-121.9577193,-25.330710995824123,13.390979,4.143,320.99222,1676137202622,0.29817864,1.1968405,172395316826000,2.9607944,Car
Fix,GPS,37.4176612608,-121.9578067733,-21.89390351466453,13.871488,4.209574,323.60352,1676137202000,0.30493334,1.1851513,172396316849000,3.0,Car
Fix,FLP,37.4176594,-121.9578093,-24.85048970945856,13.869405,4.16,322.99185,1676137203623,0.30493334,1.1851513,172396316849000,2.9122086,Car
Fix,GPS,37.417766636,-121.9578973163,-21.479427089188647,13.821555,4.209696,325.10233,1676137203000,0.30377433,1.1959513,172397316844000,3.0,Car
Fix,FLP,37.4177642,-121.9578994,-23.200000762939453,13.8216915,4.176,324.99167,1676137204623,0.30377433,1.1959513,172397316844000,2.911776,Car
Fix,GPS,37.4178706974,-121.9579810705,-21.220663882221693,13.537316,4.209818,325.3053,1676137204000,0.30577317,1.2279048,172398316865000,3.0,Car
Fix,FLP,37.4178692,-121.9579837,-24.124001420932117,13.538528,4.209,325.0001,1676137205623,0.30577317,1.2279048,172398316865000,2.8381345,Car
Fix,GPS,37.4179728712,-121.958062946,-21.170145287925745,13.291592,4.2099395,325.4516,1676137205000,0.30464467,1.2490529,172399316869000,3.016233,Car
Fix,FLP,37.4179716,-121.9580657,-23.55111018438672,13.292638,4.209,325.00012,1676137206623,0.30464467,1.2490529,172399316869000,2.8551407,Car
Fix,GPS,37.4180743055,-121.9581431234,-20.77250862011004,13.412953,4.2100616,326.17163,1676137206000,0.30341107,1.2309896,172400316910000,3.0089333,Car
Fix,FLP,37.4180728,-121.958146,-23.200000762939453,13.412422,4.21,325.9959,1676137207623,0.30341107,1.2309896,172400316910000,2.9039936,Car
Fix,GPS,37.4181795591,-121.9582274276,-20.22541434015751,13.749462,4.210183,326.02917,1676137207000,0.3018058,1.1933001,172401316896000,3.0026205,Car
Fix,FLP,37.4181774,-121.9582285,-23.200000762939453,13.748066,4.21,325.9999,1676137208623,0.3018058,1.1933001,172401316896000,3.0153418,Car
Fix,GPS,37.4182856347,-121.9583144503,-19.65527018637444,13.853393,4.2103047,325.2444,1676137208000,0.30118746,1.1843512,172402316926000,3.014453,Car
Fix,FLP,37.4182838,-121.9583149,-23.200000762939453,13.852968,4.21,325.00406,1676137209623,0.30118746,1.1843512,172402316926000,3.0169246,Car
Fix,GPS,37.4183908835,-121.9584051172,-19.008083339569087,13.865249,4.2104263,323.9674,1676137209000,0.3057937,1.1983423,172403316928000,3.0086339,Car
Fix,FLP,37.4183893,-121.958405,-21.507515786683683,13.865194,4.21,323.00845,1676137210623,0.3057937,1.1983423,172403316928000,3.0433204,Car
Fix,GPS,37.4184905706,-121.9584958317,-18.525298874546174,14.021911,4.210548,322.79318,1676137210000,0.3159,1.2161977,172404316957000,3.026197,Car
Fix,FLP,37.4184901,-121.958497,-21.00824595075634,14.02121,4.21,322.00443,1676137211623,0.3159,1.2161977,172404316957000,3.0498278,Car
Fix,GPS,37.4185910672,-121.9585907929,-18.157755293883078,14.225664,4.2106695,321.5209,1676137211000,0.31243446,1.184299,172405316964000,3.0449045,Car
Fix,FLP,37.4185906,-121.9585921,-19.100000381469727,14.224768,4.21,321.0043,1676137212623,0.31243446,1.184299,172405316964000,3.0268981,Car
Fix,GPS,37.4186897934,-121.9586913258,-17.792202015455437,14.394197,4.2107916,320.59625,1676137212000,0.2984619,1.1199694,172406316982000,3.0524004,Car
