Fix,Provider,LatitudeDegrees,LongitudeDegrees,AltitudeMeters,SpeedMps,AccuracyMeters,BearingDegrees,UnixTimeMillis,SpeedAccuracyMps,BearingAccuracyDegrees,elapsedRealtimeNanos,VerticalAccuracyMeters,TransitType
Fix,GPS,37.3885728478,-122.0859082623,37.39417381395193,5.832564,42.00532,223.15916,1676475315415,0.79571897,180.0,73681576139955,57.12973,Car
Fix,FLP,37.3883875,-122.0857513,-9.249084213012368,2.1322649,27.069,305.4533,1676475317192,0.79571897,180.0,73681576139955,1.0034933,Car
Fix,GPS,37.3887000418,-122.0858805464,15.890362118609069,5.122942,18.781742,210.65877,1676475316415,0.99259156,180.0,73682639554710,28.058233,Car
Fix,FLP,37.3885825,-122.0858572,-9.324888616598578,4.650019,28.731,319.15408,1676475318254,0.99259156,180.0,73682639554710,1.0137033,Car
Fix,GPS,37.3886222773,-122.0858476363,6.651881426805511,4.5579925,14.646125,190.79895,1676475317415,1.320303,180.0,73683645280378,22.25117,Car
Fix,FLP,37.3886011,-122.0858639,-9.271320241851662,3.6075616,29.359,222.23972,1676475319260,1.320303,180.0,73683645280378,1.0236733,Car
Fix,NLP,37.3883594,-122.0856254,-0.6000000238418579,,11.232,,1676475319021,,,73683405000000,1.0,Car
Fix,GPS,37.3885461769,-122.085827054,4.043083910257472,6.477843,17.121346,190.50224,1676475318415,1.0295426,180.0,73684661396386,40.137848,Car
Fix,FLP,37.3885574,-122.0858597,-9.16721469361314,5.7488046,23.407,191.80171,1676475320277,1.0295426,180.0,73684661396386,0.9803967,Car
Fix,GPS,37.3884493948,-122.0858255638,-1.4828008604492735,6.6936398,5.4217625,204.88644,1676475319414,0.86624986,180.0,73685663600000,12.7951,Car
Fix,FLP,37.3884591,-122.08583,-9.11465606572576,6.3735294,21.159,179.634,1676475321279,0.86624986,180.0,73685663600000,0.9893867,Car
Fix,GPS,37.3883869008,-122.0858603051,-3.9480564561970257,6.7029443,7.8695784,210.6225,1676475320414,0.5138675,10.0,73686655697249,13.233866,Car
Fix,FLP,37.3883944,-122.0858587,-9.03783902175264,6.6868687,16.892,209.48337,1676475322270,0.5138675,10.0,73686655697249,0.9993967,Car
Fix,GPS,37.3883274372,-122.0859003989,-4.46122649834729,6.7353354,7.4858794,212.27264,1676475321414,0.52795637,10.0,73687633265569,12.677011,Car
Fix,FLP,37.3883343,-122.0858982,-8.96152666188344,6.7315745,12.577,211.89178,1676475323249,0.52795637,10.0,73687633265569,1.0093867,Car
Fix,NLP,37.3881823,-122.0857705,-1.3000000715255735,,14.354,,1676475324125,,,73688509000000,1.0,Car
Fix,FLP,37.3882951,-122.0859284,-9.013075483790104,6.713956,12.294,211.83908,1676475324124,0.52795637,10.0,73688509000000,0.96319,Car
Fix,GPS,37.3882395061,-122.0859666345,-4.18669924383223,5.6599026,6.8476624,214.43799,1676475322999,0.49017146,10.0,73689235256699,12.132545,Car
Fix,FLP,37.388247,-122.0859629,-9.076753006270536,5.68507,10.602,213.9861,1676475324850,0.49017146,10.0,73689235256699,0.97022,Car
Fix,GPS,37.3882014765,-122.0860020161,-3.100217557641024,3.7611403,6.6289062,219.95491,1676475323999,0.43251243,10.0,73690236341701,11.978545,Car
Fix,FLP,37.3882028,-122.0860007,-9.218762261240345,3.787341,8.854,218.9218,1676475325852,0.43251243,10.0,73690236341701,0.98021,Car
Fix,GPS,37.3881794261,-122.0860305256,-2.513683334466393,2.8542576,6.235243,226.50179,1676475324999,0.4200065,10.0,73691172643000,11.625911,Car
Fix,FLP,37.3881789,-122.0860287,-9.243525196663136,2.863915,8.989,225.90001,1676475326788,0.4200065,10.0,73691172643000,0.98993,Car
Fix,GPS,37.3881633082,-122.0860560761,-1.891126201223969,2.7883587,6.002433,231.88208,1676475325999,0.45863333,10.0,73692172671000,11.3786,Car
Fix,FLP,37.3881624,-122.0860546,-9.009537829587671,2.7890725,8.678,230.94507,1676475327787,0.45863333,10.0,73692172671000,1.00033,Car
Fix,GPS,37.3881494516,-122.0860861785,-1.376283675898774,2.9956434,5.7907553,240.1418,1676475326999,0.38087186,10.0,73693172731000,11.038221,Car
Fix,FLP,37.3881485,-122.0860836,-8.713380385166019,2.9940314,8.395,239.91753,1676475328787,0.38087186,10.0,73693172731000,1.01074,Car
Fix,GPS,37.3881376969,-122.0861205779,-0.8578569921986876,3.693157,5.704071,259.35788,1676475327999,0.36532578,10.0,73694172679000,10.419047,Car
Fix,FLP,37.3881367,-122.0861179,-8.59511666375694,3.6891627,6.201,258.75027,1676475329788,0.36532578,10.0,73694172679000,1.02033,Car
Fix,GPS,37.3881316061,-122.0861650255,-0.7053657774650195,3.8396192,5.6926227,263.92465,1676475328999,0.508275,10.0,73695172685000,9.98365,Car
Fix,FLP,37.3881311,-122.0861628,-8.52334898341288,3.8379195,6.009,262.91922,1676475330788,0.508275,10.0,73695172685000,1.02992,Car
Fix,GPS,37.3881373671,-122.0862126558,-1.328217372170293,4.438603,5.6756854,289.322,1676475329999,0.48990995,10.0,73696173000000,9.474698,Car
Fix,FLP,37.3881337,-122.0862103,-8.421255881214151,4.4181013,5.773,288.41882,1676475331788,0.48990995,10.0,73696173000000,1.04034,Car
Fix,GPS,37.3881500012,-122.0862610426,-1.638737693341205,4.500583,5.8192506,287.09937,1676475330999,0.67630917,10.0,73697172743000,9.211537,Car
Fix,FLP,37.3881486,-122.0862598,-8.353024655229483,4.498969,5.736,287.0377,1676475332788,0.67630917,10.0,73697172743000,1.05073,Car
Fix,GPS,37.3881643941,-122.0863097106,-2.8771873532363803,4.4479733,5.9771914,287.16174,1676475331999,0.6327256,10.0,73698173030000,9.091712,Car
Fix,FLP,37.3881629,-122.0863092,-8.373241372195785,4.4490643,5.773,287.0043,1676475333788,0.6327256,10.0,73698173030000,1.06036,Car
Fix,GPS,37.3881817164,-122.0863584911,-3.852219321545555,5.004925,10.284839,290.27628,1676475332999,0.66870916,10.0,73699172769000,9.084392,Car
Fix,FLP,37.388175,-122.0863492,-8.446526565893357,4.979643,6.571,289.81143,1676475334788,0.66870916,10.0,73699172769000,1.0691377,Car
Fix,GPS,37.3881931671,-122.0864141919,-4.787461635839095,4.9296236,7.6620045,276.27472,1676475333999,0.52265424,10.0,73700172822000,8.9595375,Car
Fix,FLP,37.3881899,-122.0863992,-8.537500405228336,4.94243,7.383,278.8299,1676475335787,0.52265424,10.0,73700172822000,1.08069,Car
Fix,GPS,37.3881928563,-122.0864647612,-5.749589946256831,4.236775,6.2393003,265.34592,1676475334999,0.5847211,10.0,73701172822000,8.932162,Car
Fix,FLP,37.3881941,-122.086458,-8.26407052617936,4.2533293,7.286,265.54916,1676475336788,0.5847211,10.0,73701172822000,1.09068,Car
Fix,GPS,37.3881839405,-122.0865264945,-6.089255982281384,3.903828,6.240613,245.48547,1676475335999,0.6830053,10.701734,73702172997000,8.975829,Car
Fix,FLP,37.3881893,-122.0864964,-7.8637653612587,4.067718,7.28,255.64426,1676475337788,0.6830053,10.701734,73702172997000,1.10067,Car
Fix,GPS,37.3881616283,-122.0865777366,-6.055160850740954,4.6578155,6.060847,222.25752,1676475336999,0.6155325,10.0,73703172887000,8.881484,Car
Fix,FLP,37.3881742,-122.0865487,-7.902684750871678,4.202319,7.114,232.74898,1676475338788,0.6155325,10.0,73703172887000,1.11067,Car
Fix,GPS,37.3881211653,-122.0866179466,-5.053628621460142,5.2134295,5.9568696,213.50769,1676475337999,0.6364789,10.0,73704172897000,8.9049635,Car
Fix,FLP,37.3881339,-122.0866046,-8.00738346662883,5.1855507,6.824,213.42421,1676475339787,0.6364789,10.0,73704172897000,1.1248367,Car
Fix,GPS,37.388069526,-122.086651023,-6.570360491095225,6.527696,5.8861575,204.37125,1676475338999,0.39517507,10.0,73705172927000,8.896078,Car
Fix,FLP,37.3880789,-122.0866457,-8.102333347869461,6.5088854,6.3,204.17903,1676475340788,0.39517507,10.0,73705172927000,1.1307,Car
Fix,GPS,37.3880079749,-122.0866879457,-6.148475758902846,7.2237372,5.7878733,202.92201,1676475339999,0.39225113,10.0,73706172923000,8.87693,Car
Fix,FLP,37.3880144,-122.0866836,-8.068469234370937,7.21206,6.099,202.03107,1676475341787,0.39225113,10.0,73706172923000,1.14068,Car
Fix,FLP,37.3879429,-122.0867276,-8.028539732232623,7.584395,6.016,202.9248,1676475342789,0.37883693,10.0,73707173235000,1.15069,Car
Fix,GPS,37.3879365485,-122.0867347139,-4.5585353819126135,7.594271,5.7201,203.69795,1676475340999,0.37883693,10.0,73707173235000,8.675539,Car
Fix,GPS,37.3878640398,-122.0867849666,-1.412945213053597,7.9724417,5.149025,206.26627,1676475341999,0.024421101,10.0,73708173253000,7.9474626,Car
Fix,FLP,37.387869,-122.0867778,-8.02601254220611,7.9566636,5.79,205.81233,1676475343789,0.024421101,10.0,73708173253000,1.16067,Car
Fix,GPS,37.3877941595,-122.0868291995,-1.1344477358231422,7.8869505,5.001513,206.2802,1676475342999,0.3536578,10.0,73709172978000,7.6875787,Car
Fix,FLP,37.3877975,-122.0868255,-7.97799578816096,7.890094,5.509,206.01607,1676475344788,0.3536578,10.0,73709172978000,1.1748366,Car
Fix,GPS,37.3877328576,-122.0868735187,-0.7339606738541494,7.6485257,5.11282,206.72668,1676475343999,0.027061848,10.0,73710173283000,7.481041,Car
Fix,FLP,37.3877332,-122.0868707,-7.889543158831451,7.6553583,5.354,206.04588,1676475345788,0.027061848,10.0,73710173283000,1.18069,Car
Fix,GPS,37.3876729396,-122.086911849,-0.3018901988502563,7.1273727,4.723361,206.5533,1676475344999,0.031476464,10.0,73711173299000,7.2616587,Car
Fix,FLP,37.3876724,-122.0869108,-7.785420592018355,7.139064,5.141,206.07253,1676475346788,0.031476464,10.0,73711173299000,1.19068,Car
Fix,GPS,37.3876188167,-122.0869482548,0.2402145113244654,6.4746294,4.723302,208.7363,1676475345999,0.030875105,10.0,73712173014000,7.0898924,Car
Fix,FLP,37.3876175,-122.0869477,-7.791486019438835,6.4848185,5.071,207.99728,1676475347789,0.030875105,10.0,73712173014000,1.2048566,Car
Fix,GPS,37.3875780293,-122.0869850069,0.607370069445756,5.2807746,4.7232428,215.69301,1676475346999,0.041445184,10.0,73713173006000,6.9506407,Car
Fix,FLP,37.3875742,-122.0869841,-7.803111409830301,5.296067,4.905,214.89171,1676475348789,0.041445184,10.0,73713173006000,1.2107,Car
Fix,GPS,37.3875495167,-122.087020044,1.149137114237755,4.0114436,4.605942,222.81041,1676475347999,0.03298546,10.0,73714173061000,6.775846,Car
Fix,FLP,37.387545,-122.0870195,-7.895103065648989,4.0247374,4.777,221.91321,1676475349789,0.03298546,10.0,73714173061000,1.22068,Car
Fix,GPS,37.3875355368,-122.0870436147,1.134834833367923,2.4729583,5.717388,229.26033,1676475348999,0.045121986,10.0,73715173057000,6.682213,Car
Fix,FLP,37.3875289,-122.087046,-7.950196490103146,2.479861,4.934,228.92746,1676475350788,0.045121986,10.0,73715173057000,1.23069,Car
Fix,GPS,37.3875309308,-122.0870516487,1.3835562453560093,0.96513456,5.405036,229.26033,1676475349999,0.07913227,21.720636,73716173062000,6.603895,Car
Fix,FLP,37.3875252,-122.0870569,-7.950196490103146,0.9700913,4.982,228.96268,1676475351789,0.07913227,21.720636,73716173062000,1.2448467,Car
Fix,NLP,37.3875691,-122.0869666,-0.8999999761581421,,32.867,,1676475352606,,,73716991000000,1.0,Car
Fix,FLP,37.3875222,-122.0870618,-7.902684750871678,0.96942836,6.868,228.97195,1676475352607,0.07913227,21.720636,73716991000000,0.96287,Car
Fix,GPS,37.3875292158,-122.087055328,1.4258066485196856,0.29333794,4.302095,229.26033,1676475350999,0.041905444,15.453025,73717173046000,6.5311184,Car
Fix,FLP,37.3875266,-122.0870577,-7.899146631947296,0.29344693,6.798,228.99913,1676475352788,0.041905444,15.453025,73717173046000,0.96585,Car
Fix,GPS,37.3875256547,-122.0870629703,1.774046496044008,0.69093865,4.301972,229.26033,1676475351999,0.041714743,19.513453,73718173030000,6.453551,Car
Fix,FLP,37.3875254,-122.0870621,-7.602950282298046,0.6904035,6.728,229.00584,1676475353789,0.041714743,19.513453,73718173030000,0.9795167,Car
Fix,GPS,37.3875167499,-122.0870884727,2.4247285598976456,2.2478294,4.301849,246.86784,1676475352999,0.036099494,10.0,73719173059000,6.397993,Car
Fix,FLP,37.3875182,-122.0870819,-0.8999999761581421,2.2448976,6.381,246.04575,1676475354789,0.036099494,10.0,73719173059000,0.98575,Car
Fix,GPS,37.387513181,-122.0871299895,2.5062689755998733,3.7361925,4.3756623,264.31323,1676475353999,0.074681304,10.0,73720173100000,6.2922664,Car
Fix,FLP,37.3875122,-122.087122,-7.0707643924449,3.7364705,6.454,263.84253,1676475355789,0.074681304,10.0,73720173100000,0.99618,Car
Fix,GPS,37.3875238534,-122.087185089,2.965036267729876,5.2768793,4.332593,285.19006,1676475354999,0.034869783,10.0,73721173130000,6.2052383,Car
Fix,FLP,37.3875191,-122.0871783,-6.968655014385298,5.257247,6.275,284.34927,1676475356789,0.034869783,10.0,73721173130000,1.00578,Car
Fix,GPS,37.3875483793,-122.0872546433,3.1127943944104794,6.726935,4.4953346,294.91895,1676475355999,0.05207889,10.0,73722173159000,6.112781,Car
Fix,FLP,37.387543,-122.0872486,-6.937314264826199,6.68805,4.361,293.4881,1676475357788,0.05207889,10.0,73722173159000,1.0203466,Car
Fix,GPS,37.3875845419,-122.0873344462,2.87363371991968,8.133657,4.60618,299.77963,1676475356999,0.051971022,10.0,73723173399000,5.976,Car
Fix,FLP,37.3875792,-122.0873292,-6.888280923539256,8.076216,4.422,298.5762,1676475358788,0.051971022,10.0,73723173399000,1.0299267,Car
Fix,FLP,37.3876087,-122.0873968,-1.3000000715255735,8.045448,6.571,298.45807,1676475359767,0.051971022,10.0,73724151000000,0.95958334,Car
Fix,NLP,37.387464,-122.0874827,-1.3000000715255735,,27.514,,1676475359766,,,73724151000000,1.0,Car
Fix,GPS,37.3876261455,-122.0874271124,2.9158141023628987,9.254293,4.7173367,301.05038,1676475357999,0.035528496,10.0,73724173365000,5.9022894,Car
Fix,GPS,37.3876735945,-122.0875259907,2.736968776962703,10.149556,4.6062284,301.5034,1676475358999,0.032307506,10.0,73725173138000,5.844431,Car
Fix,FLP,37.3876704,-122.0875199,-1.3000000715255735,10.102866,6.678,300.8715,1676475360789,0.032307506,10.0,73725173138000,0.9700033,Car
Fix,GPS,37.3877207383,-122.0876360512,2.8182535430268247,10.931094,4.9364204,299.08676,1676475359999,0.02800291,10.0,73726173176000,5.7770243,Car
Fix,FLP,37.3877196,-122.0876306,-6.968655014385298,10.897804,6.779,299.03696,1676475361788,0.02800291,10.0,73726173176000,0.98456,Car
Fix,GPS,37.3877679458,-122.087754389,2.8859124920737127,11.595135,4.717277,297.21002,1676475360999,0.037872404,10.0,73727173326000,5.6946354,Car
Fix,FLP,37.3877677,-122.0877495,-6.968655014385298,11.571027,6.816,297.08185,1676475362788,0.037872404,10.0,73727173326000,0.99415,Car
Fix,GPS,37.3878180013,-122.0878776064,2.9246004512658152,12.127688,4.717257,297.89743,1676475361999,0.03415412,10.0,73728173276000,5.6205435,Car
Fix,FLP,37.3878172,-122.0878741,-1.3000000715255735,12.097414,6.516,296.92404,1676475363789,0.03415412,10.0,73728173276000,0.9995833,Car
Fix,GPS,37.3878721675,-122.0880035291,3.479619922699881,12.666271,4.717236,299.4776,1676475362999,0.028008632,10.0,73729173422000,5.455317,Car
Fix,FLP,37.3878707,-122.0880013,-1.3000000715255735,12.613924,4.738,298.69977,1676475364789,0.028008632,10.0,73729173422000,1.0094234,Car
Fix,GPS,37.3879307539,-122.0881329486,3.436356828426306,13.081405,4.937772,300.57144,1676475363999,0.04021662,10.0,73730173519000,5.3216515,Car
Fix,FLP,37.3879293,-122.088131,-1.3000000715255735,13.03911,4.805,299.79984,1676475365788,0.04021662,10.0,73730173519000,1.0203834,Car
Fix,GPS,37.3879939789,-122.088264724,3.16883024935188,13.517739,4.9381094,301.22067,1676475364999,0.030965533,10.0,73731173438000,5.241363,Car
Fix,FLP,37.3879923,-122.088263,-6.668385637521872,13.472588,4.805,300.81238,1676475366789,0.030965533,10.0,73731173438000,1.03454,Car
Fix,GPS,37.3880589655,-122.088399882,2.9738985010271266,13.869764,4.938447,301.35745,1676475365999,0.03109586,10.0,73732173289000,5.1226654,Car
Fix,FLP,37.3880577,-122.0883982,-6.589525244872625,13.837819,4.827,300.93686,1676475367789,0.03109586,10.0,73732173289000,1.0446,Car
Fix,GPS,37.3881232876,-122.0885394422,2.504155562585286,14.192783,4.9387846,300.0856,1676475366999,0.026181681,10.0,73733173345000,4.983411,Car
Fix,FLP,37.3881228,-122.0885374,-6.538973324172552,14.173306,4.894,300.07132,1676475368789,0.026181681,10.0,73733173345000,1.05456,Car
Fix,GPS,37.3881861653,-122.0886833382,2.0718213543077697,14.484494,4.717131,298.89188,1676475367999,0.028395519,10.0,73734173352000,4.867519,Car
Fix,FLP,37.3881863,-122.0886813,1.195411685671452,14.481971,4.864,298.23126,1676475369789,0.028395519,10.0,73734173352000,1.06455,Car
Fix,GPS,37.3882496803,-122.0888303942,1.7891945915683165,14.762412,4.7171097,298.77185,1676475368999,0.030907953,10.0,73735173363000,4.7864847,Car
Fix,FLP,37.3882492,-122.088829,1.43503423818931,14.743399,4.864,297.99475,1676475370789,0.030907953,10.0,73735173363000,1.07458,Car
Fix,GPS,37.3883166592,-122.0889795352,1.4992494244291907,15.074257,4.717088,299.59656,1676475369999,0.030812701,10.0,73736173321000,4.7041354,Car
Fix,FLP,37.3883154,-122.0889786,1.4390785589675374,15.037352,4.827,298.82962,1676475371789,0.030812701,10.0,73736173321000,1.08455,Car
Fix,GPS,37.3883871158,-122.0891301496,1.3622565406817035,15.42169,4.717067,300.64975,1676475370999,0.03337575,10.0,73737173390000,4.6206803,Car
Fix,FLP,37.3883854,-122.0891294,1.4598057333254315,15.376498,4.761,299.80502,1676475372788,0.03337575,10.0,73737173390000,1.09462,Car
Fix,GPS,37.388461227,-122.0892830137,1.183188116649989,15.811565,4.7170444,301.42233,1676475371999,0.03363729,1.0,73738173443000,4.548854,Car
Fix,FLP,37.3884594,-122.0892823,-1.3000000715255735,15.8109255,4.717,300.99747,1676475373789,0.03363729,1.0,73738173443000,1.1077167,Car
Fix,GPS,37.3885350752,-122.0894393803,0.9622884194032538,16.10116,4.9408116,300.74283,1676475372999,0.0435375,1.0,73739173721000,4.468079,Car
Fix,FLP,37.3885344,-122.0894383,-1.3000000715255735,16.100948,4.761,300.00153,1676475374789,0.0435375,1.0,73739173721000,1.1187167,Car
Fix,GPS,37.3886122134,-122.0895972392,0.6892407899839924,16.339539,4.717001,301.61603,1676475373999,0.036366254,1.0,73740173668000,4.4035325,Car
Fix,FLP,37.3886105,-122.0895969,-1.3000000715255735,16.338943,4.761,300.99698,1676475375789,0.036366254,1.0,73740173668000,1.1287267,Car
Fix,GPS,37.3886899642,-122.0897548672,0.5986661874843153,16.402073,4.716978,301.85602,1676475374999,0.030987587,1.0,73741173771000,4.344341,Car
Fix,FLP,37.3886888,-122.0897551,1.2717464029070982,16.401976,4.761,300.99982,1676475376789,0.030987587,1.0,73741173771000,1.13357,Car
Fix,GPS,37.3887679132,-122.0899130256,0.4498252644470077,16.463316,4.716956,301.93478,1676475375999,0.030981708,1.0,73742173452000,4.2851706,Car
Fix,FLP,37.3887669,-122.0899134,1.3248272417392144,16.46322,4.761,300.99985,1676475377789,0.030981708,1.0,73742173452000,1.14455,Car
Fix,GPS,37.3888468787,-122.0900733703,0.1090068190166955,16.663128,4.640335,301.86063,1676475376999,0.030872643,1.0,73743173774000,4.2490954,Car
Fix,FLP,37.3888457,-122.0900734,1.2717464029070982,16.662807,4.746,300.99945,1676475378788,0.030872643,1.0,73743173774000,1.15358,Car
Fix,GPS,37.3889252321,-122.0902324894,-0.0585258053577281,16.556936,4.716912,301.57812,1676475377999,0.50373197,1.6618081,73744173463000,4.327222,Car
Fix,FLP,37.3889245,-122.0902333,1.3839748547817976,16.558167,4.741,300.99994,1676475379788,0.50373197,1.6618081,73744173463000,1.16356,Car
Fix,GPS,37.3890029675,-122.0903915001,-0.2526446166429248,16.651793,4.7168894,301.81345,1676475378999,0.5460408,1.7798643,73745173508000,4.4617033,Car
Fix,FLP,37.3890024,-122.0903923,-1.3000000715255735,16.650526,4.704,301.00018,1676475380789,0.5460408,1.7798643,73745173508000,1.1777067,Car
Fix,GPS,37.389082834,-122.0905529614,-0.3609857999863707,16.949165,5.3829527,302.28717,1676475379999,0.6089352,1.9773103,73746173740000,4.6476808,Car
Fix,FLP,37.3890817,-122.0905534,-1.3000000715255735,16.944206,4.815,301.9842,1676475381789,0.6089352,1.9773103,73746173740000,1.1877366,Car
Fix,GPS,37.3891638279,-122.0907195737,-0.7800602190179092,17.184908,5.007552,301.4059,1676475380999,0.58554745,1.8866688,73747173836000,4.863415,Car
Fix,FLP,37.3891634,-122.0907185,-1.3000000715255735,17.181118,4.893,301.015,1676475382788,0.58554745,1.8866688,73747173836000,1.1977167,Car
Fix,GPS,37.3892444134,-122.0908880048,-0.6381619788750998,17.27916,5.177079,301.30237,1676475381999,0.5412227,1.7214996,73748173549000,5.097733,Car
Fix,FLP,37.3892439,-122.0908871,-1.3000000715255735,17.277893,4.94,301.00027,1676475383789,0.5412227,1.7214996,73748173549000,1.2077167,Car
Fix,GPS,37.3893250276,-122.0910530148,-0.3827058442758462,17.13991,5.3753586,301.31116,1676475382999,0.55052376,1.7443295,73749173555000,5.3333087,Car
Fix,FLP,37.3893247,-122.0910536,1.233326194164469,17.14178,5.132,300.99994,1676475384789,0.55052376,1.7443295,73749173555000,1.21359,Car
Fix,GPS,37.3894052728,-122.0912186824,-0.3509334863585789,16.850689,5.596465,301.67545,1676475383999,0.5591824,1.813906,73750173540000,5.5406895,Car
Fix,FLP,37.3894049,-122.0912192,1.1059341198483563,16.854794,5.307,300.9998,1676475385788,0.5591824,1.813906,73750173540000,1.22362,Car
Fix,GPS,37.3894839179,-122.0913798244,-0.2723553462406581,16.52036,5.771152,301.57907,1676475384999,0.53624415,1.8014838,73751173798000,5.7321105,Car
Fix,FLP,37.3894836,-122.0913809,1.1140224484431729,16.524733,5.385,300.99988,1676475386789,0.53624415,1.8014838,73751173798000,1.23355,Car
Fix,NLP,37.3896553,-122.0909288,-0.6000000238418579,,27.626,,1676475386557,,,73750942000000,1.0,Car
Fix,GPS,37.3895612565,-122.0915379356,-0.1510680469474437,16.320105,5.792147,301.78452,1676475385999,0.5363294,1.8031424,73752173603000,5.874278,Car
Fix,FLP,37.3895675,-122.0915527,-0.6000000238418579,16.322084,5.498,300.9999,1676475387788,0.5363294,1.8031424,73752173603000,0.97147334,Car
Fix,GPS,37.3896356711,-122.0916992539,-0.3198143001023809,16.194994,5.6044474,301.4269,1676475386999,0.52552956,1.7957317,73753173929000,6.0193415,Car
Fix,FLP,37.3896383,-122.0917035,-0.6000000238418579,16.196478,5.651,300.99988,1676475388788,0.52552956,1.7957317,73753173929000,0.98564,Car
Fix,GPS,37.3897122031,-122.0918607152,-0.4132417924700588,16.301691,5.5280075,301.41473,1676475387999,0.5248455,1.7829007,73754173944000,6.182199,Car
Fix,FLP,37.3897126,-122.0918607,-0.6000000238418579,16.300362,5.677,301.00003,1676475389789,0.5248455,1.7829007,73754173944000,0.99565,Car
Fix,GPS,37.3897902864,-122.0920225951,-0.2715056281506565,16.431707,5.4413753,301.7103,1676475388999,0.5240709,1.7672086,73755173669000,6.3061833,Car
Fix,FLP,37.3897896,-122.0920213,-0.6000000238418579,16.430094,5.651,301.0001,1676475390789,0.5240709,1.7672086,73755173669000,1.00565,Car
Fix,GPS,37.389868237,-122.0921867659,-0.0207460055056917,16.499449,5.401938,301.29196,1676475389999,0.5223823,1.7582347,73756173893000,6.42784,Car
Fix,FLP,37.3898674,-122.0921848,-0.6000000238418579,16.498634,5.553,301.00003,1676475391788,0.5223823,1.7582347,73756173893000,1.01564,Car
Fix,GPS,37.3899443857,-122.0923496155,0.1550956510851976,16.513653,5.3666487,300.75302,1676475390999,0.523476,1.7801145,73757173998000,6.5550046,Car
Fix,FLP,37.3899442,-122.092348,-0.6000000238418579,16.513435,5.468,300.01248,1676475392789,0.523476,1.7801145,73757173998000,1.02564,Car
Fix,GPS,37.3900243223,-122.0925110758,-0.049927398686909,16.663229,5.702676,301.49695,1676475391999,0.5999366,1.9159563,73758173685000,6.7536473,Car
Fix,FLP,37.3900222,-122.0925107,-0.6000000238418579,16.660984,5.507,300.98532,1676475393789,0.5999366,1.9159563,73758173685000,1.03564,Car
Fix,GPS,37.3900997195,-122.0926720609,0.2216008123067782,16.458326,5.4325466,301.61215,1676475392999,0.5583092,1.8394045,73759173724000,6.913309,Car
Fix,FLP,37.3900996,-122.0926722,-0.6000000238418579,16.461155,5.479,300.9996,1676475394789,0.5583092,1.8394045,73759173724000,1.0414634,Car
Fix,GPS,37.3901761915,-122.0928294766,0.0545610879297966,16.190302,5.553099,301.86655,1676475393999,0.5424298,1.8276316,73760174036000,7.039145,Car
Fix,FLP,37.3901761,-122.0928304,-0.6000000238418579,16.193874,5.491,300.9998,1676475395789,0.5424298,1.8276316,73760174036000,1.0514634,Car
Fix,GPS,37.3902519822,-122.0929813769,-1.020761613743925,15.839768,5.576645,302.04248,1676475394999,0.53169584,1.8685776,73761173752000,7.0926833,Car
Fix,FLP,37.3902517,-122.0929836,-0.6000000238418579,15.844321,5.505,301.98685,1676475396789,0.53169584,1.8685776,73761173752000,1.0614734,Car
Fix,GPS,37.390323795,-122.0931305418,-1.2993941463984422,15.453034,5.6719203,301.5234,1676475395999,0.5973727,2.0928473,73762173768000,7.2660103,Car
Fix,FLP,37.390325,-122.0931324,-0.6000000238418579,15.459082,5.55,301.01523,1676475397789,0.5973727,2.0928473,73762173768000,1.0714734,Car
Fix,GPS,37.3903948986,-122.0932796956,-1.8711357297647004,15.321028,5.7069306,300.86276,1676475396999,0.5986488,2.1235533,73763173988000,7.482248,Car
Fix,FLP,37.3903955,-122.0932807,-0.6000000238418579,15.323067,5.588,300.01584,1676475398789,0.5986488,2.1235533,73763173988000,1.0814934,Car
Fix,GPS,37.3904699152,-122.0934313211,-2.764793400408222,15.806011,5.7049575,301.61603,1676475397999,0.57352,1.9750034,73764174013000,7.6501923,Car
Fix,FLP,37.390468,-122.0934312,-0.6000000238418579,15.798972,5.642,300.98697,1676475399790,0.57352,1.9750034,73764174013000,1.09564,Car
Fix,GPS,37.390548077,-122.09358496,-2.746077872823629,15.99322,5.8074126,302.66913,1676475398999,0.5587984,1.9111866,73765173762000,7.7888465,Car
Fix,FLP,37.3905455,-122.0935848,-0.6000000238418579,15.990568,5.67,301.98657,1676475400789,0.5587984,1.9111866,73765173762000,1.10564,Car
Fix,GPS,37.3906298641,-122.0937366356,-1.9567457926170528,15.818492,5.8426185,304.72034,1676475399999,0.53456306,1.8715994,73766174130000,7.8996816,Car
Fix,FLP,37.3906269,-122.0937373,-0.6000000238418579,15.820716,5.746,303.974,1676475401789,0.53456306,1.8715994,73766174130000,1.11565,Car
Fix,GPS,37.3907185929,-122.0938839232,-1.2151971469770062,15.870007,5.8976407,307.10147,1676475400999,0.6021495,1.9906489,73767174151000,8.104388,Car
Fix,FLP,37.3907141,-122.0938846,-0.6000000238418579,15.869256,5.792,306.95386,1676475402789,0.6021495,1.9906489,73767174151000,1.12564,Car
Fix,GPS,37.3908071253,-122.0940253397,-1.024557748885511,15.787452,5.998718,308.53906,1676475401999,0.5855026,1.9568392,73768173869000,8.314536,Car
Fix,FLP,37.3908044,-122.0940264,-0.6000000238418579,15.788738,5.826,307.98477,1676475403789,0.5855026,1.9568392,73768173869000,1.13566,Car
Fix,GPS,37.3908986395,-122.0941628668,-1.0658948137661817,15.916639,5.9323235,310.2334,1676475402999,0.603197,1.9788134,73769174090000,8.57653,Car
Fix,FLP,37.3908961,-122.0941646,-0.6000000238418579,15.914648,5.895,309.9695,1676475404789,0.603197,1.9788134,73769174090000,1.14564,Car
Fix,GPS,37.390994672,-122.0942985037,-0.761367436888766,16.141428,5.9113035,311.83856,1676475403999,0.5932064,1.9144945,73770173863000,8.752165,Car
Fix,FLP,37.3909922,-122.0943001,-1.3000000715255735,16.13806,5.916,310.9853,1676475405789,0.5932064,1.9144945,73770173863000,1.15564,Car
Fix,GPS,37.3910975943,-122.0944326648,-0.6928945240759681,16.353704,5.990223,313.75058,1676475404999,0.61658406,1.9508873,73771174209000,8.92067,Car
Fix,FLP,37.3910938,-122.0944347,-1.3000000715255735,16.350187,5.946,312.96863,1676475406790,0.61658406,1.9508873,73771174209000,1.16564,Car
Fix,GPS,37.391206149,-122.0945650985,-0.5621069636787572,16.553288,6.0377035,315.41656,1676475405999,0.64359015,2.0639913,73772173922000,9.19174,Car
Fix,FLP,37.3912015,-122.094567,-0.6000000238418579,16.549562,5.961,314.96472,1676475407788,0.64359015,2.0639913,73772173922000,1.17565,Car
Fix,GPS,37.3913165967,-122.0946929601,-0.0885833743951253,16.618473,6.175797,315.61465,1676475406999,0.67920876,2.1079454,73773174282000,9.523391,Car
Fix,FLP,37.3913128,-122.0946956,-0.6000000238418579,16.6172,6.009,315.00003,1676475408789,0.67920876,2.1079454,73773174282000,1.18564,Car
Fix,GPS,37.3914242114,-122.0948230091,1.16264402249793,16.640032,6.268054,315.1323,1676475407999,0.6236097,2.0177398,73774174117000,9.677422,Car
Fix,FLP,37.3914219,-122.0948253,-0.6000000238418579,16.63966,6.076,315.00046,1676475409790,0.6236097,2.0177398,73774174117000,1.19564,Car
Fix,GPS,37.3915349011,-122.0949456039,-0.2361404422967773,16.582438,6.177846,316.45383,1676475408999,0.59862256,1.941327,73775173954000,9.683517,Car
Fix,FLP,37.3915322,-122.0949506,-0.6000000238418579,16.583258,6.13,315.9849,1676475410788,0.59862256,1.941327,73775173954000,1.20566,Car
Fix,GPS,37.3916486589,-122.0950654178,-0.2284717966454916,16.488924,6.1034784,319.4973,1676475409999,0.5672256,1.8329043,73776174335000,9.55258,Car
Fix,FLP,37.3916452,-122.0950714,-0.6000000238418579,16.489796,6.152,318.9583,1676475411789,0.5672256,1.8329043,73776174335000,1.21566,Car
Fix,GPS,37.3917692032,-122.0951811112,-0.6443765204564275,16.672132,6.1043377,321.37766,1676475410999,0.5706509,1.8252665,73777173991000,9.506682,Car
Fix,FLP,37.3917646,-122.095186,-0.6000000238418579,16.669306,6.165,320.97186,1676475412789,0.5706509,1.8252665,73777173991000,1.22566,Car
Fix,GPS,37.3918957471,-122.0952768041,-3.6929518559987056,16.86651,6.01336,321.74445,1676475411999,0.5603088,1.7594017,73778174008000,9.064978,Car
Fix,FLP,37.3918902,-122.0952875,-1.3000000715255735,16.863794,6.14,321.00046,1676475413789,0.5603088,1.7594017,73778174008000,1.2398167,Car
Fix,GPS,37.3920213594,-122.0953818108,-4.756506587701341,16.892956,6.1157327,322.82474,1676475412999,0.58835995,1.8375996,73779174333000,8.927647,Car
Fix,FLP,37.3920163,-122.0953919,-1.3000000715255735,16.892382,6.102,321.98605,1676475414789,0.58835995,1.8375996,73779174333000,1.2498167,Car
Fix,GPS,37.3921495417,-122.0954867497,-6.221208635484965,17.180758,6.146431,323.13306,1676475413999,0.5638076,1.72747,73780174036000,8.703431,Car
Fix,FLP,37.3921443,-122.0954956,-1.3000000715255735,17.176664,6.096,322.98697,1676475415790,0.5638076,1.72747,73780174036000,1.2598066,Car
Fix,GPS,37.3922835262,-122.0955987592,-6.598633736238505,17.356398,5.9564743,323.02914,1676475414999,0.5527732,1.707458,73781174347000,8.580632,Car
Fix,FLP,37.3922776,-122.095604,-1.3000000715255735,17.354046,6.067,323.00034,1676475416790,0.5527732,1.707458,73781174347000,1.2698066,Car
Fix,GPS,37.3924166275,-122.0957148144,-7.008894200035524,17.344185,5.8643413,322.76178,1676475415999,0.5694578,1.7757791,73782174050000,8.560224,Car
Fix,FLP,37.3924113,-122.0957176,-1.3000000715255735,17.344437,6.019,322.0148,1676475417790,0.5694578,1.7757791,73782174050000,1.2798266,Car
Fix,GPS,37.3925481524,-122.0958297816,-8.042776745317807,17.307287,5.7718625,322.96576,1676475416999,0.56590044,1.7644521,73783174315000,8.397644,Car
Fix,FLP,37.3925432,-122.095833,-1.3000000715255735,17.307898,5.97,322.0008,1676475418790,0.56590044,1.7644521,73783174315000,1.2897967,Car
Fix,GPS,37.3926751605,-122.0959465555,-8.411546995935264,17.191282,5.7552156,322.3328,1676475417999,0.57964134,1.7922039,73784174057000,8.279134,Car
Fix,FLP,37.3926718,-122.0959492,-1.3000000715255735,17.193045,5.934,322.00052,1676475419789,0.57964134,1.7922039,73784174057000,1.2998067,Car
Fix,GPS,37.3928028027,-122.0960632615,-9.117858394353012,17.26313,5.692931,321.8797,1676475418999,0.57208186,1.7670041,73785174119000,8.2120495,Car
Fix,FLP,37.3927995,-122.0960654,-1.3000000715255735,17.262207,5.808,321.0145,1676475420789,0.57208186,1.7670041,73785174119000,1.3098067,Car
Fix,NLP,37.392934,-122.0961076,-4.199999809265137,,30.213,,1676475420457,,,73784841000000,2.9380872,Car
Fix,GPS,37.3929267365,-122.0961858459,-8.647038824321168,17.387909,5.7067814,320.94208,1676475419999,0.6058504,1.7732302,73786174449000,8.251915,Car
Fix,FLP,37.3929389,-122.0962007,-4.199999809265137,17.386173,5.747,320.01154,1676475421790,0.6058504,1.7732302,73786174449000,1.1938332,Car
Fix,GPS,37.3930508,-122.0963092548,-9.336345765112014,17.338129,5.6772437,320.2074,1676475420999,0.57870066,1.782944,73787174451000,8.101797,Car
Fix,FLP,37.3930537,-122.0963157,-4.199999809265137,17.338629,5.716,320.00043,1676475422789,0.57870066,1.782944,73787174451000,1.208826,Car
Fix,GPS,37.3931717424,-122.0964357804,-10.481766602936816,17.271639,5.694728,318.49847,1676475421999,0.5906219,1.8310726,73788174470000,8.022013,Car
Fix,FLP,37.3931722,-122.0964381,-0.6000000238418579,17.272507,5.703,318.03073,1676475423790,0.5906219,1.8310726,73788174470000,1.1308174,Car
Fix,GPS,37.3932868061,-122.0965743365,-11.048414506265033,17.395748,5.7729187,316.04132,1676475422999,0.5881626,1.8183407,73789174488000,7.930813,Car
Fix,FLP,37.3932871,-122.0965723,-0.6000000238418579,17.393766,5.706,316.03043,1676475424789,0.5881626,1.8183407,73789174488000,1.1454457,Car
Fix,GPS,37.3933971302,-122.0967229931,-11.612433703268628,17.616203,5.724095,313.8494,1676475423999,0.5935079,1.7456582,73790174145000,8.021734,Car
Fix,FLP,37.393398,-122.096718,-0.6000000238418579,17.61251,5.715,313.04434,1676475425790,0.5935079,1.7456582,73790174145000,1.1546271,Car
Fix,GPS,37.3935057995,-122.0968779466,-12.380171643335316,17.675325,5.6063337,312.91095,1676475424999,0.5384775,1.6536131,73791174167000,7.9799137,Car
Fix,FLP,37.3935059,-122.0968729,-0.6000000238418579,17.674553,5.697,312.0131,1676475426790,0.5384775,1.6536131,73791174167000,1.1653156,Car
Fix,GPS,37.3936122622,-122.0970335914,-12.714896102670243,17.722708,5.6053786,310.98596,1676475425999,0.54812014,1.6666962,73792174297000,8.01004,Car
Fix,FLP,37.3936123,-122.0970294,-0.6000000238418579,17.721916,5.68,310.0264,1676475427790,0.54812014,1.6666962,73792174297000,1.1748956,Car
Fix,GPS,37.3937156172,-122.0971943015,-13.242429144537525,17.731194,5.5677114,309.28418,1676475426999,0.5415992,1.6745124,73793174251000,7.940751,Car
Fix,FLP,37.3937153,-122.0971903,-0.6000000238418579,17.731077,5.661,309.0133,1676475428789,0.5415992,1.6745124,73793174251000,1.1853156,Car
Fix,GPS,37.3938146658,-122.0973568009,-13.680650060339994,17.637833,5.4587374,307.35928,1676475427999,0.54060566,1.6912279,73794174499000,7.9267287,Car
Fix,FLP,37.3938151,-122.0973532,-4.199999809265137,17.638908,5.592,307.02637,1676475429790,0.54060566,1.6912279,73794174499000,1.3448201,Car
Fix,GPS,37.3939092932,-122.097520797,-14.49750540158024,17.550266,5.3874407,305.99612,1676475428999,0.56159633,1.7559247,73795174436000,8.012131,Car
Fix,FLP,37.3939097,-122.097518,-4.199999809265137,17.551308,5.525,305.02844,1676475430790,0.56159633,1.7559247,73795174436000,1.3544302,Car
Fix,GPS,37.3939991351,-122.0976897239,-14.578955101798464,17.856474,5.5291166,303.82925,1676475429999,0.6256578,1.838609,73796174234000,8.289202,Car
Fix,FLP,37.3939995,-122.0976866,-4.199999809265137,17.850845,5.509,303.0333,1676475431790,0.6256578,1.838609,73796174234000,1.3640002,Car
Fix,GPS,37.3940843995,-122.0978645377,-14.772165521696849,17.937721,5.4203725,303.12595,1676475430999,0.54930085,1.6749195,73797174263000,8.366372,Car
Fix,FLP,37.3940853,-122.0978616,-4.199999809265137,17.936605,5.494,303.00024,1676475432790,0.54930085,1.6749195,73797174263000,1.3740002,Car
Fix,GPS,37.394164833,-122.0980442227,-13.943359108759708,18.06475,5.429949,301.7504,1676475431999,0.51035124,1.5715743,73798174286000,8.252934,Car
Fix,FLP,37.3941677,-122.09804,-4.199999809265137,18.063047,5.445,301.02307,1676475433789,0.51035124,1.5715743,73798174286000,1.3850101,Car
Fix,GPS,37.3942449689,-122.0982279694,-13.406503427557473,18.191833,5.4595437,299.72598,1676475432999,0.49905348,1.5476456,73799174415000,8.245348,Car
Fix,FLP,37.3942472,-122.0982236,-4.199999809265137,18.190216,5.447,299.0228,1676475434789,0.49905348,1.5476456,73799174415000,1.3949902,Car
Fix,GPS,37.3943209757,-122.0984099552,-13.017051183855465,18.361755,5.4412885,297.86353,1676475433999,0.4986685,1.5599173,73800174482000,8.21718,Car
Fix,FLP,37.394323,-122.0984079,-4.199999809265137,18.359642,5.456,297.0233,1676475435790,0.4986685,1.5599173,73800174482000,1.6554784,Car
Fix,GPS,37.3943945154,-122.0985965937,-13.102499689898709,18.278648,5.460826,297.48758,1676475434999,0.49911934,1.5648642,73801174314000,8.179223,Car
Fix,FLP,37.3943957,-122.0985954,-4.199999809265137,18.279604,5.442,297.00015,1676475436790,0.49911934,1.5648642,73801174314000,1.4149802,Car
Fix,GPS,37.394467223,-122.0987808461,-13.321757643726714,18.161263,5.41653,298.0324,1676475435999,0.49890724,1.5751975,73802174314000,8.124415,Car
Fix,FLP,37.3944683,-122.0987805,-4.199999809265137,18.162607,5.441,297.98813,1676475437789,0.49890724,1.5751975,73802174314000,1.4250202,Car
Fix,GPS,37.3945374538,-122.0989626876,-12.96580209871454,17.987764,5.3535647,297.83517,1676475436999,0.49767426,1.5884018,73803174616000,7.827494,Car
Fix,FLP,37.3945401,-122.0989625,-4.199999809265137,17.989746,5.426,297.01144,1676475438790,0.49767426,1.5884018,73803174616000,1.4350601,Car
Fix,GPS,37.394609438,-122.0991408553,-12.594928111923196,17.614494,5.4526134,298.37735,1676475437999,0.56254655,1.7820711,73804174804000,7.999961,Car
Fix,FLP,37.3946109,-122.099142,-4.199999809265137,17.619928,5.425,297.98526,1676475439790,0.56254655,1.7820711,73804174804000,1.4440001,Car
Fix,GPS,37.394683701,-122.0993156802,-12.380022214529673,17.27286,5.532528,299.4213,1676475438999,0.5684893,1.8374627,73805174391000,8.181819,Car
Fix,FLP,37.3946843,-122.0993165,-4.199999809265137,17.277983,5.443,298.98468,1676475440790,0.5684893,1.8374627,73805174391000,1.4549901,Car
Fix,GPS,37.3947573739,-122.0994865077,-12.788072846159162,17.22879,5.686433,299.64667,1676475439999,0.6120588,1.8917896,73806174507000,8.312774,Car
Fix,FLP,37.3947582,-122.099487,-4.199999809265137,17.229582,5.488,298.9996,1676475441790,0.6120588,1.8917896,73806174507000,1.4640101,Car
Fix,GPS,37.3948301531,-122.0996479849,-13.480320620627742,16.233904,5.585799,299.65268,1676475440999,0.5242461,1.7930399,73807174480000,8.202983,Car
Fix,FLP,37.3948313,-122.0996514,-4.199999809265137,16.2463,5.522,298.99945,1676475442790,0.5242461,1.7930399,73807174480000,1.4740201,Car
Fix,GPS,37.394899537,-122.0998050316,-12.217036184970295,15.619349,5.5739884,298.7405,1676475441999,0.5655688,1.9780971,73808174685000,8.228975,Car
Fix,FLP,37.3949004,-122.0998076,-4.199999809265137,15.628244,5.566,298.01395,1676475443790,0.5655688,1.9780971,73808174685000,1.4850101,Car
Fix,GPS,37.3949651942,-122.0999540698,-11.479541475403838,15.072025,5.5946884,299.63034,1676475442999,0.56051946,2.0191743,73809174635000,8.307417,Car
Fix,FLP,37.3949657,-122.0999575,-4.199999809265137,15.079854,5.571,298.9854,1676475444790,0.56051946,2.0191743,73809174635000,1.4949901,Car
Fix,GPS,37.3950263923,-122.1000975186,-10.4872300827443,14.646779,5.64882,298.7112,1676475443999,0.56408,2.055118,73810174718000,8.058163,Car
Fix,FLP,37.3950282,-122.1001009,-4.199999809265137,14.65267,5.618,298.013,1676475445790,0.56408,2.055118,73810174718000,1.3558775,Car
Fix,GPS,37.3950863085,-122.1002364039,-9.653557988662044,14.248549,5.616692,298.35757,1676475444999,0.5236695,2.036863,73811174457000,7.9521284,Car
Fix,FLP,37.3950877,-122.1002403,-4.199999809265137,14.253521,5.617,297.9999,1676475446789,0.5236695,2.036863,73811174457000,1.3648975,Car
Fix,GPS,37.3951442065,-122.1003737341,-8.924444146398821,14.082603,5.514125,298.48447,1676475445999,0.5221818,2.057156,73812174752000,7.845346,Car
Fix,FLP,37.3951455,-122.1003769,-4.199999809265137,14.084662,5.589,297.99988,1676475447790,0.5221818,2.057156,73812174752000,1.3758875,Car
Fix,GPS,37.3952035267,-122.1005110139,-8.28045305687387,14.106998,5.5307403,299.03534,1676475446999,0.54382205,2.0928574,73813174823000,7.773368,Car
Fix,FLP,37.395204,-122.1005134,-4.199999809265137,14.106692,5.581,298.98715,1676475448790,0.54382205,2.0928574,73813174823000,1.3858975,Car
Fix,GPS,37.3952646117,-122.100650139,-8.433573435033136,14.498858,5.518126,299.25937,1676475447999,0.5204414,1.9920795,73814174627000,7.680101,Car
Fix,FLP,37.3952649,-122.1006512,-4.199999809265137,14.493964,5.57,299.00012,1676475449789,0.5204414,1.9920795,73814174627000,1.3958875,Car
Fix,GPS,37.3953284667,-122.1007956825,-8.917831892156228,15.101715,5.4883265,298.5527,1676475448999,0.50722444,1.8866801,73815174815000,7.720024,Car
Fix,FLP,37.3953284,-122.1007954,-4.199999809265137,15.094431,5.533,298.01154,1676475450789,0.50722444,1.8866801,73815174815000,1.4058775,Car
Fix,GPS,37.3953946036,-122.1009440296,-9.364093496493645,15.026071,5.414784,298.6544,1676475449999,0.5185263,1.9156177,73816174536000,7.5912848,Car
Fix,FLP,37.3953938,-122.1009448,-4.199999809265137,15.02691,5.493,298.00018,1676475451790,0.5185263,1.9156177,73816174536000,1.4158875,Car
Fix,GPS,37.395457312,-122.1010909346,-8.971551015806915,14.430493,5.3948627,298.88763,1676475450999,0.522802,2.0053189,73817174807000,7.6047683,Car
Fix,FLP,37.3954573,-122.1010923,-4.199999809265137,14.437933,5.469,297.9996,1676475452789,0.522802,2.0053189,73817174807000,1.4249074,Car
Fix,GPS,37.3955144753,-122.1012226557,-8.420100849514778,12.941466,5.325772,300.48413,1676475451999,0.5243285,2.2380078,73818174571000,7.4844327,Car
Fix,FLP,37.3955158,-122.1012274,-4.199999809265137,12.960127,5.445,299.97137,1676475453790,0.5243285,2.2380078,73818174571000,1.5850202,Car
Fix,GPS,37.3955611355,-122.1013316484,-7.653346244095894,10.849042,5.357126,301.7744,1676475452999,0.5460855,2.7927105,73819174646000,7.4463286,Car
Fix,FLP,37.3955655,-122.1013394,-6.160906550780609,10.877584,5.396,300.9815,1676475454789,0.5460855,2.7927105,73819174646000,1.5939902,Car
Fix,NLP,37.3959195,-122.1013082,-5.900000095367432,,44.28,,1676475454351,,,73818735000000,3.7348878,Car
Fix,GPS,37.3956000461,-122.1014130806,-6.965186998127915,9.985122,5.538072,301.0945,1676475453999,0.73706335,3.8173275,73820174881000,7.4345703,Car
Fix,FLP,37.3956118,-122.1014375,-5.900000095367432,9.99895,5.398,300.99664,1676475455789,0.73706335,3.8173275,73820174881000,1.6730337,Car
Fix,GPS,37.395625783,-122.1014756107,-6.886411636142976,8.663618,5.5714703,300.56076,1676475454999,0.885783,5.011578,73821174644000,7.4970384,Car
Fix,FLP,37.3956371,-122.1014962,-5.900000095367432,8.703507,5.424,300.01718,1676475456790,0.885783,5.011578,73821174644000,1.6922966,Car
Fix,GPS,37.3956317748,-122.10150384,-7.488366365260249,6.434126,5.7787557,299.97833,1676475455999,0.8412782,6.3018007,73822174647000,7.5945177,Car
Fix,FLP,37.3956481,-122.1015321,-5.900000095367432,6.494677,5.474,298.9965,1676475457789,0.8412782,6.3018007,73822174647000,1.834925,Car
Fix,GPS,37.3956313386,-122.1015119912,-8.850328977291678,4.715472,5.8923197,297.77603,1676475456999,0.7894785,7.970712,73823175016000,7.6584396,Car
Fix,FLP,37.3956481,-122.1015433,-5.900000095367432,4.7568226,5.582,297.0205,1676475458790,0.7894785,7.970712,73823175016000,1.844865,Car
Fix,GPS,37.3956377296,-122.1015073767,-10.665751791714332,3.7420769,6.103613,297.4829,1676475457999,0.7461197,9.403601,73824174815000,7.6455503,Car
Fix,FLP,37.3956493,-122.1015399,-5.900000095367432,3.7627625,5.776,296.9786,1676475459790,0.7461197,9.403601,73824174815000,1.854935,Car
Fix,GPS,37.3956356435,-122.1014898826,-11.195188314408265,2.5192506,6.288803,296.78714,1676475458999,0.8303813,15.626825,73825174893000,7.5984774,Car
Fix,FLP,37.3956472,-122.1015248,-5.900000095367432,2.5516553,5.927,295.98346,1676475460790,0.8303813,15.626825,73825174893000,2.4608364,Car
Fix,GPS,37.3956260784,-122.1014569089,-10.656618385177596,0.66416436,6.2731037,296.78714,1676475459999,0.46246627,37.538387,73826174758000,7.422871,Car
Fix,FLP,37.3956383,-122.1014935,-5.900000095367432,0.6809963,6.067,295.97476,1676475461789,0.46246627,37.538387,73826174758000,2.4707966,Car
Fix,GPS,37.395603732,-122.1014248687,-10.79758783373046,0.34443077,5.799855,296.78714,1676475460999,0.34468856,180.0,73827174771000,7.3353252,Car
Fix,FLP,37.3956171,-122.101452,-5.900000095367432,0.3505519,6.071,296.53806,1676475462789,0.34468856,180.0,73827174771000,2.4807866,Car
Fix,GPS,37.3955911767,-122.1014087822,-11.035254033323389,0.32725826,5.5782757,296.78714,1676475461999,0.32693204,41.541107,73828174793000,7.1533675,Car
Fix,FLP,37.3956006,-122.1014251,-5.900000095367432,0.32712385,5.989,295.97736,1676475463790,0.32693204,41.541107,73828174793000,2.4907665,Car
Fix,GPS,37.3955910095,-122.1014086113,-11.614775831211338,0.0,5.5403543,296.78714,1676475462999,0.32277903,180.0,73829174816000,6.917726,Car
Fix,FLP,37.3955948,-122.1014156,-5.900000095367432,0.0011699875,5.896,,1676475464790,0.32277903,,73829174816000,2.5009665,Car
Fix,NLP,37.3959793,-122.1015389,-5.900000095367432,,56.85,,1676475465699,,,73830084000000,2.9569397,Car
Fix,FLP,37.3955943,-122.1014146,-5.900000095367432,0.00086176064,7.806,,1676475465699,0.32277903,,73830084000000,2.5645747,Car
Fix,GPS,37.3955910095,-122.1014086113,-11.604300872256005,0.0,4.9715643,296.78714,1676475463999,0.31388503,180.0,73830174734000,6.6142864,Car
Fix,FLP,37.3955921,-122.1014106,-5.900000095367432,0.00011004354,7.401,,1676475465790,0.31388503,,73830174734000,2.5665646,Car
Fix,GPS,37.3955910095,-122.1014086113,-11.571901056993774,0.0,4.971903,296.78714,1676475464999,0.3077538,180.0,73831174810000,6.360657,Car
Fix,FLP,37.3955914,-122.1014093,-5.900000095367432,1.9835918e-06,7.37,,1676475466789,0.3077538,,73831174810000,2.5766346,Car
Fix,GPS,37.3955910095,-122.1014086113,-11.783217510745729,0.0,4.9722414,296.78714,1676475465999,0.3088746,180.0,73832175062000,6.128089,Car
Fix,FLP,37.3955911,-122.1014088,-5.900000095367432,4.8741384e-07,7.232,,1676475467791,0.3088746,,73832175062000,2.5865746,Car
Fix,GPS,37.3955910095,-122.1014086113,-11.958347181604072,0.0,4.97258,296.78714,1676475466999,0.3076253,48.156246,73833175153000,5.9518437,Car
Fix,FLP,37.395591,-122.1014087,-5.900000095367432,1.5573691e-07,7.131,,1676475468791,0.3076253,,73833175153000,2.5965645,Car
Fix,GPS,37.3955910095,-122.1014086113,-12.04120895026865,0.0,4.9729185,296.78714,1676475467999,0.30461144,114.168755,73834175077000,5.7782087,Car
Fix,FLP,37.395591,-122.1014086,-5.900000095367432,4.8627513e-08,7.036,,1676475469791,0.30461144,,73834175077000,2.6074185,Car
Fix,GPS,37.3955910095,-122.1014086113,-12.07969568434003,0.0,4.9732566,296.78714,1676475468999,0.30872843,85.32791,73835174831000,5.639546,Car
Fix,FLP,37.395591,-122.1014086,-5.900000095367432,1.5722229e-08,4.972,,1676475470789,0.30872843,,73835174831000,2.6164186,Car
Fix,NLP,37.3958645,-122.1011027,-5.799999713897705,,63.165,,1676475470721,,,73835106000000,3.3674874,Car
Fix,GPS,37.3955910095,-122.1014086113,-12.111388888712405,0.0,4.9735956,296.78714,1676475469999,0.302487,180.0,73836175170000,5.482132,Car
Fix,FLP,37.395591,-122.1014086,-5.799999713897705,1.5905938e-09,4.973,,1676475471791,0.302487,,73836175170000,2.754832,Car
Fix,GPS,37.3955910095,-122.1014086113,-12.213914831384354,0.0,4.973934,296.78714,1676475470999,0.31139562,49.990017,73837174914000,5.3940372,Car
Fix,FLP,37.395591,-122.1014086,-5.799999713897705,1.0273732e-09,4.973,,1676475472789,0.31139562,,73837174914000,2.7666593,Car
Fix,GPS,37.3955910095,-122.1014086113,-12.1920340231455,0.0,5.004108,296.78714,1676475471999,0.31043655,52.936504,73838175030000,5.3144855,Car
Fix,FLP,37.395591,-122.1014086,-5.799999713897705,3.491015e-10,4.977,,1676475473791,0.31043655,,73838175030000,2.900103,Car
Fix,GPS,37.3955910095,-122.1014086113,-11.917859851739294,0.0,4.714671,296.78714,1676475472999,0.2898259,77.76925,73839174940000,5.2156625,Car
Fix,FLP,37.395591,-122.1014086,-5.799999713897705,9.73313e-11,4.94,,1676475474790,0.2898259,,73839174940000,2.910103,Car
Fix,NLP,37.3959288,-122.1014014,-5.599999904632568,,43.393,,1676475475770,,,73840154000000,1.5101488,Car
Fix,FLP,37.395591,-122.1014086,-5.599999904632568,1.8979602e-09,7.013,,1676475475770,0.2898259,,73840154000000,2.5036972,Car
Fix,GPS,37.3955910095,-122.1014086113,-11.692585343474844,0.0,4.714649,296.78714,1676475473999,0.29636842,95.86499,73840175119000,5.145014,Car
Fix,GPS,37.3955910095,-122.1014086113,-11.388521558008955,0.0,4.7146277,296.78714,1676475474999,0.33612725,22.941238,73841174902000,5.076548,Car
Fix,FLP,37.395591,-122.1014086,-5.599999904632568,6.7014e-12,6.406,,1676475476790,0.33612725,,73841174902000,2.4706805,Car
Fix,GPS,37.3955910095,-122.1014086113,-11.04068194968577,0.0,4.7146053,296.78714,1676475475999,0.24102435,38.21193,73842174911000,5.0364227,Car
Fix,FLP,37.395591,-122.1014086,-5.599999904632568,5.981e-13,6.042,,1676475477790,0.24102435,,73842174911000,2.4653132,Car
Fix,GPS,37.3955910095,-122.1014086113,-10.44072446174152,0.0,4.7145834,296.78714,1676475476999,0.23268655,83.12478,73843174941000,4.8456335,Car
Fix,FLP,37.395591,-122.1014086,-5.599999904632568,9.76e-14,6.016,,1676475478789,0.23268655,,73843174941000,2.4779418,Car
Fix,FLP,37.395591,-122.1014086,-5.599999904632568,3.2685e-12,6.351,,1676475479071,0.23268655,,73843455000000,2.1677613,Car
Fix,NLP,37.3960039,-122.1013394,-5.599999904632568,,41.552,,1676475479070,,,73843455000000,1.1254481,Car
Fix,GPS,37.3955910095,-122.1014086113,-10.164746549058776,0.0,4.7145605,296.78714,1676475477999,0.23238192,180.0,73844175132000,4.713868,Car
Fix,FLP,37.395591,-122.1014086,-5.599999904632568,2.1368e-12,6.351,,1676475479790,0.23238192,,73844175132000,2.1626987,Car
Fix,GPS,37.3955910095,-122.1014086113,-9.887340764014466,0.0,4.7145386,296.78714,1676475478999,0.23719797,41.527946,73845175178000,4.0934525,Car
Fix,FLP,37.395591,-122.1014086,-5.599999904632568,1.23e-14,5.119,,1676475480791,0.23719797,,73845175178000,2.0883577,Car
Fix,GPS,37.3955831322,-122.1014035577,-9.718053484323503,0.43380073,4.7145157,294.79712,1676475479999,0.27540424,31.289719,73846175159000,3.6530576,Car
Fix,FLP,37.3955856,-122.1014052,-5.599999904632568,0.4323376,5.17,294.01337,1676475481791,0.27540424,31.289719,73846175159000,1.990754,Car
Fix,NLP,37.39591,-122.1014306,-5.599999904632568,,46.414,,1676475482312,,,73846696000000,1.0,Car
Fix,FLP,37.3955858,-122.1014067,-5.599999904632568,0.43211067,6.016,294.00397,1676475482312,0.27540424,31.289719,73846696000000,1.8917538,Car
Fix,GPS,37.395585938,-122.101414639,-9.574782014069068,2.4672139,4.7144933,287.95874,1676475480999,0.32483426,7.7725983,73847175016000,3.4400468,Car
Fix,FLP,37.3955865,-122.1014145,-5.599999904632568,2.4568224,6.202,286.99902,1676475482790,0.32483426,7.7725983,73847175016000,1.4785361,Car
Fix,GPS,37.3956000452,-122.1014542719,-9.254789388247426,4.273546,4.7144704,294.80197,1676475481999,0.35006714,4.626855,73848175049000,3.3113923,Car
Fix,FLP,37.3955978,-122.1014501,-5.599999904632568,4.262972,6.201,293.9781,1676475483791,0.35006714,4.626855,73848175049000,1.4742124,Car
Fix,GPS,37.3956240073,-122.1015111714,-9.051983480569314,5.6170216,4.7144465,297.05,1676475482999,0.3772059,3.878053,73849175045000,3.26345,Car
Fix,FLP,37.3956206,-122.1015058,-5.599999904632568,5.607824,5.681,296.98404,1676475484791,0.3772059,3.878053,73849175045000,1.4821584,Car
Fix,GPS,37.3956552969,-122.1015797492,-8.659401000957077,6.5777245,4.7144217,297.99963,1676475483999,0.39848635,3.480968,73850175077000,3.2597942,Car
Fix,FLP,37.3956515,-122.1015742,-5.599999904632568,6.5704713,5.681,296.99994,1676475485790,0.39848635,3.480968,73850175077000,1.4892532,Car
Fix,GPS,37.395689213,-122.1016541806,-8.392757822308761,7.461913,4.714397,298.76932,1676475484999,0.4207051,3.2145612,73851175045000,3.295881,Car
Fix,FLP,37.3956857,-122.1016498,-5.599999904632568,7.454527,5.681,297.99295,1676475486791,0.4207051,3.2145612,73851175045000,1.4988033,Car
Fix,NLP,37.3959365,-122.1015878,-5.900000095367432,,40.972,,1676475487319,,,73851704000000,1.0138365,Car
Fix,FLP,37.3956996,-122.1016819,-5.900000095367432,7.450271,5.86,297.9945,1676475487320,0.4207051,3.2145612,73851704000000,1.3829321,Car
Fix,GPS,37.395724632,-122.1017339167,-7.963690834360139,7.910998,5.0642347,299.1765,1676475485999,0.43160814,3.0651636,73852175364000,3.3445582,Car
Fix,FLP,37.3957213,-122.1017283,-5.900000095367432,7.909488,5.918,298.99432,1676475487790,0.43160814,3.0651636,73852175364000,1.389826,Car
Fix,GPS,37.3957632193,-122.1018183485,-7.734636040790234,8.104794,5.06423,299.19016,1676475486999,0.44985425,3.0340142,73853175084000,3.4112017,Car
Fix,FLP,37.3957608,-122.1018145,-5.900000095367432,8.103055,5.976,299.00027,1676475488790,0.44985425,3.0340142,73853175084000,1.6781645,Car
Fix,GPS,37.3958023566,-122.1019013249,-7.854292179791995,8.128628,5.0642247,300.23004,1676475487999,0.4659522,3.135651,73854175107000,3.5046377,Car
Fix,FLP,37.3958004,-122.1018992,-5.900000095367432,8.128436,6.035,299.99048,1676475489791,0.4659522,3.135651,73854175107000,1.9503787,Car
Fix,GPS,37.3958450645,-122.1019833161,-8.652810967299189,8.181327,5.0999904,300.63794,1676475488999,0.47961235,3.2312078,73855175401000,3.5770583,Car
Fix,FLP,37.3958424,-122.1019819,-5.900000095367432,8.180819,6.099,300.0002,1676475490791,0.47961235,3.2312078,73855175401000,1.696245,Car
Fix,GPS,37.3958831785,-122.1020594773,-7.8830414799951,7.8654604,5.334427,300.83133,1676475489999,0.52543986,3.6297371,73856175141000,3.6492867,Car
Fix,FLP,37.3958818,-122.1020604,-5.900000095367432,7.8693986,6.202,299.99963,1676475491790,0.52543986,3.6297371,73856175141000,1.7078898,Car
Fix,GPS,37.3959184396,-122.1021288151,-8.156535428430553,7.1311674,5.4121933,300.35498,1676475490999,0.52150667,3.9979215,73857175173000,3.7159958,Car
Fix,FLP,37.395918,-122.1021318,-5.900000095367432,7.140214,5.173,299.99893,1676475492790,0.52150667,3.9979215,73857175173000,1.7182997,Car
Fix,GPS,37.3959479614,-122.1021921913,-8.580636137341916,6.2707686,5.6824,300.67535,1676475491999,0.5568035,4.823448,73858175185000,3.8351603,Car
Fix,FLP,37.3959488,-122.1021957,-5.900000095367432,6.2828336,5.318,299.99774,1676475493790,0.5568035,4.823448,73858175185000,1.7278998,Car
Fix,GPS,37.395973114,-122.102242409,-8.637714012314337,5.266667,5.714363,298.3372,1676475492999,0.5155186,5.3517756,73859175204000,4.2420945,Car
Fix,FLP,37.3959745,-122.1022478,-5.900000095367432,5.2787046,5.448,298.0254,1676475494790,0.5155186,5.3517756,73859175204000,2.0004497,Car
Fix,GPS,37.3959920291,-122.1022866998,-6.326106169700578,4.896018,5.9201283,297.7513,1676475493999,0.52670634,5.796311,73860175491000,4.2255635,Car
Fix,FLP,37.3959938,-122.102292,-5.900000095367432,4.900659,5.612,297.01184,1676475495791,0.52670634,5.796311,73860175491000,1.7478998,Car
Fix,GPS,37.3960117694,-122.1023281025,-6.796913346413954,4.6788564,6.0552893,297.671,1676475494999,0.5336207,6.371563,73861175625000,4.238617,Car
Fix,FLP,37.3960126,-122.1023333,-1.302235574372382,4.6816707,5.756,297.00012,1676475496791,0.5336207,6.371563,73861175625000,1.7582898,Car
Fix,GPS,37.3960338798,-122.1023722405,-7.371506606699891,5.2250643,6.1581507,297.11948,1676475495999,0.5504166,6.0045395,73862175545000,4.2274404,Car
Fix,FLP,37.3960331,-122.1023755,-1.3477260025839612,5.217335,5.905,297.00073,1676475497790,0.5504166,6.0045395,73862175545000,1.7678998,Car
Fix,GPS,37.39605654,-122.1024238469,-7.807910081428936,6.3478656,6.3353133,296.22992,1676475496999,0.5711597,5.1015463,73863175523000,4.2229567,Car
Fix,FLP,37.3960557,-122.1024256,-5.900000095367432,6.330709,6.036,296.01352,1676475498791,0.5711597,5.1015463,73863175523000,1.7782898,Car
Fix,GPS,37.3960839953,-122.1024888726,-8.176176725027679,7.3667436,6.5047894,297.6357,1676475497999,0.58878994,4.515047,73864175294000,4.241033,Car
Fix,FLP,37.3960826,-122.1024894,-5.900000095367432,7.350157,6.194,296.9877,1676475499790,0.58878994,4.515047,73864175294000,2.0500598,Car
Fix,GPS,37.3961200358,-122.1025709819,-8.357874536339773,8.251297,6.5067945,297.36337,1676475498999,0.57203364,3.9116843,73865175394000,4.2183127,Car
Fix,FLP,37.396117,-122.102568,-5.900000095367432,8.237796,6.246,297.00082,1676475500791,0.57203364,3.9116843,73865175394000,1.7982898,Car
Fix,GPS,37.3961576608,-122.1026601083,-8.465923023951413,8.984422,6.5195932,297.24686,1676475499999,0.588533,3.7024808,73866175287000,4.2244487,Car
Fix,FLP,37.3961549,-122.1026565,-5.900000095367432,8.97259,6.346,297.0007,1676475501790,0.588533,3.7024808,73866175287000,1.8085698,Car
Fix,NLP,37.3960618,-122.102687,-5.599999904632568,,41.443,,1676475502631,,,73867015000000,3.8926315,Car
Fix,FLP,37.3961813,-122.1027213,-5.599999904632568,8.959721,8.243,297.0028,1676475502631,0.588533,3.7024808,73867015000000,2.2144625,Car
Fix,GPS,37.3962000753,-122.1027619779,-8.325039248571484,9.947619,6.514508,298.2537,1676475500999,0.58931786,3.3282971,73867175328000,4.23696,Car
Fix,FLP,37.3961947,-122.1027509,-5.599999904632568,9.934886,7.996,297.98755,1676475502791,0.58931786,3.3282971,73867175328000,2.2163124,Car
Fix,GPS,37.3962473949,-122.1028713263,-7.997637875965912,10.784348,6.543268,298.68796,1676475501999,0.60607874,3.1284144,73868175616000,4.2563806,Car
Fix,FLP,37.396243,-122.1028626,-5.599999904632568,10.770403,8.337,298.0009,1676475503791,0.60607874,3.1284144,73868175616000,2.3437495,Car
Fix,GPS,37.3962948906,-122.1029880914,-7.782826809283576,11.394653,6.5963755,297.95462,1676475502999,0.6013524,2.9633815,73869175624000,4.2685156,Car
Fix,FLP,37.3962922,-122.1029808,-5.599999904632568,11.384457,8.352,297.01593,1676475504791,0.6013524,2.9633815,73869175624000,2.2005033,Car
Fix,GPS,37.3963471658,-122.1031080196,-7.636862749622183,11.79292,6.787598,297.8241,1676475503999,0.6052471,2.8763635,73870175615000,4.2937284,Car
Fix,FLP,37.3963436,-122.1031028,-5.599999904632568,11.786233,8.399,297.00076,1676475505790,0.6052471,2.8763635,73870175615000,2.2463024,Car
Fix,GPS,37.3964033453,-122.1032376091,-7.762551781507865,11.875334,6.765274,296.86792,1676475504999,0.56612676,2.6104715,73871175371000,4.2547383,Car
Fix,FLP,37.3963984,-122.1032309,-5.599999904632568,11.874146,8.44,296.01434,1676475506790,0.56612676,2.6104715,73871175371000,2.280599,Car
Fix,GPS,37.3964625846,-122.1033644242,-8.053942456879245,11.598101,6.6954365,297.20657,1676475505999,0.56290334,2.645924,73872175413000,4.227505,Car
Fix,FLP,37.3964554,-122.1033591,-5.599999904632568,11.602271,6.677,296.98605,1676475507790,0.56290334,2.645924,73872175413000,2.290599,Car
Fix,GPS,37.3965171672,-122.10348364,-8.228010295070135,11.172752,6.619593,297.2651,1676475506999,0.56186026,2.7641108,73873175716000,4.2124963,Car
Fix,FLP,37.3965113,-122.1034806,-5.599999904632568,11.179039,6.692,296.9997,1676475508790,0.56186026,2.7641108,73873175716000,2.3005993,Car
Fix,GPS,37.396566576,-122.1035934696,-8.416417518216058,10.576463,6.485345,297.75018,1676475507999,0.5705293,2.9633687,73874175425000,4.19966,Car
Fix,FLP,37.3965627,-122.1035934,-5.599999904632568,10.585429,6.658,296.99954,1676475509790,0.5705293,2.9633687,73874175425000,2.4612756,Car
Fix,GPS,37.3966089396,-122.1036932457,-8.45785508314771,10.077628,6.4849787,298.01117,1676475508999,0.57121265,3.1098459,73875175735000,4.1949744,Car
Fix,FLP,37.3966077,-122.103696,-5.599999904632568,10.085127,6.61,297.98438,1676475510790,0.57121265,3.1098459,73875175735000,2.3205993,Car
Fix,GPS,37.3966497476,-122.1037897574,-8.413538191186072,9.711407,6.495439,298.20398,1676475509999,0.58639944,3.2925594,73876175715000,4.188756,Car
Fix,FLP,37.3966499,-122.1037927,-5.599999904632568,9.717145,6.556,297.99918,1676475511791,0.58639944,3.2925594,73876175715000,2.3315992,Car
Fix,GPS,37.396689389,-122.103884286,-8.540366098303428,9.398902,6.694066,297.94348,1676475510999,0.60724074,3.439689,73877175482000,4.1871767,Car
Fix,FLP,37.39669,-122.1038866,-5.599999904632568,9.403948,6.555,297.01514,1676475512790,0.60724074,3.439689,73877175482000,2.3415892,Car
Fix,GPS,37.396723915,-122.1039718935,-9.245242626624242,8.52595,6.899767,297.26035,1676475511999,0.6128667,3.8963492,73878175829000,4.2210326,Car
Fix,FLP,37.3967259,-122.103976,-5.900000095367432,8.540635,6.611,296.9978,1676475513791,0.6128667,3.8963492,73878175829000,2.3515792,Car
Fix,GPS,37.3967528332,-122.1040492132,-9.535294395114615,6.884506,7.0207257,295.87537,1676475512999,0.60705805,4.571535,73879175540000,4.2548475,Car
Fix,FLP,37.3967562,-122.1040548,-5.900000095367432,6.910923,6.719,295.02655,1676475514790,0.60705805,4.571535,73879175540000,2.5103157,Car
Fix,GPS,37.3967725949,-122.1041041871,-9.75480546906775,5.250603,7.1063843,297.57437,1676475513999,0.63315904,6.4613895,73880175809000,4.3067803,Car
Fix,FLP,37.3967769,-122.1041135,-5.599999904632568,5.280046,6.843,296.94638,1676475515790,0.63315904,6.4613895,73880175809000,2.3952427,Car
Fix,GPS,37.3967836873,-122.1041410347,-10.227345920308665,3.9819548,7.0987587,294.2708,1676475514999,0.5346189,7.524383,73881175821000,4.327827,Car
Fix,FLP,37.3967901,-122.1041522,-5.599999904632568,3.998645,6.964,294.04715,1676475516790,0.5346189,7.524383,73881175821000,2.4042227,Car
Fix,GPS,37.3967946664,-122.1041750545,-9.977485827139954,3.6581335,6.801056,292.81546,1676475515999,0.5019174,7.780031,73882175541000,4.332678,Car
Fix,FLP,37.3967989,-122.1041828,-5.599999904632568,3.6619694,6.985,292.0253,1676475517791,0.5019174,7.780031,73882175541000,2.4152327,Car
Fix,GPS,37.3968055193,-122.1042130325,-9.879794668785772,4.284544,6.689763,291.3527,1676475516999,0.515382,6.8815284,73883175565000,4.3363605,Car
Fix,FLP,37.3968079,-122.1042164,-5.599999904632568,4.2767205,6.936,291.0107,1676475518791,0.515382,6.8815284,73883175565000,2.4242127,Car
Fix,GPS,37.3968207298,-122.1042603011,-10.019937355141906,4.9445925,6.573841,295.72226,1676475517999,0.53113794,6.1207047,73884175551000,4.3379955,Car
