Fix,Provider,LatitudeDegrees,LongitudeDegrees,AltitudeMeters,SpeedMps,AccuracyMeters,BearingDegrees,UnixTimeMillis,SpeedAccuracyMps,BearingAccuracyDegrees,elapsedRealtimeNanos,VerticalAccuracyMeters,TransitType
Fix,FLP,37.4451241,-122.1623809,-17.654001376718853,5.6796656,20.79,219.97957,1677391083449,0.6443994,180.0,825881742614881,3.3557394,Car
Fix,GPS,37.4450645638,-122.1624289317,-9.223242951432498,7.958968,7.05688,213.24171,1677391081704,0.6044064,180.0,825882735052056,11.7098465,Car
Fix,FLP,37.4450753,-122.1624253,-17.625487623921572,5.989002,12.489,218.57971,1677391084442,0.6044064,180.0,825882735052056,5.6090703,Car
Fix,GPS,37.4450046816,-122.1624872439,-12.426334306366844,8.141647,9.126381,214.84793,1677391082704,0.35022506,10.0,825883724210381,11.046361,Car
Fix,FLP,37.4450085,-122.1624805,-17.602065540744448,7.782466,12.008,214.11491,1677391085432,0.35022506,10.0,825883724210381,3.3813236,Car
Fix,GPS,37.4449505348,-122.1625518318,-13.804957444211787,8.459224,8.012654,216.60141,1677391083704,0.3756452,10.0,825884721518731,9.774931,Car
Fix,FLP,37.4449494,-122.1625409,-17.521615282513768,8.19318,12.361,215.2677,1677391086429,0.3756452,10.0,825884721518731,3.4704823,Car
Fix,GPS,37.444880194,-122.1626402923,-13.938450557280143,8.583549,7.4066076,217.84744,1677391085000,0.377175,10.0,825886007870702,8.869498,Car
Fix,FLP,37.4448749,-122.1626242,-17.117824889617864,8.435836,13.489,216.45503,1677391087714,0.377175,10.0,825886007870702,5.576975,Car
Fix,GPS,37.4448231813,-122.1627100701,-13.782343347011931,8.991939,6.8756485,217.27068,1677391086000,0.3484044,10.0,825887012253881,8.180612,Car
Fix,FLP,37.4448169,-122.1626945,-17.05010027416437,8.755368,7.695,216.85643,1677391088720,0.3484044,10.0,825887012253881,3.232814,Car
Fix,GPS,37.44476335,-122.1627790245,-13.964746342690123,9.064151,6.4076657,217.96773,1677391087000,0.3344047,10.0,825887956003000,7.74929,Car
Fix,FLP,37.4447595,-122.1627633,-16.91464941548613,8.941703,7.566,217.0993,1677391089664,0.3344047,10.0,825887956003000,5.5704646,Car
Fix,GPS,37.4446997332,-122.16284625,-13.274248611325843,9.182808,6.1569624,219.74037,1677391088000,0.339367,10.0,825888956250000,7.427646,Car
Fix,FLP,37.4446972,-122.1628348,-16.863727478699765,9.076946,6.972,218.24483,1677391090663,0.339367,10.0,825888956250000,3.4738076,Car
Fix,GPS,37.4446360758,-122.1629174764,-13.183319853481132,9.095336,5.9105296,219.95692,1677391089000,0.3704286,10.0,825889955886000,7.220466,Car
Fix,FLP,37.4446345,-122.1629072,-16.838266395274143,9.100193,6.551,218.81392,1677391091663,0.3704286,10.0,825889955886000,3.39848,Car
Fix,GPS,37.4445731817,-122.1629856905,-13.06002677874525,8.810798,6.4880757,220.29915,1677391090000,0.44763276,10.0,825890955914000,7.2237797,Car
Fix,FLP,37.4445722,-122.1629771,-16.856598383070363,8.950714,6.541,219.5921,1677391092663,0.44763276,10.0,825890955914000,5.5068364,Car
Fix,GPS,37.444511261,-122.1630507848,-13.20714117250932,8.468345,5.8661585,219.46016,1677391091000,0.3939816,10.0,825891955909000,7.1230216,Car
Fix,FLP,37.4445112,-122.163045,-16.82451737833787,8.690716,6.284,219.46399,1677391093663,0.3939816,10.0,825891955909000,3.5178602,Car
Fix,GPS,37.4444515693,-122.1631109715,-13.155165125431646,8.203826,5.7634287,220.10542,1677391092000,0.375692,10.0,825892955923000,7.086788,Car
Fix,FLP,37.4444519,-122.1631085,-16.825026601585794,8.414314,6.098,219.87065,1677391094663,0.375692,10.0,825892955923000,2.9576764,Car
Fix,GPS,37.4443959582,-122.1631687754,-13.763228996159498,7.157116,5.79495,220.23372,1677391093000,0.3639582,10.0,825893955945000,7.047527,Car
Fix,FLP,37.4443965,-122.1631673,-16.776650256034696,7.6242547,5.996,220.17937,1677391095663,0.3639582,10.0,825893955945000,5.523443,Car
Fix,GPS,37.4443491691,-122.1632174233,-14.815183195743046,5.907928,5.794832,221.35646,1677391094000,0.35826683,10.0,825894955972000,7.0362644,Car
Fix,FLP,37.4443487,-122.163218,-16.89428067758094,6.4350233,5.941,220.90996,1677391096663,0.35826683,10.0,825894955972000,3.4949813,Car
Fix,GPS,37.4443110187,-122.1632597874,-15.297583090434376,4.892725,5.8351455,221.73798,1677391095000,0.4116975,10.0,825895955978000,6.981948,Car
Fix,FLP,37.4443093,-122.163261,-17.093382985713614,5.307662,5.81,221.15794,1677391097663,0.4116975,10.0,825895955978000,3.5701008,Car
Fix,GPS,37.444280688,-122.1632922477,-15.179511634287088,3.3471892,5.6966124,215.75256,1677391096000,0.3288947,10.0,825896956032000,6.8607054,Car
Fix,FLP,37.4442784,-122.1632938,-17.093382985713614,3.6668036,5.777,217.16577,1677391098663,0.3288947,10.0,825896956032000,5.6918483,Car
Fix,GPS,37.4442642449,-122.1633061239,-15.03472734217659,2.3096168,5.221445,218.77989,1677391097000,0.026598,10.0,825897956030000,6.4189982,Car
Fix,FLP,37.4442587,-122.1633118,-17.119352506265656,2.4063962,5.668,218.35902,1677391099664,0.026598,10.0,825897956030000,3.2690337,Car
Fix,GPS,37.4442508204,-122.1633173512,-14.537793435769473,1.7372533,4.9739075,222.77141,1677391098000,0.33164155,10.265983,825898956015000,6.172296,Car
Fix,FLP,37.4442461,-122.1633232,-16.985939611653144,1.808126,5.504,221.42809,1677391100663,0.33164155,10.265983,825898956015000,3.5080922,Car
Fix,GPS,37.4442428815,-122.1633345362,-14.149089469265125,1.7276647,4.9727507,227.12247,1677391099000,0.09911488,10.0,825899956039000,5.9775248,Car
Fix,FLP,37.4442394,-122.1633337,-16.92890750281617,1.7296019,5.279,226.62912,1677391101663,0.09911488,10.0,825899956039000,5.695317,Car
Fix,GPS,37.4442377001,-122.1633361791,-13.892206795606796,1.0145656,4.7582355,215.22664,1677391100000,0.05806617,10.0,825900956042000,5.7504697,Car
Fix,FLP,37.4442327,-122.1633427,-17.030750284375696,1.0288558,5.099,215.62534,1677391102664,0.05806617,10.0,825900956042000,3.4020832,Car
Fix,GPS,37.444236366,-122.1633342509,-13.303897153789784,0.0,5.0266333,215.22664,1677391101000,0.03391397,129.30215,825901956062000,5.5462046,Car
Fix,FLP,37.4442302,-122.1633427,-17.081671215045564,0.0008500375,4.987,,1677391103664,0.03391397,,825901956062000,3.3844385,Car
Fix,GPS,37.4442378419,-122.163331102,-13.13074450549971,0.0,5.0259776,215.22664,1677391102000,0.02671287,180.0,825902956078000,5.371321,Car
Fix,FLP,37.4442336,-122.1633375,-17.099493468314893,4.742169e-07,4.955,,1677391104663,0.02671287,,825902956078000,5.6174746,Car
Fix,GPS,37.4442390481,-122.1633278696,-13.018308452992784,0.0,5.025321,215.22664,1677391103000,0.028335387,180.0,825903956090000,5.2189384,Car
Fix,FLP,37.444236,-122.1633332,-17.0256581744388,1.0209737e-08,4.963,,1677391105664,0.028335387,,825903956090000,3.5807586,Car
Fix,GPS,37.4442415604,-122.1633270007,-13.028589991782244,0.0,5.024666,215.22664,1677391104000,0.02857946,180.0,825904956121000,5.0934463,Car
Fix,FLP,37.4442385,-122.1633304,-16.98084747472198,1.1996144e-08,4.972,,1677391106663,0.02857946,,825904956121000,3.034063,Car
Fix,GPS,37.4442427784,-122.1633237447,-12.912626569380569,0.0,5.0240097,215.22664,1677391105000,0.021506537,180.0,825905956121000,4.947865,Car
Fix,FLP,37.4442404,-122.1633274,-16.97982904696844,5.457756e-09,5.025,,1677391107663,0.021506537,,825905956121000,5.682658,Car
Fix,GPS,37.4442441019,-122.1633219599,-13.064768638095453,0.0,5.0233545,215.22664,1677391106000,0.022194268,180.0,825906956133000,4.814574,Car
Fix,FLP,37.4442421,-122.163325,-16.97881061908984,2.816502e-09,5.024,,1677391108664,0.022194268,,825906956133000,5.5586886,Car
Fix,GPS,37.4442445625,-122.1633227265,-13.133755244986023,0.0,4.667013,215.22664,1677391107000,0.019857328,180.0,825907956150000,4.6954436,Car
Fix,FLP,37.4442432,-122.163324,-17.00325285427255,1.6220136e-09,4.952,,1677391109664,0.019857328,,825907956150000,3.6461174,Car
Fix,GPS,37.444245473,-122.1633224398,-13.37992785342409,0.0,5.0966353,215.22664,1677391108000,0.02037805,180.0,825908956170000,4.588393,Car
Fix,FLP,37.4442442,-122.1633233,-17.054173950582122,1.2073503e-09,4.967,,1677391110663,0.02037805,,825908956170000,3.117729,Car
Fix,GPS,37.444251323,-122.1633254165,-13.52760437100213,0.0,4.075939,215.22664,1677391109000,0.019329412,180.0,825909956184000,4.492067,Car
Fix,FLP,37.4442474,-122.1633242,-17.067922593993885,3.567001e-09,4.777,,1677391111664,0.019329412,,825909956184000,5.9010835,Car
Fix,FLP,37.4442479,-122.1633244,-17.081671215045564,9.964319e-07,5.684,,1677391112137,0.019329412,,825910429000000,3.309052,Car
Fix,NLP,37.444254,-122.1633118,-13.5,,32.266,,1677391112137,,,825910429000000,1.0,Car
Fix,GPS,37.4442524867,-122.1633262258,-13.659840557768952,0.0,5.09614,215.22664,1677391110000,0.020488331,180.0,825910956205000,4.3919973,Car
Fix,FLP,37.4442498,-122.1633251,-17.076579135782364,1.880206e-06,5.696,,1677391112663,0.020488331,,825910956205000,3.0487611,Car
Fix,GPS,37.4442533362,-122.1633269782,-13.64193904465386,0.0,5.0958915,215.22664,1677391111000,0.022899207,180.0,825911956205000,4.299912,Car
Fix,FLP,37.4442513,-122.1633259,-17.051627903051305,3.6573882e-09,5.709,,1677391113664,0.022899207,,825911956205000,3.2677925,Car
Fix,GPS,37.4442553574,-122.1633274641,-13.544845710278944,0.0,5.095643,215.22664,1677391112000,0.022712152,180.0,825912956236000,4.2283773,Car
Fix,FLP,37.4442531,-122.1633266,-17.05468315999599,3.4896805e-09,5.78,,1677391114664,0.022712152,,825912956236000,4.7487473,Car
Fix,GPS,37.4442588324,-122.1633297196,-13.32298010087812,0.0,4.074908,215.22664,1677391113000,0.017866319,180.0,825913956266000,4.148822,Car
Fix,FLP,37.4442557,-122.163328,-17.06181208857089,3.0459912e-09,5.61,,1677391115664,0.017866319,,825913956266000,3.1230881,Car
Fix,GPS,37.4442588373,-122.1633297436,-13.307110913825252,0.0024013438,3.5514855,215.22664,1677391114000,0.018108021,180.0,825914956407000,4.1182933,Car
Fix,FLP,37.4442571,-122.1633288,-17.06028446152618,0.002400712,5.522,,1677391116663,0.018108021,,825914956407000,3.3039615,Car
Fix,NLP,37.4441829,-122.1633271,-13.5,,34.536,,1677391117128,,,825915421000000,1.0,Car
Fix,FLP,37.4442573,-122.1633289,-17.049081854753837,0.0024004097,6.103,,1677391117129,0.018108021,,825915421000000,3.0853217,Car
Fix,GPS,37.4442589922,-122.1633298831,-13.378328966930734,0.0036508422,3.541254,215.22664,1677391115000,0.019435033,180.0,825915956391000,4.1092987,Car
Fix,FLP,37.444258,-122.1633293,-17.022602907003655,0.0036499575,5.218,,1677391117664,0.019435033,,825915956391000,5.169913,Car
Fix,GPS,37.4442589965,-122.1633299693,-13.43476622255761,0.005374532,3.5310295,215.22664,1677391116000,0.021852108,180.0,825916956302000,4.0883036,Car
Fix,FLP,37.4442584,-122.1633296,-17.047554225407286,0.0053736777,5.018,,1677391118664,0.021852108,,825916956302000,4.825119,Car
Fix,GPS,37.4442590268,-122.1633302336,-13.482257840774857,0.0041360827,3.5191689,215.22664,1677391117000,0.02183467,180.0,825917956316000,4.068981,Car
Fix,FLP,37.4442587,-122.1633299,-17.056210788053736,0.0041366145,4.819,,1677391119663,0.02183467,,825917956316000,2.6507125,Car
Fix,GPS,37.4442590849,-122.1633303144,-13.539016449384883,0.004621661,3.5118322,215.22664,1677391118000,0.017754847,180.0,825918956317000,4.0572624,Car
Fix,FLP,37.4442588,-122.1633301,-17.068941011135717,0.004621496,4.79,,1677391120663,0.017754847,,825918956317000,3.0454202,Car
Fix,GPS,37.4442590596,-122.1633303433,-13.517700287273748,0.004253311,3.49962,215.22664,1677391119000,0.018267693,180.0,825919956335000,4.042637,Car
Fix,FLP,37.4442589,-122.1633302,-17.077088343846757,0.004253434,4.663,,1677391121664,0.018267693,,825919956335000,5.3403497,Car
Fix,FLP,37.4442589,-122.1633302,-17.081671215045564,0.0042534014,4.945,,1677391122146,0.018267693,,825920439000000,5.185386,Car
Fix,NLP,37.4442141,-122.1634,-13.100000381469728,,28.716,,1677391122146,,,825920439000000,1.0,Car
Fix,GPS,37.4442587616,-122.1633306655,-13.62371410813488,0.022987582,3.4872847,215.22664,1677391120000,0.017752117,180.0,825920956349000,4.0264454,Car
Fix,FLP,37.4442589,-122.1633305,-17.095929020667043,0.022930423,4.796,,1677391122663,0.017752117,,825920956349000,2.252655,Car
Fix,GPS,37.4442584462,-122.1633308828,-13.625234761976753,0.056804042,3.851989,215.22664,1677391121000,0.47012332,31.087152,825921956380000,4.078374,Car
Fix,FLP,37.4442586,-122.1633307,-17.110186802240346,0.052294303,4.945,,1677391123664,0.47012332,,825921956380000,2.5998054,Car
Fix,GPS,37.4442572703,-122.1633312389,-13.630323715591423,0.22953254,4.2255692,216.4667,1677391122000,0.47465223,16.085815,825922956375000,4.116634,Car
Fix,FLP,37.4442577,-122.1633312,-17.074542303217747,0.20818466,5.0,217.24707,1677391124663,0.47465223,16.085815,825922956375000,3.0702662,Car
Fix,GPS,37.4442413745,-122.163344229,-13.728347951878751,1.062837,4.169682,215.601,1677391123000,0.0770254,10.0,825923956425000,4.103362,Car
Fix,FLP,37.444249,-122.1633381,-16.953349882290343,1.0458078,5.045,214.75153,1677391125664,0.0770254,10.0,825923956425000,5.077962,Car
Fix,GPS,37.4442181294,-122.1633683584,-13.277652334243696,2.161792,4.11213,219.78757,1677391124000,0.078877196,10.0,825924956414000,4.090663,Car
Fix,FLP,37.4442308,-122.1633556,-16.853543054531873,2.0709422,5.08,218.38766,1677391126663,0.078877196,10.0,825924956414000,4.999415,Car
Fix,NLP,37.4442149,-122.1633707,-13.0,,23.884,,1677391127189,,,825925482000000,1.0,Car
Fix,FLP,37.4442178,-122.1633687,-16.802620749644444,2.1539502,5.052,218.91516,1677391127190,0.078877196,10.0,825925482000000,2.702978,Car
Fix,GPS,37.4441887157,-122.1633982365,-13.453131882386742,2.9454684,4.0524635,215.97366,1677391125000,0.43091318,10.0,825925956418000,4.0862947,Car
Fix,FLP,37.4442024,-122.1633842,-16.801093075758956,2.6829913,5.073,215.95872,1677391127664,0.43091318,10.0,825925956418000,2.287015,Car
Fix,GPS,37.4441595926,-122.1634238418,-13.345996174653564,3.3365488,4.3241367,215.19511,1677391126000,0.5392654,10.0,825926956431000,4.150719,Car
Fix,FLP,37.4441752,-122.1634096,-16.667675158136856,3.0701542,4.893,215.06247,1677391128663,0.5392654,10.0,825926956431000,2.6231656,Car
Fix,GPS,37.4441249257,-122.1634577,-13.452350182726969,3.813604,4.6181326,219.04532,1677391127000,0.5425956,10.0,825927956500000,4.271401,Car
Fix,FLP,37.4441453,-122.1634374,-16.498098964245962,3.4851913,4.876,216.67801,1677391129664,0.5425956,10.0,825927956500000,4.633996,Car
Fix,GPS,37.4440756258,-122.1635079443,-13.388618725066792,4.566373,4.4666452,220.33138,1677391128000,0.5507271,10.0,825928956614000,4.2144737,Car
Fix,FLP,37.4441032,-122.1634794,-16.3091677269418,4.189611,4.879,219.11482,1677391130664,0.5507271,10.0,825928956614000,4.921179,Car
Fix,GPS,37.4440224263,-122.1635610335,-13.254954542848914,5.208657,4.3577614,218.16383,1677391129000,0.40039566,10.0,825929956485000,4.187338,Car
Fix,FLP,37.4440556,-122.1635282,-16.16504752896235,4.7834864,4.808,218.96233,1677391131663,0.40039566,10.0,825929956485000,2.9028788,Car
Fix,FLP,37.4440362,-122.1635479,-16.100370881647567,4.7872686,4.842,218.96486,1677391132208,0.40039566,10.0,825930500000000,2.6754804,Car
Fix,NLP,37.4439576,-122.1635731,-13.0,,11.864,,1677391132207,,,825930500000000,1.0,Car
Fix,GPS,37.4439704466,-122.1636140511,-13.351561734514894,5.6580873,4.6262846,219.11949,1677391130000,0.4482635,10.0,825930956496000,4.3602304,Car
Fix,FLP,37.4440012,-122.1635832,-16.091713340123654,5.3904552,4.943,218.79234,1677391132664,0.4482635,10.0,825930956496000,2.6834984,Car
Fix,GPS,37.4439128559,-122.1636705484,-13.020576457001706,6.0733523,4.891058,217.0149,1677391131000,0.4727275,10.0,825931956516000,4.6219354,Car
Fix,FLP,37.4439406,-122.1636434,-16.068287006836485,5.8922877,5.064,217.49759,1677391133663,0.4727275,10.0,825931956516000,2.1495,Car
Fix,GPS,37.4438502757,-122.1637288997,-13.194153365145135,6.4598484,5.159032,216.11334,1677391132000,0.5097177,10.0,825932956525000,4.8907924,Car
Fix,FLP,37.4438766,-122.1637044,-16.04180498668566,6.312359,5.206,216.49522,1677391134664,0.5097177,10.0,825932956525000,4.494928,Car
Fix,GPS,37.443784391,-122.1637908773,-13.393301597168932,6.8242817,5.3973017,216.25546,1677391133000,0.48041368,10.0,825933956537000,5.2003007,Car
Fix,FLP,37.4438104,-122.1637665,-16.02041560215385,6.692156,5.372,216.16142,1677391135664,0.48041368,10.0,825933956537000,2.4680521,Car
Fix,FLP,37.4437373,-122.1638387,-16.000553982339692,8.197624,5.841,215.83315,1677391136664,0.028050683,10.0,825934956699000,2.7481897,Car
Fix,GPS,37.4437153011,-122.1638630266,-13.475267911217555,9.484013,4.9238153,217.83707,1677391134000,0.028050683,10.0,825934956699000,4.556763,Car
Fix,GPS,37.4436424023,-122.1639335699,-13.400272058247603,10.457505,5.2115493,216.9804,1677391135000,0.30911833,10.0,825935956692000,4.559131,Car
Fix,FLP,37.4436593,-122.1639139,-15.786804085195346,9.382002,5.116,215.4167,1677391137663,0.30911833,10.0,825935956692000,3.416919,Car
Fix,GPS,37.4435547075,-122.164011191,-13.909088521367927,11.214193,4.7962127,217.99402,1677391136000,0.024108762,10.0,825936956735000,4.3874493,Car
Fix,FLP,37.4435715,-122.1639953,-16.160973424049928,10.341441,5.097,215.90056,1677391138664,0.024108762,10.0,825936956735000,2.8626668,Car
Fix,GPS,37.4434618021,-122.1640999878,-14.620640617241158,12.209723,4.531504,218.5205,1677391137000,0.027482174,10.0,825937956616000,4.2704673,Car
Fix,FLP,37.443478,-122.1640842,-16.39536337891296,11.2633705,4.972,216.67844,1677391139663,0.027482174,10.0,825937956616000,5.466856,Car
Fix,GPS,37.4433671599,-122.1641953962,-15.461322256811796,13.110769,4.358409,218.99362,1677391138000,0.043597244,10.0,825938956612000,4.204774,Car
Fix,FLP,37.4433807,-122.1641801,-17.389227114996388,12.148213,4.764,217.11403,1677391140664,0.043597244,10.0,825938956612000,4.4113307,Car
Fix,GPS,37.4432754109,-122.1642892571,-15.66642340958705,13.311944,5.092848,220.06947,1677391139000,0.4358851,10.0,825939956647000,4.372046,Car
Fix,FLP,37.4432842,-122.1642782,-17.66214814556656,12.694287,4.819,218.33733,1677391141664,0.4358851,10.0,825939956647000,2.107703,Car
Fix,GPS,37.4431818439,-122.1643850715,-15.238223708472166,13.828476,5.873765,218.4972,1677391140000,0.6538837,10.0,825940956655000,4.6247044,Car
Fix,FLP,37.4431877,-122.1643762,-18.199817530952476,13.195908,4.977,218.13927,1677391142664,0.6538837,10.0,825940956655000,2.5673168,Car
Fix,GPS,37.4429942201,-122.1645749574,-13.840595985257266,12.868707,13.572538,218.4972,1677391142000,1.36479,74.152664,825942956724000,5.4330497,Car
Fix,FLP,37.443001,-122.164561,-18.52769760447429,13.190141,96.0,218.14398,1677391144664,1.36479,74.152664,825942956724000,3.061299,Car
Fix,GPS,37.4429083534,-122.1646605772,-13.909528825257174,12.794441,7.6924396,218.02036,1677391143000,0.35133734,10.0,825943956777000,5.56593,Car
Fix,FLP,37.4429092,-122.164656,-18.49002259055343,12.98926,7.692,218.27611,1677391145663,0.35133734,10.0,825943956777000,2.903493,Car
Fix,GPS,37.4428190569,-122.1647465288,-15.125996596262103,12.10459,7.2552977,217.31596,1677391144000,0.33864573,10.0,825944956720000,5.606076,Car
Fix,FLP,37.4428197,-122.1647444,-18.335247798587517,12.565272,7.473,217.9008,1677391146664,0.33864573,10.0,825944956720000,2.9135227,Car
Fix,GPS,37.4427315357,-122.1648286838,-15.409477793748684,11.016101,6.987816,215.79456,1677391145000,0.26827478,10.0,825945956819000,5.6061726,Car
Fix,FLP,37.4427331,-122.1648264,-17.91631010529014,11.79143,7.311,217.04219,1677391147664,0.26827478,10.0,825945956819000,5.8183403,Car
Fix,GPS,37.4426509582,-122.164891053,-14.322519087266004,10.080545,5.9011984,214.67648,1677391146000,0.06480229,10.0,825946956773000,5.184165,Car
Fix,FLP,37.4426518,-122.1648955,-17.658583935162333,10.855396,6.959,216.07925,1677391148663,0.06480229,10.0,825946956773000,2.7359517,Car
Fix,GPS,37.4425852636,-122.1649451229,-13.347098806322828,8.565243,5.111925,214.60153,1677391147000,0.02730634,10.0,825947956797000,4.926307,Car
Fix,FLP,37.442582,-122.1649522,-17.062830506448112,9.426802,6.589,215.69377,1677391149663,0.02730634,10.0,825947956797000,2.21423,Car
Fix,GPS,37.4425352362,-122.1649873875,-12.471042520384149,7.066835,4.5939674,215.38724,1677391148000,0.036346495,10.0,825948956831000,4.7124367,Car
Fix,FLP,37.4425268,-122.1649974,-16.780214838313153,7.79717,5.97,215.99962,1677391150664,0.036346495,10.0,825948956831000,2.2472587,Car
Fix,GPS,37.4424924441,-122.1650249985,-11.801050885483534,5.6392565,4.2305403,216.50783,1677391149000,0.026841233,10.0,825949956831000,4.53583,Car
Fix,FLP,37.442483,-122.1650346,-16.391666522424522,6.171082,5.365,216.71214,1677391151664,0.026841233,10.0,825949956831000,2.2549922,Car
Fix,GPS,37.4424602148,-122.1650552776,-11.081204670613346,4.418171,3.9059258,217.05734,1677391150000,0.027963324,10.0,825950956950000,4.366745,Car
Fix,FLP,37.4424502,-122.1650643,-16.024999046250954,4.7478094,4.748,217.53723,1677391152664,0.027963324,10.0,825950956950000,2.9781535,Car
Fix,GPS,37.4424355686,-122.1650798652,-10.79745556084622,3.2307172,3.874003,216.70567,1677391151000,0.019578174,10.0,825951956863000,4.2126327,Car
Fix,FLP,37.4424263,-122.1650874,-15.961339877994844,3.4167352,4.348,216.9942,1677391153663,0.019578174,10.0,825951956863000,4.950554,Car
Fix,GPS,37.4424202828,-122.1650926357,-10.691861616259942,2.023682,3.8737898,216.86902,1677391152000,0.019672083,10.0,825952956910000,4.0766,Car
Fix,FLP,37.4424108,-122.1651014,-15.911940033079754,2.103471,4.106,216.66154,1677391154664,0.019672083,10.0,825952956910000,5.0409083,Car
Fix,NLP,37.4429975,-122.1651607,-11.300000190734863,,47.245,,1677391154747,,,825953039000000,4.236747,Car
Fix,FLP,37.442413,-122.1650993,-15.708375878865914,2.10263,4.249,216.65149,1677391154746,0.019672083,10.0,825953039000000,3.241796,Car
Fix,GPS,37.4424104472,-122.1651009456,-10.34404984413274,1.3227409,3.8735769,216.13406,1677391153000,0.020551074,10.0,825953956879000,3.9572394,Car
Fix,FLP,37.442404,-122.1651072,-15.694116126810696,1.3443234,4.134,216.29453,1677391155663,0.020551074,10.0,825953956879000,3.281062,Car
Fix,GPS,37.4424044138,-122.1651052473,-9.964192512600391,0.6426427,3.8733637,216.13406,1677391154000,0.019144684,17.3557,825954957222000,3.831767,Car
Fix,FLP,37.4424022,-122.1651082,-15.642167339293358,0.6954108,4.034,217.11691,1677391156664,0.019144684,17.3557,825954957222000,2.5468802,Car
Fix,GPS,37.442402625,-122.1651053441,-9.851870104548023,0.0,3.8731513,216.13406,1677391155000,0.021347156,180.0,825955956935000,3.7171998,Car
Fix,FLP,37.4424002,-122.165109,-15.45678628506343,0.0003941717,4.007,,1677391157664,0.021347156,,825955956935000,2.3517249,Car
Fix,GPS,37.442402625,-122.1651053441,-9.794313487247017,0.0,3.9588518,216.13406,1677391156000,0.018867208,180.0,825956956965000,3.621082,Car
Fix,FLP,37.4424012,-122.1651075,-15.598728113126551,1.1068445e-07,4.025,,1677391158664,0.018867208,,825956956965000,2.1183465,Car
Fix,FLP,37.4424012,-122.1651073,-15.580902695484529,2.2063308e-07,5.697,,1677391159761,0.018867208,,825958054000000,2.1329188,Car
Fix,GPS,37.442402625,-122.1651053441,-9.734823783322271,0.0,3.872726,216.13406,1677391157000,0.01696615,180.0,825957956965000,3.5302742,Car
Fix,NLP,37.4430174,-122.1651702,-11.300000190734863,,49.213,,1677391159761,,,825958054000000,4.870537,Car
Fix,GPS,37.442402625,-122.1651053441,-9.741401087283409,0.0,3.8725138,216.13406,1677391158000,0.016964836,180.0,825958957045000,3.445585,Car
Fix,FLP,37.4424022,-122.1651059,-15.571735323205978,5.1906795e-07,5.637,,1677391160664,0.016964836,,825958957045000,4.4866967,Car
Fix,GPS,37.4424011484,-122.1651092641,-9.655416643512492,0.46849427,3.8723016,216.13406,1677391159000,0.02503544,13.803861,825959957079000,3.3751345,Car
Fix,FLP,37.4424017,-122.1651075,-15.319789031860552,0.46491534,5.855,215.87242,1677391161664,0.02503544,13.803861,825959957079000,3.0687776,Car
Fix,GPS,37.442388058,-122.1651194935,-9.441200027170268,1.6848954,4.8467174,214.2187,1677391160000,0.031951964,10.0,825960956981000,3.3165214,Car
Fix,FLP,37.4423937,-122.1651146,-15.165979080640918,1.6305608,6.664,213.31963,1677391162664,0.031951964,10.0,825960956981000,3.2863305,Car
Fix,GPS,37.4423607287,-122.1651407589,-9.226146710324896,3.5013123,4.069416,212.90852,1677391161000,0.021938844,10.0,825961956986000,3.2446847,Car
Fix,FLP,37.4423719,-122.1651323,-15.05901816055425,3.2260528,6.682,210.25287,1677391163664,0.021938844,10.0,825961956986000,3.3260458,Car
Fix,GPS,37.4423218993,-122.1651693554,-9.039115701193245,5.021272,3.9948537,210.84291,1677391162000,0.024613837,10.0,825962956999000,3.1873791,Car
Fix,NLP,37.4430118,-122.1652349,-11.200000762939451,,82.5,,1677391164757,,,825963050000000,6.3663764,Car
Fix,FLP,37.4423443,-122.1651533,-14.922016497695942,3.4313962,8.183,211.24144,1677391164758,0.021938844,10.0,825963050000000,2.8054516,Car
Fix,GPS,37.4422820155,-122.1652002998,-8.951488676284304,6.436665,3.8714552,209.34859,1677391163000,0.28422803,10.0,825963957059000,3.2916183,Car
Fix,FLP,37.4422927,-122.1651913,-14.68619628595691,5.722961,6.323,207.15685,1677391165664,0.28422803,10.0,825963957059000,2.821419,Car
Fix,GPS,37.442223164,-122.1652393837,-9.103426308522556,7.585969,4.175358,207.25237,1677391164000,0.0759131,10.0,825964957136000,3.2578764,Car
Fix,FLP,37.4422341,-122.1652309,-14.77107979409382,7.041876,6.363,205.6836,1677391166664,0.0759131,10.0,825964957136000,4.3713474,Car
Fix,GPS,37.4421610391,-122.1652798243,-9.009896620009636,8.664121,4.1344376,204.73883,1677391165000,0.3693416,10.0,825965957277000,3.3546412,Car
Fix,FLP,37.4421681,-122.1652731,-14.56224495409108,8.120116,6.261,203.85497,1677391167665,0.3693416,10.0,825965957277000,4.225224,Car
Fix,GPS,37.4420863283,-122.1653223688,-8.992598123865772,9.544077,4.7458463,204.67763,1677391166000,0.43458906,10.0,825966957312000,3.565608,Car
Fix,FLP,37.4420929,-122.1653171,-14.13557389923464,9.003193,6.358,203.25981,1677391168665,0.43458906,10.0,825966957312000,2.4928882,Car
Fix,GPS,37.441998149,-122.1653746637,-9.131240990047212,9.856657,4.208887,205.88113,1677391167000,0.033720765,10.0,825967957242000,3.4075112,Car
Fix,FLP,37.4420082,-122.1653669,-14.031162220153153,9.556415,6.573,203.79291,1677391169665,0.033720765,10.0,825967957242000,3.1222286,Car
Fix,GPS,37.4419173391,-122.1654239117,-9.53181159287343,9.915525,4.192724,205.57057,1677391168000,0.025103448,10.0,825968957138000,3.276394,Car
Fix,FLP,37.4419235,-122.1654178,-14.122330170023616,9.788927,4.291,204.34163,1677391170665,0.025103448,10.0,825968957138000,3.163764,Car
Fix,GPS,37.441833366,-122.1654717953,-9.538368343508548,10.163053,3.956417,204.8873,1677391169000,0.02871157,10.0,825969957163000,3.1742525,Car
Fix,FLP,37.4418382,-122.1654678,-14.18938553322374,10.052431,4.247,204.08122,1677391171664,0.02871157,10.0,825969957163000,2.9665399,Car
Fix,GPS,37.4417503814,-122.1655153768,-9.41877285351864,10.216092,3.9562316,203.93275,1677391170000,0.061699297,10.0,825970957300000,3.1011305,Car
Fix,FLP,37.4417529,-122.1655146,-14.165953927488871,10.18505,4.212,203.50768,1677391172664,0.061699297,10.0,825970957300000,2.8871458,Car
Fix,GPS,37.4416584625,-122.1655609748,-9.707051289627188,10.510522,3.956046,202.58958,1677391171000,0.020038769,10.0,825971957289000,3.0043237,Car
Fix,FLP,37.4416636,-122.1655606,-13.838414030494183,10.436033,4.169,202.63564,1677391173665,0.020038769,10.0,825971957289000,3.0132196,Car
Fix,GPS,37.4415660982,-122.1656014491,-9.780487789245424,10.860883,3.9115999,199.51048,1677391172000,0.023422608,10.0,825972957194000,3.0,Car
Fix,FLP,37.4415711,-122.1656029,-13.774738393575854,10.812853,4.03,200.72755,1677391174664,0.023422608,10.0,825972957194000,4.479188,Car
Fix,GPS,37.4414703845,-122.1656392223,-9.901948259061845,11.127016,3.9556763,195.8409,1677391173000,0.024919298,10.0,825973957373000,3.0,Car
Fix,FLP,37.4414748,-122.1656411,-13.583407553036787,11.183273,3.947,198.1002,1677391175664,0.024919298,10.0,825973957373000,5.754268,Car
Fix,GPS,37.4413705534,-122.1656653126,-10.08671316762872,11.4684105,3.9554915,191.71857,1677391174000,0.046594616,10.0,825974957331000,3.0,Car
Fix,FLP,37.4413746,-122.1656707,-13.60480251353568,11.570185,3.947,194.96407,1677391176664,0.046594616,10.0,825974957331000,2.9074552,Car
Fix,GPS,37.4412681988,-122.16569274,-10.15231682291041,11.864093,4.0564365,191.5634,1677391175000,0.046616893,10.0,825975957350000,3.0,Car
Fix,FLP,37.4412711,-122.1656973,-13.542655097520427,11.889295,3.967,193.13838,1677391177665,0.046616893,10.0,825975957350000,2.874743,Car
Fix,GPS,37.4411613847,-122.1657257483,-10.273436820042612,12.313518,3.9551232,193.62892,1677391176000,0.04103749,10.0,825976957311000,3.0,Car
Fix,FLP,37.4411641,-122.1657269,-13.490682068321444,12.218468,3.966,192.82294,1677391178665,0.04103749,10.0,825976957311000,2.9483633,Car
Fix,GPS,37.4410532253,-122.1657589438,-10.308078237027814,12.664987,3.868518,194.50722,1677391177000,0.2712568,10.0,825977957316000,3.0,Car
Fix,FLP,37.4410549,-122.1657589,-13.582689767790336,12.512737,3.958,193.04257,1677391179665,0.2712568,10.0,825977957316000,2.4970481,Car
Fix,GPS,37.4409402659,-122.1657958752,-10.462694496865392,13.014533,3.8711765,195.22275,1677391178000,0.08251112,10.0,825978957401000,3.0,Car
Fix,FLP,37.4409426,-122.1657943,-13.310348062343555,12.835355,3.947,193.56581,1677391180665,0.08251112,10.0,825978957401000,3.1784017,Car
Fix,GPS,37.4408263855,-122.1658317605,-10.46327008205922,13.428281,3.8806162,194.72925,1677391179000,0.047181573,10.0,825979957267000,3.0,Car
Fix,FLP,37.4408279,-122.1658306,-13.235462471780709,13.267332,3.936,193.49617,1677391181665,0.047181573,10.0,825979957267000,3.284226,Car
Fix,GPS,37.4407073987,-122.1658689097,-10.636203489392006,13.756583,3.9340045,194.81541,1677391180000,0.03985224,10.0,825980957250000,3.0,Car
Fix,FLP,37.4407094,-122.1658677,-13.366693527331472,13.615716,3.932,193.50116,1677391182665,0.03985224,10.0,825980957250000,3.0859673,Car
Fix,GPS,37.4405830414,-122.165908569,-10.738391197118554,14.060442,4.0964527,194.87201,1677391181000,0.03967259,10.0,825981957317000,3.0,Car
Fix,FLP,37.4405865,-122.1659066,-13.075803076636838,13.932204,3.936,193.56532,1677391183665,0.03967259,10.0,825981957317000,3.0579982,Car
Fix,NLP,37.4410554,-122.168751,,,800.0,,1677391182477,,,825980770000000,,Car
Fix,GPS,37.4404581424,-122.1659486467,-10.605268784825109,14.310795,4.096358,194.54749,1677391182000,0.05467514,10.0,825982957279000,3.0,Car
Fix,FLP,37.4403936,-122.1659638,-11.200000762939451,14.146513,3.981,192.71112,1677391184664,0.05467514,10.0,825982957279000,5.469898,Car
Fix,GPS,37.4403333678,-122.165988151,-10.565177659065478,14.427987,3.9335783,194.24203,1677391183000,0.30126083,10.0,825983957424000,3.0545418,Car
Fix,FLP,37.4403001,-122.1659937,-11.200000762939451,14.260006,4.006,192.76044,1677391185664,0.30126083,10.0,825983957424000,5.4803085,Car
Fix,GPS,37.440205676,-122.1660282253,-10.594477232813906,14.433825,3.8941977,194.58487,1677391184000,0.0446352,10.0,825984957307000,3.0310473,Car
Fix,FLP,37.4401892,-122.1660293,-11.200000762939451,14.334805,4.009,193.04225,1677391186665,0.0446352,10.0,825984957307000,2.7593708,Car
Fix,GPS,37.4400799473,-122.1660706524,-10.495228143336556,14.541945,3.8668563,195.08452,1677391185000,0.04640886,10.0,825985957340000,3.0070279,Car
Fix,FLP,37.440071,-122.1660693,-12.972384269742044,14.422467,3.985,193.66121,1677391187665,0.04640886,10.0,825985957340000,2.5132475,Car
Fix,GPS,37.4399494919,-122.1661142033,-10.594601808276236,14.739046,3.8666492,194.99118,1677391186000,0.037149396,10.0,825986957341000,3.0,Car
Fix,FLP,37.4399467,-122.1661115,-13.149163433663915,14.64529,3.946,193.78091,1677391188664,0.037149396,10.0,825986957341000,2.558071,Car
Fix,GPS,37.4398174873,-122.1661568619,-10.699543354903296,14.92498,4.2372565,194.76584,1677391187000,0.039855026,10.0,825987957353000,3.0,Car
Fix,FLP,37.4398179,-122.1661543,-11.300000190734863,14.845159,3.974,193.86884,1677391189665,0.039855026,10.0,825987957353000,3.0380378,Car
Fix,GPS,37.4396869069,-122.1661998765,-10.852346740734273,15.0468235,4.16828,194.87997,1677391188000,0.03813101,10.0,825988957388000,3.0,Car
Fix,FLP,37.4396873,-122.1661983,-13.18635281592565,15.040677,4.006,193.96126,1677391190664,0.03813101,10.0,825988957388000,2.6936162,Car
Fix,GPS,37.4395541514,-122.1662434261,-10.85268402200616,15.207536,4.0623064,195.1765,1677391189000,0.037162438,10.0,825989957401000,3.0,Car
Fix,FLP,37.4395548,-122.1662424,-11.200000762939451,15.191692,4.053,194.80463,1677391191665,0.037162438,10.0,825989957401000,2.7040462,Car
Fix,GPS,37.4394222169,-122.1662865553,-10.567186641626211,15.198896,3.9119701,194.76494,1677391190000,0.024828678,10.0,825990957399000,3.0,Car
Fix,FLP,37.4394223,-122.1662864,-11.200000762939451,15.208259,4.055,194.15822,1677391192665,0.024828678,10.0,825990957399000,2.6564512,Car
Fix,GPS,37.4392924163,-122.166329742,-10.562782748984889,14.948234,3.8656168,194.98328,1677391191000,0.03837024,10.0,825991957480000,3.0,Car
Fix,FLP,37.4392915,-122.1663293,-11.200000762939451,14.958248,4.055,194.08372,1677391193665,0.03837024,10.0,825991957480000,3.6744661,Car
Fix,GPS,37.4391651695,-122.1663719652,-10.59498614117678,14.65321,3.8654108,195.1292,1677391192000,0.036004085,10.0,825992957530000,3.0,Car
Fix,FLP,37.4391639,-122.1663717,-11.200000762939451,14.653225,3.988,194.89261,1677391194665,0.036004085,10.0,825992957530000,5.7698727,Car
Fix,GPS,37.4390440786,-122.1664140133,-10.74408990225644,14.018137,3.911193,195.16302,1677391193000,0.035948746,10.0,825993957486000,3.0,Car
Fix,FLP,37.4390417,-122.166414,-11.200000762939451,14.035416,3.937,195.08408,1677391195665,0.035948746,10.0,825993957486000,5.77612,Car
Fix,GPS,37.4389257921,-122.1664548927,-10.680124811618802,13.24475,3.8649993,194.83043,1677391194000,0.38321146,10.0,825994957486000,3.0,Car
Fix,FLP,37.4389239,-122.1664548,-11.200000762939451,13.277043,3.904,194.29822,1677391196665,0.38321146,10.0,825994957486000,3.4637988,Car
Fix,GPS,37.4388178347,-122.1664906256,-10.719372002382642,11.564057,4.4290805,196.6503,1677391195000,0.32112852,10.0,825995957484000,3.165621,Car
Fix,FLP,37.4388148,-122.166491,-11.200000762939451,11.598138,4.008,196.00505,1677391197664,0.32112852,10.0,825995957484000,3.4741986,Car
Fix,GPS,37.4387217933,-122.1665222997,-10.785295227358766,10.8823395,4.180419,194.7805,1677391196000,0.06835896,10.0,825996957489000,3.1122816,Car
Fix,FLP,37.4387195,-122.1665235,-13.080610392329753,10.904115,4.064,194.32825,1677391198665,0.06835896,10.0,825996957489000,3.4774501,Car
Fix,GPS,37.438629658,-122.1665527818,-10.638730113234184,9.51472,4.713051,194.64285,1677391197000,0.29271388,10.0,825997957512000,3.2646153,Car
Fix,FLP,37.4386281,-122.166553,-13.530416162600186,9.538809,4.172,194.20293,1677391199665,0.29271388,10.0,825997957512000,2.9605553,Car
Fix,GPS,37.438564753,-122.1665756863,-10.77392800574648,8.395607,4.4056425,195.19008,1677391198000,0.029517911,10.0,825998957515000,3.2252371,Car
Fix,FLP,37.4385585,-122.1665768,-13.767288618400253,8.406028,4.325,195.0631,1677391200665,0.029517911,10.0,825998957515000,2.9709554,Car
Fix,GPS,37.4385067385,-122.1666001473,-10.872027762919664,7.235382,4.169377,195.77231,1677391199000,0.042311747,10.0,825999957528000,3.1864045,Car
Fix,FLP,37.4384999,-122.1666005,-13.947612876858932,7.245863,4.379,195.13257,1677391201664,0.042311747,10.0,825999957528000,2.8487577,Car
Fix,GPS,37.4384489517,-122.1666237158,-10.828440917725864,6.5930777,4.6225,196.8222,1677391200000,0.28222263,10.0,826000957683000,3.346735,Car
Fix,FLP,37.4384451,-122.1666231,-14.111633296667025,6.5994325,4.418,196.02249,1677391202665,0.28222263,10.0,826000957683000,2.8113644,Car
Fix,GPS,37.4383950479,-122.1666454222,-11.050039757091378,5.957824,4.3212996,199.30484,1677391201000,0.06899638,10.0,826001957569000,3.2997549,Car
Fix,FLP,37.4383928,-122.1666449,-14.38142037629214,5.960031,4.446,198.944,1677391203665,0.06899638,10.0,826001957569000,2.6346586,Car
Fix,GPS,37.4383508964,-122.1666590621,-10.996424804596025,5.1046515,4.034935,192.70287,1677391202000,0.035618,10.0,826002957592000,3.242692,Car
Fix,FLP,37.4383481,-122.1666614,-14.336273827079705,5.111806,4.31,192.31462,1677391204664,0.035618,10.0,826002957592000,3.0606961,Car
Fix,GPS,37.4383100461,-122.1666655498,-10.859653707779596,4.2374673,3.7990732,191.05743,1677391203000,0.031105507,10.0,826003957600000,3.1918128,Car
Fix,FLP,37.4383078,-122.1666681,-14.423365198068776,4.239505,4.209,191.08232,1677391205664,0.031105507,10.0,826003957600000,3.0799563,Car
Fix,FLP,37.438303,-122.1666678,-14.423365198068776,4.2374516,4.55,190.99895,1677391205896,0.031105507,10.0,826004189000000,3.0799563,Car
Fix,NLP,37.4410554,-122.168751,,,800.0,,1677391205896,,,826004189000000,,Car
Fix,GPS,37.438272186,-122.1666737147,-10.877807325857107,3.824864,3.5833745,192.14291,1677391204000,0.024607321,10.0,826004957664000,3.0,Car
Fix,FLP,37.438273,-122.1666742,-14.569885344038209,3.8254325,4.512,192.00275,1677391206664,0.024607321,10.0,826004957664000,5.1448135,Car
Fix,GPS,37.4382396661,-122.1666823736,-10.83865582868775,3.720515,3.5833316,192.65666,1677391205000,0.031271853,10.0,826005957640000,3.0,Car
Fix,FLP,37.4382396,-122.1666826,-14.289403387588116,3.7206893,4.435,192.00565,1677391207665,0.031271853,10.0,826005957640000,3.5966444,Car
Fix,GPS,37.4382105357,-122.1666900606,-10.897312645217236,3.101754,3.5832887,194.06717,1677391206000,0.028570957,10.0,826006957663000,3.0,Car
Fix,FLP,37.438221,-122.1666874,-14.434904104959466,3.3999867,4.292,192.91347,1677391208665,0.028570957,10.0,826006957663000,3.29144,Car
Fix,GPS,37.4381902481,-122.1666961627,-10.673758809972096,2.247078,3.9618673,193.06216,1677391207000,0.021713447,10.0,826007957656000,3.0,Car
Fix,FLP,37.4381905,-122.1666961,-14.398738954050197,2.247908,4.283,193.04118,1677391209664,0.021713447,10.0,826007957656000,3.362591,Car
Fix,GPS,37.4381718726,-122.1667019142,-10.697785484970016,2.0447989,3.9618685,195.45439,1677391208000,0.031513017,10.0,826008957680000,3.0,Car
Fix,FLP,37.4381716,-122.1667019,-14.459863062534476,2.044861,4.291,194.99593,1677391210665,0.031513017,10.0,826008957680000,3.372191,Car
Fix,FLP,37.4381685,-122.166703,-14.459863062534476,2.0447912,4.321,194.9929,1677391210911,0.031513017,10.0,826009203000000,3.372191,Car
Fix,NLP,37.4410554,-122.168751,,,800.0,,1677391210911,,,826009203000000,,Car
Fix,GPS,37.4381545701,-122.166707309,-10.56914144749487,1.9521521,3.9618704,194.90802,1677391209000,0.029657567,10.0,826009957706000,3.0,Car
Fix,FLP,37.4381549,-122.1667073,-14.27972545593734,1.9543762,4.391,194.16748,1677391211664,0.029657567,10.0,826009957706000,3.273488,Car
Fix,GPS,37.4381394448,-122.1667111413,-10.545945451830937,1.646055,3.961872,196.14432,1677391210000,0.02504831,10.0,826010957701000,3.0,Car
Fix,FLP,37.4381386,-122.166712,-14.277187965026648,1.6491266,4.399,196.03748,1677391212664,0.02504831,10.0,826010957701000,3.2028172,Car
Fix,GPS,37.4381300068,-122.1667137645,-10.534080992070011,1.1342167,3.961874,195.81004,1677391211000,0.02118894,10.0,826011957720000,3.0,Car
Fix,FLP,37.4381269,-122.1667155,-14.322011760258317,1.1377212,4.408,195.29456,1677391213665,0.02118894,10.0,826011957720000,3.2132173,Car
Fix,GPS,37.4381259216,-122.1667157354,-10.558877515325513,0.4596782,3.9618764,195.81004,1677391212000,0.02043493,26.699501,826012957745000,3.0,Car
Fix,FLP,37.438121,-122.1667174,-14.339329981125552,0.4647828,4.493,195.96861,1677391214664,0.02043493,26.699501,826012957745000,3.1574116,Car
Fix,GPS,37.4381236401,-122.1667159199,-10.565460959499838,0.0,3.9618788,195.81004,1677391213000,0.2809563,180.0,826013957754000,3.0,Car
Fix,FLP,37.43812,-122.1667175,-14.323030480114904,0.037860055,4.493,,1677391215664,0.2809563,,826013957754000,3.040308,Car
Fix,FLP,37.4381206,-122.1667172,-14.323030480114904,0.0376146,4.51,,1677391215918,0.2809563,,826014211000000,3.040308,Car
Fix,NLP,37.4410554,-122.168751,,,800.0,,1677391215919,,,826014211000000,,Car
Fix,GPS,37.4381236401,-122.1667159199,-10.62733479601389,0.0,3.8265452,195.81004,1677391214000,0.019882448,180.0,826014957765000,3.0,Car
Fix,FLP,37.4381218,-122.1667166,-14.25019170094409,1.4460944e-05,4.5,,1677391216665,0.019882448,,826014957765000,3.049898,Car
Fix,GPS,37.4381236401,-122.1667159199,-10.762268725486257,0.0,3.9618838,195.81004,1677391215000,0.022302058,180.0,826015957786000,3.0,Car
Fix,FLP,37.4381226,-122.1667163,-14.253238428446322,5.9022196e-09,4.5,,1677391217665,0.022302058,,826015957786000,5.3969035,Car
Fix,GPS,37.4381205111,-122.1667107339,-10.804341399644192,0.29875335,3.9618864,195.81004,1677391216000,0.0200974,12.491518,826016957805000,3.0,Car
Fix,FLP,37.4381217,-122.1667138,-14.236429310261984,0.29842106,4.5,194.94017,1677391218665,0.0200974,12.491518,826016957805000,5.381807,Car
Fix,GPS,37.4381114759,-122.166715634,-10.840131720875638,1.2326826,3.9618888,196.28609,1677391217000,0.021639226,10.0,826017957804000,3.0,Car
Fix,FLP,37.4381157,-122.1667151,-14.15290256235846,1.2247694,4.5,195.45422,1677391219665,0.021639226,10.0,826017957804000,3.294513,Car
Fix,GPS,37.4380864026,-122.1667267977,-10.80476586172532,3.1018643,3.961891,197.32648,1677391218000,0.022299437,10.0,826018957812000,3.0,Car
Fix,FLP,37.4380966,-122.1667225,-13.97156484436464,3.0099552,4.5,194.74055,1677391220664,0.022299437,10.0,826018957812000,3.304103,Car
Fix,NLP,37.4410554,-122.168751,,,800.0,,1677391220938,,,826019231000000,,Car
Fix,FLP,37.4380889,-122.1667253,-13.97156484436464,3.0101128,4.543,194.74628,1677391220939,0.022299437,10.0,826019231000000,3.304103,Car
Fix,GPS,37.4380459348,-122.166745911,-10.713866223285612,4.8906107,4.0556808,198.25092,1677391219000,0.023231482,10.0,826019957836000,3.0,Car
Fix,FLP,37.438058,-122.1667387,-13.819258530613173,4.6780972,4.569,195.14948,1677391221665,0.023231482,10.0,826019957836000,3.3109095,Car
Fix,GPS,37.4380035754,-122.1667650988,-10.70726869882048,6.542092,3.8259907,198.27777,1677391220000,0.27921194,10.0,826020957840000,3.0,Car
Fix,FLP,37.4380107,-122.1667592,-13.740302672566898,6.128172,4.559,195.45958,1677391222664,0.27921194,10.0,826020957840000,3.8364708,Car
Fix,GPS,37.4379365011,-122.1667931557,-10.666361726198636,7.7458625,3.9958284,197.2587,1677391221000,0.023222698,10.0,826021957871000,3.0,Car
Fix,FLP,37.437947,-122.1667859,-13.617028180936234,7.4550624,4.564,195.10373,1677391223665,0.023222698,10.0,826021957871000,3.846881,Car
Fix,GPS,37.4378572124,-122.166822609,-10.652166065600063,8.976389,3.825801,196.27078,1677391222000,0.022209652,10.0,826022957887000,3.0,Car
Fix,FLP,37.4378699,-122.1668157,-13.47235665000444,8.672489,4.554,194.62198,1677391224665,0.022209652,10.0,826022957887000,3.8564808,Car
Fix,GPS,37.4377717598,-122.1668539437,-10.66701838486621,9.939485,3.5825691,195.78033,1677391223000,0.03808682,10.0,826023957895000,3.0,Car
Fix,FLP,37.4377833,-122.1668476,-13.227326331719182,9.68572,4.544,194.1708,1677391225664,0.03808682,10.0,826023957895000,3.866881,Car
Fix,NLP,37.4410554,-122.168751,,,800.0,,1677391226031,,,826024323000000,,Car
Fix,FLP,37.4377556,-122.1668568,-13.227326331719182,9.680157,4.733,194.1428,1677391226031,0.03808682,10.0,826024323000000,3.866881,Car
Fix,GPS,37.4376780832,-122.166885938,-10.603109948026322,10.879504,3.798231,195.53691,1677391224000,0.0364935,10.0,826024957935000,3.0,Car
Fix,FLP,37.4376901,-122.1668802,-13.360070913888148,10.606022,4.707,194.00269,1677391226664,0.0364935,10.0,826024957935000,3.708792,Car
Fix,GPS,37.4375738753,-122.1669199246,-10.274996675082852,11.799033,3.9314208,194.70657,1677391225000,0.046990436,10.0,826025957944000,3.0,Car
Fix,FLP,37.4375858,-122.166915,-13.242391302101986,11.541052,4.712,193.54924,1677391227664,0.046990436,10.0,826025957944000,3.5425909,Car
Fix,GPS,37.437468567,-122.1669556697,-10.300795593953056,12.264147,3.6296365,195.07002,1677391226000,0.055458654,10.0,826026957979000,3.0,Car
Fix,FLP,37.437477,-122.1669515,-13.10433218002012,12.054938,4.696,193.90466,1677391228665,0.055458654,10.0,826026957979000,3.0767334,Car
Fix,GPS,37.4373574955,-122.1669923618,-10.153443081862482,12.711225,3.6295962,194.69713,1677391227000,0.035449944,10.0,826027957950000,3.0,Car
Fix,FLP,37.4373646,-122.1669887,-11.300000190734863,12.560434,4.696,193.7774,1677391229665,0.035449944,10.0,826027957950000,3.0871332,Car
Fix,GPS,37.4372439218,-122.1670299021,-10.039768563801289,13.065341,3.7736664,194.60124,1677391228000,0.033531304,10.0,826028957965000,3.0,Car
Fix,FLP,37.4372494,-122.1670267,-11.200000762939451,12.941895,4.696,193.766,1677391230665,0.033531304,10.0,826028957965000,2.9695694,Car
Fix,GPS,37.437127564,-122.1670693409,-9.957980290921109,13.34987,3.797916,194.58586,1677391229000,0.03172154,10.0,826029957983000,3.0,Car
Fix,FLP,37.4371319,-122.1670658,-11.200000762939451,13.249112,3.906,193.82423,1677391231664,0.03172154,10.0,826029957983000,4.717094,Car
Fix,GPS,37.4370092146,-122.1671088107,-9.890373602800222,13.481489,5.1578374,194.89133,1677391230000,0.033430442,10.0,826030957995000,3.0,Car
Fix,FLP,37.4370128,-122.1671054,-11.200000762939451,13.426759,4.151,193.9319,1677391232664,0.033430442,10.0,826030957995000,4.9279127,Car
Fix,GPS,37.4368913664,-122.1671488456,-9.82462352853156,13.4842825,3.8249385,195.21973,1677391231000,0.044098094,10.0,826031958129000,3.0,Car
Fix,FLP,37.4368936,-122.167146,-11.200000762939451,13.451008,4.151,194.40105,1677391233666,0.044098094,10.0,826031958129000,4.7940607,Car
Fix,GPS,37.4367734509,-122.1671889485,-9.68773023223527,13.474082,3.8248425,195.05603,1677391232000,0.03318666,10.0,826032958023000,3.0,Car
Fix,FLP,37.4367751,-122.1671868,-11.200000762939451,13.460123,4.151,194.69685,1677391234666,0.03318666,10.0,826032958023000,2.892436,Car
Fix,GPS,37.436657084,-122.1672274975,-9.60555957393957,13.386335,3.8247466,194.92776,1677391233000,0.043698337,10.0,826033958047000,3.0,Car
Fix,FLP,37.4366576,-122.1672262,-11.200000762939451,13.427647,4.151,194.56299,1677391235666,0.043698337,10.0,826033958047000,2.938119,Car
Fix,GPS,37.4365405293,-122.1672652287,-9.420171137008866,13.330732,4.180152,194.50569,1677391234000,0.0345067,10.0,826034958060000,3.0,Car
Fix,FLP,37.4365406,-122.1672646,-11.200000762939451,13.372252,4.207,194.44966,1677391236665,0.0345067,10.0,826034958060000,2.9403713,Car
Fix,GPS,37.4364243324,-122.1673034192,-9.136396626180504,13.363613,3.8245547,194.5866,1677391235000,0.043632437,10.0,826035958063000,3.0,Car
Fix,FLP,37.4364242,-122.1673028,-11.200000762939451,13.379041,3.956,194.33531,1677391237665,0.043632437,10.0,826035958063000,2.9076192,Car
Fix,GPS,37.4363083975,-122.167341142,-8.92920184473505,13.252336,3.6292357,194.8092,1677391236000,0.041744895,10.0,826036958107000,3.0,Car
Fix,FLP,37.436308,-122.1673406,-11.200000762939451,13.295146,3.946,194.31033,1677391238666,0.041744895,10.0,826036958107000,3.2970273,Car
Fix,GPS,37.4361951595,-122.1673801245,-8.855766297313211,13.148865,3.5819662,195.24582,1677391237000,0.040218823,10.0,826037958147000,3.0,Car
Fix,FLP,37.4361937,-122.1673792,-11.200000762939451,13.174948,3.956,194.6577,1677391239665,0.040218823,10.0,826037958147000,3.413861,Car
Fix,GPS,37.4360804872,-122.1674179437,-8.676126016960525,13.100791,3.7973473,194.72012,1677391238000,0.040624138,10.0,826038958214000,3.0,Car
Fix,FLP,37.4360797,-122.1674172,-11.200000762939451,13.1377325,3.956,194.50652,1677391240666,0.040624138,10.0,826038958214000,3.8924181,Car
Fix,GPS,37.435966006,-122.1674547007,-8.691855210675252,12.933921,3.65989,194.98695,1677391239000,0.30939215,10.0,826039958232000,3.0,Car
Fix,FLP,37.4359658,-122.1674543,-11.200000762939451,13.006848,3.9,194.4416,1677391241666,0.30939215,10.0,826039958232000,4.1621995,Car
Fix,GPS,37.4358531196,-122.1674912353,-8.574390485135012,12.851013,3.6290777,194.7243,1677391240000,0.03226173,10.0,826040958143000,3.0,Car
Fix,FLP,37.4358529,-122.1674909,-11.200000762939451,12.900629,3.9,194.38025,1677391242665,0.03226173,10.0,826040958143000,4.1717997,Car
Fix,GPS,37.4357402879,-122.1675241234,-8.460203920636104,12.849514,3.5817957,193.421,1677391241000,0.043289296,10.0,826041958295000,3.0,Car
Fix,FLP,37.4357403,-122.1675251,-11.200000762939451,12.892009,3.9,193.88222,1677391243666,0.043289296,10.0,826041958295000,4.235861,Car
Fix,GPS,37.4356240804,-122.1675550161,-8.330594892492666,13.15737,3.581753,191.82936,1677391242000,0.031249095,10.0,826042958194000,3.0,Car
Fix,FLP,37.4356257,-122.1675566,-11.200000762939451,13.174053,3.9,192.7079,1677391244666,0.031249095,10.0,826042958194000,4.174301,Car
Fix,GPS,37.4355068853,-122.1675853998,-8.303067002849893,13.076721,4.260407,191.5334,1677391243000,0.03271077,10.0,826043958187000,3.0,Car
Fix,FLP,37.4355086,-122.1675867,-11.200000762939451,13.132478,3.96,192.12587,1677391245666,0.03271077,10.0,826043958187000,4.184711,Car
Fix,GPS,37.4353933482,-122.1676159123,-8.29145990868155,12.953556,3.8236954,192.16544,1677391244000,0.03245087,10.0,826044958204000,3.0,Car
Fix,FLP,37.4353933,-122.1676168,-11.200000762939451,12.992035,3.96,192.11949,1677391246665,0.03245087,10.0,826044958204000,4.194311,Car
Fix,GPS,37.435279563,-122.1676504982,-8.215882118791072,13.077901,3.9308615,193.51886,1677391245000,0.030022759,10.0,826045958219000,3.0,Car
Fix,FLP,37.4352792,-122.1676495,-11.200000762939451,13.0395,3.978,192.42796,1677391247666,0.030022759,10.0,826045958219000,6.3853674,Car
Fix,GPS,37.4351667722,-122.1676872052,-8.305746818545447,12.989959,3.8672295,194.27568,1677391246000,0.030165946,10.0,826046958236000,3.0,Car
Fix,FLP,37.4351657,-122.1676849,-11.200000762939451,12.971055,3.965,193.09752,1677391248666,0.030165946,10.0,826046958236000,5.9072895,Car
Fix,GPS,37.4350609406,-122.1677221381,-8.31916379832098,12.065567,3.581541,194.80923,1677391247000,0.03171326,10.0,826047958243000,3.0,Car
Fix,FLP,37.435057,-122.1677202,-11.200000762939451,12.254244,3.978,193.94644,1677391249666,0.03171326,10.0,826047958243000,6.0875597,Car
Fix,GPS,37.4349707008,-122.1677521421,-8.408852069969184,10.471652,3.5814996,194.94243,1677391248000,0.03612568,10.0,826048958259000,3.0,Car
Fix,FLP,37.4349611,-122.167752,-11.200000762939451,10.806367,3.906,194.92699,1677391250666,0.03612568,10.0,826048958259000,3.3846486,Car
Fix,GPS,37.4348960722,-122.1677788691,-8.52430320400049,8.733505,3.581458,195.6801,1677391249000,0.036113292,10.0,826049958268000,3.0,Car
Fix,FLP,37.434882,-122.1677799,-11.200000762939451,9.073035,3.906,196.15424,1677391251666,0.036113292,10.0,826049958268000,3.2749412,Car
Fix,GPS,37.4348339324,-122.1678005529,-8.616630672004618,7.1178427,4.244872,195.30708,1677391250000,0.029760184,10.0,826050958289000,3.0,Car
Fix,FLP,37.4348187,-122.1678028,-11.200000762939451,7.3744593,3.969,196.82182,1677391252665,0.029760184,10.0,826050958289000,3.2845511,Car
Fix,GPS,37.4347831202,-122.1678187516,-8.670845298039886,5.878844,3.5813758,195.38419,1677391251000,0.026164059,10.0,826051958297000,3.0,Car
Fix,FLP,37.4347685,-122.1678215,-11.200000762939451,6.0385942,3.969,196.82639,1677391253666,0.026164059,10.0,826051958297000,3.2728486,Car
Fix,GPS,37.4347434161,-122.1678324981,-8.724155392603981,4.5275617,3.5813346,195.2123,1677391252000,0.024489088,10.0,826052958336000,3.0,Car
Fix,FLP,37.4347292,-122.1678357,-11.200000762939451,4.6357317,3.969,196.75006,1677391254666,0.024489088,10.0,826052958336000,2.3864136,Car
Fix,GPS,37.4347153188,-122.167841112,-8.75731790554136,3.0932152,3.5812945,194.69522,1677391253000,0.025532613,10.0,826053958349000,3.0,Car
Fix,FLP,37.4347013,-122.167845,-11.200000762939451,3.1492715,3.969,195.74594,1677391255665,0.025532613,10.0,826053958349000,2.2566314,Car
Fix,NLP,37.434448,-122.1648482,,,699.999,,1677391255904,,,826054197000000,,Car
Fix,FLP,37.4346992,-122.1678459,-11.200000762939451,3.1483364,4.474,195.7112,1677391255904,0.025532613,10.0,826054197000000,2.2566314,Car
Fix,GPS,37.4346945591,-122.1678479553,-8.81933233752683,2.37132,3.8227642,194.51859,1677391254000,0.02599083,1.0,826054958360000,3.0,Car
Fix,FLP,37.4346859,-122.1678503,-11.200000762939451,2.372058,4.474,194.00655,1677391256666,0.02599083,1.0,826054958360000,2.2562666,Car
Fix,GPS,37.4346750919,-122.1678541946,-8.844310933907737,2.1764054,3.8226736,194.46646,1677391255000,0.023171786,1.0,826055958363000,3.0,Car
Fix,FLP,37.4346695,-122.1678557,-11.200000762939451,2.1765625,4.417,194.00122,1677391257665,0.023171786,1.0,826055958363000,2.2576015,Car
Fix,GPS,37.4346563115,-122.1678604191,-8.886215029963326,2.1629283,3.8225832,195.20331,1677391256000,0.025690036,1.0,826056958421000,3.0,Car
Fix,FLP,37.4346531,-122.1678611,-11.200000762939451,2.162933,4.417,194.9984,1677391258666,0.025690036,1.0,826056958421000,2.1919346,Car
Fix,GPS,37.4346319371,-122.1678674373,-9.031974160360116,2.7626395,3.8224924,193.41748,1677391257000,0.020688584,1.0,826057958388000,3.0,Car
Fix,FLP,37.4346332,-122.1678674,-11.200000762939451,2.7622128,4.417,192.99837,1677391259665,0.020688584,1.0,826057958388000,2.1948593,Car
Fix,GPS,37.4345916758,-122.1678706004,-8.914366090610164,4.4546375,3.5810926,183.89342,1677391258000,0.025467694,1.0,826058958413000,3.0,Car
Fix,FLP,37.4346012,-122.1678727,-11.200000762939451,4.4533243,4.417,183.03856,1677391260666,0.025467694,1.0,826058958413000,2.1965876,Car
Fix,GPS,37.4345444313,-122.1678586985,-9.062145600181235,5.281964,3.581052,168.77168,1677391259000,0.023347462,1.0,826059958436000,3.0,Car
Fix,FLP,37.4345526,-122.167865,-11.200000762939451,5.2817426,3.9,168.00874,1677391261666,0.023347462,1.0,826059958436000,2.2141957,Car
Fix,GPS,37.4344962342,-122.1678458484,-9.058306726376385,5.569631,3.5810115,160.35327,1677391260000,0.38956472,3.8947134,826060958433000,3.0,Car
Fix,FLP,37.4345143,-122.1678515,-11.200000762939451,5.545107,3.9,160.54971,1677391262666,0.38956472,3.8947134,826060958433000,2.457144,Car
Fix,NLP,37.434448,-122.1648482,,,699.999,,1677391260916,,,826059209000000,,Car
Fix,GPS,37.4344460654,-122.167818762,-8.997754664917474,5.5515323,4.104608,149.04483,1677391261000,0.43438905,4.36878,826061958455000,3.0,Car
Fix,FLP,37.4344335,-122.1678136,-11.200000762939451,5.5511575,3.925,149.03549,1677391263666,0.43438905,4.36878,826061958455000,2.9245327,Car
Fix,GPS,37.4343998205,-122.1677756475,-8.392880840354472,6.225139,4.478168,135.96146,1677391262000,0.43929332,3.9619713,826062958468000,3.0,Car
Fix,FLP,37.434397,-122.1677773,-11.200000762939451,6.217628,3.997,135.11041,1677391264666,0.43929332,3.9619713,826062958468000,2.934136,Car
Fix,GPS,37.4343603414,-122.1677131099,-8.357072067466854,6.9119263,4.7497005,122.48992,1677391263000,0.48138493,3.9513772,826063958496000,3.0985394,Car
Fix,FLP,37.4343594,-122.1677177,-11.200000762939451,6.902656,4.104,122.12624,1677391265666,0.48138493,3.9513772,826063958496000,4.920299,Car
Fix,GPS,37.4343295428,-122.1676315303,-8.17854109252164,7.9479985,5.1159015,116.30109,1677391264000,0.43452856,3.2576742,826064958505000,3.454326,Car
Fix,FLP,37.4343533,-122.1677036,-11.200000762939451,6.9003267,4.646,122.12263,1677391265935,0.48138493,3.9513772,826064227000000,4.920299,Car
Fix,NLP,37.434448,-122.1648482,,,699.999,,1677391265935,,,826064227000000,,Car
Fix,FLP,37.4343295,-122.1676385,-11.200000762939451,7.9400964,4.927,116.041855,1677391266666,0.43452856,3.2576742,826064958505000,4.9176497,Car
Fix,GPS,37.4342980412,-122.167546779,-7.93448738023845,8.4077425,5.2030745,122.26517,1677391265000,0.45068896,3.087416,826065958507000,3.703369,Car
Fix,FLP,37.434298,-122.1675505,-11.33915861734935,8.402863,5.315,121.94555,1677391267666,0.45068896,3.087416,826065958507000,4.8806334,Car
Fix,GPS,37.4342565408,-122.1674558021,-7.904284935280347,8.383966,5.2410126,125.48001,1677391266000,0.49328732,3.354697,826066958537000,3.8831184,Car
Fix,FLP,37.434257,-122.1674605,-11.329986850365485,8.384126,5.504,124.96488,1677391268665,0.49328732,3.354697,826066958537000,3.142228,Car
Fix,GPS,37.434209175,-122.1673692389,-8.006896868813017,9.078876,5.346577,132.4047,1677391267000,0.47828007,2.9380522,826067958535000,3.9907143,Car
Fix,FLP,37.4342107,-122.1673738,-11.351387624512975,9.071051,5.649,131.932,1677391269666,0.47828007,2.9380522,826067958535000,2.6066105,Car
Fix,GPS,37.4341479743,-122.1672879803,-8.64578693274726,9.533924,5.5030193,135.41405,1677391268000,0.4919929,2.8547451,826068958572000,4.0976367,Car
Fix,FLP,37.4341509,-122.1672913,-11.271923491822193,9.528768,5.775,134.9679,1677391270666,0.4919929,2.8547451,826068958572000,2.8521786,Car
Fix,GPS,37.4340838399,-122.1672100574,-9.326543451471666,9.870647,5.732803,137.18022,1677391269000,0.4879949,2.716244,826069958573000,4.1845737,Car
Fix,FLP,37.4340862,-122.1672119,-11.28517161964923,9.866948,5.405,136.97891,1677391271666,0.4879949,2.716244,826069958573000,3.0315661,Car
Fix,GPS,37.4340133073,-122.1671302264,-9.416946641926266,9.999543,5.7995915,138.8444,1677391270000,0.47628078,2.6157603,826070958595000,4.260231,Car
Fix,FLP,37.4340163,-122.1671322,-11.34988333025896,9.998218,5.524,137.98973,1677391272666,0.47628078,2.6157603,826070958595000,3.062688,Car
Fix,GPS,37.4339430574,-122.1670512359,-9.776157058844912,10.064734,5.7032003,138.37048,1677391271000,0.45068508,2.4704206,826071958632000,4.3085318,Car
Fix,FLP,37.4339454,-122.1670531,-11.433956860060308,10.064162,5.617,137.99994,1677391273666,0.45068508,2.4704206,826071958632000,3.0954742,Car
Fix,GPS,37.4338712353,-122.1669744476,-9.77341935511275,9.825985,5.5697327,138.32825,1677391272000,0.4441704,2.4877632,826072958611000,4.308044,Car
Fix,FLP,37.4338736,-122.1669752,-11.627577566596276,9.828151,5.661,138.00015,1677391274666,0.4441704,2.4877632,826072958611000,3.086007,Car
Fix,GPS,37.4337998127,-122.166898593,-9.556086931421902,9.3961935,5.663554,136.65874,1677391273000,0.46864462,2.7533386,826073958638000,4.303642,Car
Fix,FLP,37.4338028,-122.1668994,-11.764128450776523,9.400493,5.694,136.02107,1677391275666,0.46864462,2.7533386,826073958638000,3.0538785,Car
Fix,GPS,37.4337358242,-122.1668278804,-8.804440941603499,8.559603,5.5978193,137.24684,1677391274000,0.43439892,2.7993522,826074958663000,4.302549,Car
Fix,FLP,37.433738,-122.166827,-11.967931637708167,8.566821,5.667,136.9911,1677391276666,0.43439892,2.7993522,826074958663000,3.0672777,Car
Fix,GPS,37.4336779771,-122.1667636324,-8.144347597688714,7.9788995,5.444305,136.82208,1677391275000,0.42492023,2.9408128,826075958654000,4.2937055,Car
Fix,FLP,37.4336793,-122.1667626,-12.392317014434134,7.9837365,5.595,136.00893,1677391277665,0.42492023,2.9408128,826075958654000,2.8995569,Car
Fix,GPS,37.433628497,-122.1667082721,-7.6703042469235,7.2367253,5.317551,137.24165,1677391276000,0.4241264,3.2298732,826076958686000,4.2842693,Car
Fix,FLP,37.4336282,-122.1667054,-12.514591055594828,7.24281,5.518,136.99133,1677391278666,0.4241264,3.2298732,826076958686000,2.943396,Car
Fix,GPS,37.4335838776,-122.1666612576,-7.093529744574695,6.2644672,5.286975,138.02452,1677391277000,0.41565016,3.6459572,826077958779000,4.2903004,Car
Fix,FLP,37.4335828,-122.1666573,-12.752001434604535,6.272099,5.462,137.99135,1677391279666,0.41565016,3.6459572,826077958779000,2.9518793,Car
Fix,GPS,37.4335459384,-122.1666180902,-6.463522112966274,5.7044563,5.4445744,139.5147,1677391278000,0.46122673,4.3987865,826078958896000,4.293654,Car
Fix,FLP,37.4335441,-122.1666152,-13.079066615967562,5.7098317,5.418,138.98988,1677391280666,0.46122673,4.3987865,826078958896000,2.819743,Car
Fix,GPS,37.4335148297,-122.1665842583,-6.342591319216437,4.4770994,5.5664935,139.52306,1677391279000,0.4678662,5.6863713,826079958747000,4.315277,Car
Fix,FLP,37.4335114,-122.1665802,-13.1758591806717,4.4891405,5.412,139.00099,1677391281665,0.4678662,5.6863713,826079958747000,2.7584815,Car
Fix,GPS,37.4334932621,-122.1665621318,-6.0305247633485815,3.46538,5.786015,136.5575,1677391280000,0.46230885,7.362992,826080958748000,4.348165,Car
Fix,FLP,37.4334887,-122.1665564,-13.196236421492674,3.4751725,5.48,136.03784,1677391282665,0.46230885,7.362992,826080958748000,2.6285036,Car
Fix,GPS,37.4334800503,-122.1665468959,-5.889715748602442,2.472102,5.862461,131.90158,1677391281000,0.39530092,8.853677,826081958758000,4.3656464,Car
Fix,FLP,37.4334749,-122.1665402,-13.062764601282494,2.4790878,5.589,131.04948,1677391283666,0.39530092,8.853677,826081958758000,2.6320722,Car
Fix,GPS,37.4334770531,-122.1665411276,-6.506880804852655,2.5163167,5.8619976,131.68088,1677391282000,0.38242227,8.5131645,826082958758000,4.3520374,Car
Fix,FLP,37.4334708,-122.1665328,-12.926233994099452,2.5159957,5.634,131.00029,1677391284665,0.38242227,8.5131645,826082958758000,2.6170053,Car
Fix,GPS,37.4334674092,-122.1665303058,-7.293910301540924,3.2009146,5.9398136,138.49236,1677391283000,0.3992084,6.8916197,826083958924000,4.328771,Car
Fix,FLP,37.433463,-122.1665231,-12.813662360011431,3.1957214,5.803,137.95976,1677391285665,0.3992084,6.8916197,826083958924000,4.5743003,Car
