Fix,Provider,LatitudeDegrees,LongitudeDegrees,AltitudeMeters,SpeedMps,AccuracyMeters,BearingDegrees,UnixTimeMillis,SpeedAccuracyMps,BearingAccuracyDegrees,elapsedRealtimeNanos,VerticalAccuracyMeters,TransitType
Fix,GPS,39.197724516,-120.2299490673,1877.16624344644,0.0,26.481384,,1676247021478,0.48130447,,282217317406499,37.330254,Car
Fix,FLP,39.1977211,-120.2300276,1871.0999755859373,1.2414366,26.481,86.81401,1676247021688,0.48130447,,282217317406499,20.642342,Car
Fix,GPS,39.197693743,-120.229961386,1875.525615287512,0.0,5.739887,,1676247022365,0.35897818,,282218292737758,2.7976446,Car
Fix,FLP,39.1976947,-120.2299633,1871.0999755859373,2.0980432,16.11,103.41228,1676247022662,0.35897818,,282218292737758,20.652826,Car
Fix,GPS,39.1976817203,-120.2299510777,1875.149994644414,0.0,7.321698,,1676247023370,0.37640193,,282219342689093,9.373415,Car
Fix,FLP,39.197683,-120.2299491,1871.0999755859373,1.7412469,13.181,126.39873,1676247023713,0.37640193,,282219342689093,20.662863,Car
Fix,NLP,39.1975934,-120.2328433,1871.0999755859373,,122.4,,1676247024539,,,282220168000000,30.565102,Car
Fix,FLP,39.19768,-120.229947,1871.0999755859373,1.0666286,12.025,131.9183,1676247024539,0.37640193,,282220168000000,27.369034,Car
Fix,GPS,39.1976762461,-120.2299608749,1873.8568982473969,0.0,5.72135,,1676247024303,0.41273373,,282220321945848,8.637227,Car
Fix,FLP,39.1976771,-120.2299561,1871.0999755859373,0.8786508,10.764,167.77972,1676247024692,0.41273373,,282220321945848,27.325233,Car
Fix,GPS,39.1976704917,-120.2299744938,1866.639779421716,0.0,7.4867463,,1676247025303,0.26305735,,282221316774014,8.561903,Car
Fix,FLP,39.1976702,-120.2299694,1871.0999755859373,0.9890779,10.218,215.38635,1676247025687,0.26305735,,282221316774014,27.435503,Car
Fix,GPS,39.1976695324,-120.2299837014,1866.5062264151472,0.0,6.830531,,1676247026303,0.21787049,,282222305642016,7.983281,Car
Fix,FLP,39.1976683,-120.2299823,1871.0999755859373,0.99298364,9.734,239.89743,1676247026676,0.21787049,,282222305642016,27.623253,Car
Fix,FLP,39.1976677,-120.2299931,1871.0999755859373,1.1354969,6.824,252.64993,1676247027337,0.24448933,,282222966187182,27.566355,Car
Fix,GPS,39.1976694231,-120.2299987976,1864.279663042351,0.0,5.784172,,1676247028000,0.33169878,,282223983090788,6.968767,Car
Fix,FLP,39.1976687,-120.2299999,1871.0999755859373,0.80679023,6.83,263.30652,1676247028353,0.33169878,,282223983090788,27.558653,Car
Fix,GPS,39.1976668272,-120.2299997923,1864.009199637945,0.0,5.5690527,,1676247029000,0.25549254,,282225011497852,6.6261315,Car
Fix,FLP,39.1976669,-120.2300012,1871.0999755859373,0.43657538,6.58,250.46567,1676247029382,0.25549254,,282225011497852,27.569023,Car
Fix,GPS,39.1976652409,-120.2300018882,1863.5801924287769,0.0,5.3863854,,1676247030000,0.27617335,,282226000504000,6.263952,Car
Fix,FLP,39.1976653,-120.2300025,1871.0999755859373,0.2970643,6.194,235.1058,1676247030371,0.27617335,,282226000504000,27.578623,Car
Fix,GPS,39.1976636397,-120.2300041602,1863.2691195313432,0.0,5.186775,,1676247031000,20.0,,282227000524000,5.982362,Car
Fix,FLP,39.1976636,-120.2300043,1871.0999755859373,0.2650041,5.811,228.01666,1676247031371,20.0,,282227000524000,27.589022,Car
Fix,GPS,39.1976598399,-120.2300089583,1863.3291785640895,0.0,5.1782646,,1676247032000,0.27213395,,282228000554000,5.800423,Car
Fix,FLP,39.1976615,-120.2300069,1871.0999755859373,0.34492326,5.381,224.73436,1676247032370,0.27213395,,282228000554000,27.598621,Car
Fix,NLP,39.1992316,-120.230904,1883.300048828125,,156.9,,1676247032161,,,282227790000000,73.96,Car
Fix,GPS,39.1976594609,-120.2300094294,1863.1767975070195,0.0,5.0550013,,1676247033000,0.28439546,,282229000548000,5.561121,Car
Fix,FLP,39.1976593,-120.2300097,1870.982107126457,0.2757363,5.248,224.52095,1676247033371,0.28439546,,282229000548000,26.386288,Car
Fix,GPS,39.1976599715,-120.23001109,1863.2477256327752,0.0,5.013644,,1676247034000,0.26941967,,282230000564000,5.384566,Car
Fix,FLP,39.1976597,-120.2300112,1870.8202795944524,0.1668697,5.219,250.28983,1676247034370,0.26941967,,282230000564000,25.69856,Car
Fix,GPS,39.1976593726,-120.2300110924,1863.2462546024176,0.0,5.051341,,1676247035000,0.3146774,,282231000581000,5.291977,Car
Fix,FLP,39.1976594,-120.2300114,1863.241256651676,0.08557183,5.121,,1676247035370,0.3146774,,282231000581000,5.28374,Car
Fix,GPS,39.1976610337,-120.2300092031,1862.9071487478664,0.0,4.7846856,,1676247036000,0.2640222,,282232000609000,5.0371065,Car
Fix,FLP,39.1976607,-120.2300096,1863.2831361684653,0.088607535,5.064,,1676247036370,0.2640222,,282232000609000,5.193305,Car
Fix,NLP,39.1975997,-120.2328297,1871.0999755859373,,92.9,,1676247037184,,,282232813000000,16.594904,Car
Fix,FLP,39.1976611,-120.2300092,1871.0999755859373,0.0750444,5.181,,1676247037184,0.2640222,,282232813000000,16.803474,Car
Fix,GPS,39.1976608683,-120.2300064235,1862.8811438786784,0.0,4.6069202,,1676247037000,0.22430947,,282233000608000,4.832274,Car
Fix,FLP,39.197661,-120.2300074,1871.0999755859373,0.1653074,5.085,75.06116,1676247037371,0.22430947,,282233000608000,16.414404,Car
Fix,GPS,39.1976605323,-120.2300054495,1862.82669038754,0.0,4.510972,,1676247038000,0.22179566,,282234000629000,4.6742997,Car
Fix,FLP,39.1976606,-120.2300054,1871.0999755859373,0.16433495,4.995,91.87671,1676247038371,0.22179566,,282234000629000,16.237883,Car
Fix,GPS,39.1976608755,-120.2300053662,1862.8092653876615,0.0,4.495716,,1676247039000,0.23264681,,282235000645000,4.5791616,Car
Fix,FLP,39.1976609,-120.2300051,1871.0999755859373,0.0849287,4.908,,1676247039371,0.23264681,,282235000645000,16.090097,Car
Fix,GPS,39.1976613932,-120.2300058345,1862.8189753561564,0.0,4.5062895,,1676247040000,0.22137675,,282236000656000,4.5018487,Car
Fix,FLP,39.1976613,-120.2300056,1871.0999755859373,0.038933977,4.818,,1676247040371,0.22137675,,282236000656000,16.071037,Car
Fix,GPS,39.1976628077,-120.2300053735,1862.7836672121184,0.0,4.500914,,1676247041000,0.21653858,,282237000678000,4.437687,Car
Fix,FLP,39.1976627,-120.2300054,1871.0999755859373,0.100167505,4.77,8.610748,1676247041371,0.21653858,,282237000678000,16.203327,Car
Fix,NLP,39.1975991,-120.2328373,1871.0999755859373,,110.0,,1676247042254,,,282237883000000,23.401405,Car
Fix,FLP,39.1976629,-120.2300054,1871.0999755859373,0.06482792,4.74,,1676247042254,0.21653858,,282237883000000,19.058374,Car
Fix,GPS,39.1976633788,-120.2300011423,1862.715687164216,0.725466,4.5876493,94.47665,1676247042000,0.20317303,15.316631,282238000678000,4.4433465,Car
Fix,FLP,39.1976631,-120.2300019,1871.0999755859373,0.7247731,4.737,93.991936,1676247042371,0.20317303,15.316631,282238000678000,19.962698,Car
Fix,GPS,39.197658374,-120.2299858786,1862.047558045082,1.1887679,4.245923,97.67335,1676247043000,0.019724147,1.0,282239000709000,4.2428365,Car
Fix,FLP,39.1976598,-120.2299885,1871.0999755859373,1.1887592,4.693,96.999954,1676247043371,0.019724147,1.0,282239000709000,19.09803,Car
Fix,GPS,39.1976555103,-120.2299647706,1862.02263091424,1.8459564,4.2459173,104.20065,1676247044000,0.026728638,1.0,282240000733000,4.121796,Car
Fix,FLP,39.1976565,-120.229968,1871.0999755859373,1.845932,4.651,103.99972,1676247044371,0.026728638,1.0,282240000733000,20.334984,Car
Fix,GPS,39.1976514736,-120.2299429554,1861.8828308525617,2.2144082,4.2459116,102.867645,1676247045000,0.024946582,1.0,282241000725000,3.9946027,Car
Fix,FLP,39.1976518,-120.2299444,1871.0999755859373,2.2143962,4.608,102.00004,1676247045371,0.024946582,1.0,282241000725000,19.192305,Car
Fix,GPS,39.1976463259,-120.2299121399,1861.627459569604,2.495923,4.2459054,103.94594,1676247046000,0.019236492,1.0,282242000741000,3.8499982,Car
Fix,FLP,39.1976467,-120.2299144,1871.0999755859373,2.4959154,4.566,102.99983,1676247046371,0.019236492,1.0,282242000741000,19.025492,Car
Fix,NLP,39.1975969,-120.2328303,1871.0999755859373,,87.6,,1676247047223,,,282242852000000,14.9769,Car
Fix,FLP,39.1976448,-120.2299036,1871.0999755859373,2.4958909,4.702,102.999504,1676247047223,0.019236492,1.0,282242852000000,18.242884,Car
Fix,GPS,39.1976418434,-120.2298828858,1861.3274955650345,2.6737127,4.2459,100.99937,1676247047000,0.021745477,1.0,282243000757000,3.7548122,Car
Fix,FLP,39.197643,-120.2298912,1871.0999755859373,2.6737142,4.458,100.00028,1676247047371,0.021745477,1.0,282243000757000,18.264502,Car
Fix,GPS,39.1976406667,-120.2298502884,1861.127372287393,2.7598286,4.4956565,96.78504,1676247048000,0.026169978,1.0,282244000770000,3.6808877,Car
Fix,FLP,39.1976401,-120.2298538,1871.0999755859373,2.759827,4.5,96.00041,1676247048371,0.026169978,1.0,282244000770000,18.051935,Car
Fix,GPS,39.1976384485,-120.2298177089,1860.9903613343583,2.540479,4.245889,85.34078,1676247049000,0.26145723,6.2429953,282245000790000,3.6553855,Car
Fix,FLP,39.1976381,-120.2298191,1871.0999755859373,2.5410154,4.5,85.04339,1676247049371,0.26145723,6.2429953,282245000790000,17.912224,Car
Fix,GPS,39.1976429026,-120.2297887795,1860.9486103324175,2.4350333,4.2781253,51.289406,1676247050000,0.2759865,6.3081675,282246000807000,3.6591754,Car
Fix,FLP,39.197642,-120.2297891,1871.0999755859373,2.4339046,4.505,51.11802,1676247050371,0.2759865,6.3081675,282246000807000,17.51556,Car
Fix,GPS,39.1976590655,-120.2297674288,1860.9197012273853,2.3638973,4.278143,28.501728,1676247051000,0.2899773,6.4290943,282247000817000,3.7088335,Car
Fix,FLP,39.197658,-120.2297673,1871.0999755859373,2.3632824,4.511,28.083473,1676247051371,0.2899773,6.4290943,282247000817000,17.70072,Car
Fix,GPS,39.1976786347,-120.2297561271,1860.904115740546,2.3121727,4.245872,18.733091,1676247052000,0.25074333,5.368319,282248000832000,3.7379127,Car
Fix,FLP,39.197678,-120.2297556,1871.0999755859373,2.3121412,4.308,18.024261,1676247052371,0.25074333,5.368319,282248000832000,17.627474,Car
Fix,GPS,39.1977010954,-120.2297542299,1860.802808290934,2.4135568,4.245867,11.108521,1676247053000,0.031856176,1.0,282249000858000,3.660652,Car
Fix,FLP,39.1977,-120.229752,1871.0999755859373,2.4135525,4.258,11.000535,1676247053371,0.031856176,1.0,282249000858000,17.710682,Car
Fix,GPS,39.1977235266,-120.2297502018,1860.676411012053,2.657192,4.245862,2.148452,1676247054000,0.25235927,4.9308186,282250000869000,3.6715512,Car
Fix,FLP,39.1977225,-120.2297485,1871.0999755859373,2.6368232,4.258,2.5098612,1676247054371,0.25235927,4.9308186,282250000869000,17.720808,Car
Fix,GPS,39.197750908,-120.2297511209,1860.8533993368928,2.7068367,4.3978386,0.24532081,1676247055000,0.033981215,1.0,282251000881000,3.6185317,Car
Fix,FLP,39.1977484,-120.229749,1871.0999755859373,2.7067404,4.282,0.0064232587,1676247055371,0.033981215,1.0,282251000881000,17.739325,Car
Fix,GPS,39.197780895,-120.2297613792,1860.9366740527475,2.9543355,4.2458515,355.07834,1676247056000,0.024788508,1.0,282252000898000,3.536494,Car
Fix,FLP,39.1977765,-120.2297546,1871.0999755859373,2.9540744,4.276,355.0162,1676247056371,0.024788508,1.0,282252000898000,17.741629,Car
Fix,GPS,39.1978079269,-120.2297656495,1861.1065110483405,2.9445467,4.2458467,354.15656,1676247057000,0.024262467,1.0,282253000943000,3.4463797,Car
Fix,FLP,39.1978052,-120.2297612,1871.0999755859373,2.9445403,4.276,354.00327,1676247057371,0.024262467,1.0,282253000943000,17.748938,Car
Fix,GPS,39.1978287184,-120.2297716113,1861.0246420485137,2.0891387,4.2458415,354.00784,1676247058000,0.0211723,1.0,282254000931000,3.3548493,Car
Fix,FLP,39.1978303,-120.2297678,1871.0999755859373,2.0896428,4.276,353.99738,1676247058371,0.0211723,1.0,282254000931000,17.77116,Car
Fix,GPS,39.1978436093,-120.2297731832,1861.1495743760431,1.3266943,4.2458367,354.6538,1676247059000,0.021035919,1.0,282255000950000,3.2839391,Car
Fix,FLP,39.1978466,-120.2297716,1871.0999755859373,1.327122,4.276,353.9996,1676247059371,0.021035919,1.0,282255000950000,17.830488,Car
Fix,GPS,39.1978562529,-120.2297757397,1861.188181160516,1.4950851,4.2458324,349.30457,1676247060000,0.24472201,8.881072,282256000972000,3.3028026,Car
Fix,FLP,39.1978575,-120.2297744,1871.0999755859373,1.4831661,4.246,349.27774,1676247060371,0.24472201,8.881072,282256000972000,17.780262,Car
Fix,GPS,39.1978706381,-120.2297804068,1861.3460330574133,2.4222887,4.245828,351.84354,1676247061000,0.24599354,5.4433613,282257000964000,3.3008847,Car
Fix,FLP,39.1978709,-120.2297789,1871.0999755859373,2.359955,4.246,350.9096,1676247061371,0.24599354,5.4433613,282257000964000,17.791208,Car
Fix,NLP,39.1969408,-120.2329333,1874.9000244140625,,128.899,,1676247062304,,,282257933000000,35.448284,Car
Fix,FLP,39.1978902,-120.2297829,1871.0999755859373,2.3598263,11.189,350.9094,1676247062304,0.24599354,5.4433613,282257933000000,17.56946,Car
Fix,GPS,39.1978963099,-120.2297849692,1861.1481163195272,3.9164548,4.245823,2.02236,1676247062000,0.26520196,3.4752781,282258000982000,3.3431945,Car
Fix,FLP,39.1978947,-120.2297836,1871.0999755859373,3.7944274,11.189,1.5797254,1676247062371,0.26520196,3.4752781,282258000982000,17.563297,Car
Fix,GPS,39.1979363912,-120.2297808904,1860.876468058432,5.7751412,4.245819,12.00957,1676247063000,0.23039362,2.033695,282259001020000,3.423846,Car
Fix,FLP,39.1979329,-120.2297813,1871.0999755859373,5.659465,11.189,11.705939,1676247063371,0.23039362,2.033695,282259001020000,17.527704,Car
Fix,GPS,39.1979933095,-120.2297639306,1860.581139210212,6.6886563,4.245814,13.9725275,1676247064000,0.22201411,1.7215115,282260001010000,3.4976847,Car
Fix,FLP,39.1979878,-120.229766,1871.0999755859373,6.6329412,11.189,12.963674,1676247064372,0.22201411,1.7215115,282260001010000,17.460783,Car
Fix,GPS,39.1980573733,-120.2297402461,1860.4645186784876,7.5315967,4.371266,14.421439,1676247065000,0.24972813,1.6987697,282261001031000,3.571602,Car
Fix,FLP,39.1980513,-120.2297448,1872.734521111711,7.471089,11.21,13.964825,1676247065372,0.24972813,1.6987697,282261001031000,17.36258,Car
Fix,GPS,39.1981294464,-120.2297157676,1860.2356758687356,8.308822,4.371334,14.009077,1676247066000,0.26234478,1.6788266,282262001048000,3.640928,Car
Fix,FLP,39.1981226,-120.2297202,1873.215067514188,8.247226,11.231,14.008868,1676247066372,0.26234478,1.6788266,282262001048000,17.420525,Car
Fix,NLP,39.1993869,-120.2305881,1879.5999755859373,,46.644,,1676247067323,,,282262952000000,24.625021,Car
Fix,FLP,39.1981825,-120.2297006,1873.28900015466,8.244172,6.368,14.009969,1676247067323,0.26234478,1.6788266,282262952000000,17.397808,Car
Fix,GPS,39.1982090966,-120.2296904301,1859.973847276498,8.187582,4.137144,11.320432,1676247067000,0.22889392,1.4998605,282263001064000,3.6409218,Car
Fix,GPS,39.1982867236,-120.2296696862,1860.272686542288,8.482191,4.2457924,11.281291,1676247068000,0.20764671,1.2723958,282264001090000,3.612145,Car
Fix,FLP,39.1982821,-120.2296717,1873.310670189061,8.481596,6.35,11.000139,1676247068372,0.20764671,1.2723958,282264001090000,17.301714,Car
Fix,GPS,39.1983669914,-120.2296472634,1860.2992738738355,8.661412,4.658763,13.645662,1676247069000,0.40509987,2.504597,282265001088000,3.7453687,Car
Fix,FLP,39.1983638,-120.2296491,1873.3170437391625,8.660052,6.419,12.986672,1676247069372,0.40509987,2.504597,282265001088000,17.345757,Car
Fix,GPS,39.1984509003,-120.2296190054,1860.1176009757853,8.859583,4.785118,14.603863,1676247070000,0.4067471,2.498841,282266001136000,3.884673,Car
Fix,FLP,39.1984473,-120.2296214,1873.6969160035876,8.858099,6.488,13.9931555,1676247070372,0.4067471,2.498841,282266001136000,17.275173,Car
Fix,GPS,39.1985322174,-120.2295891658,1860.147371915524,8.640261,4.8951635,15.917365,1676247071000,0.40626752,2.5593717,282267001173000,4.0616584,Car
Fix,FLP,39.1985298,-120.2295915,1873.6969160035876,8.641993,6.575,14.992454,1676247071372,0.40626752,2.5593717,282267001173000,17.361555,Car
Fix,GPS,39.1986082067,-120.2295605245,1860.300820677636,8.28455,5.001193,16.903046,1676247072000,0.40812972,2.682268,282268001131000,4.265131,Car
Fix,FLP,39.1986071,-120.2295621,1873.694366468403,8.287363,4.717,15.9920435,1676247072372,0.40812972,2.682268,282268001131000,17.29647,Car
Fix,GPS,39.1986802429,-120.2295333725,1860.0800729818336,7.990744,5.064499,17.33139,1676247073000,0.4018331,2.6500802,282269001143000,4.4772453,Car
Fix,FLP,39.1986797,-120.2295341,1873.4496146707847,7.992995,4.88,16.992493,1676247073371,0.4018331,2.6500802,282269001143000,17.279179,Car
Fix,NLP,39.1994395,-120.2305473,1879.0,,36.353,,1676247074121,,,282269750000000,8.713747,Car
Fix,FLP,39.1987227,-120.2295171,1873.496093147457,7.9869714,6.533,16.994352,1676247074121,0.4018331,2.6500802,282269750000000,16.704943,Car
Fix,GPS,39.1987482411,-120.2295047813,1859.953085216591,7.5948586,5.162213,18.80438,1676247074000,0.38222983,2.6421638,282270001280000,4.696034,Car
Fix,FLP,39.1987449,-120.2295068,1873.2271771265343,7.598453,6.617,17.993387,1676247074372,0.38222983,2.6421638,282270001280000,17.122005,Car
Fix,GPS,39.1988094585,-120.2294765051,1860.0835046194643,6.835956,5.235385,19.840322,1676247075000,0.35554677,2.7876909,282271001176000,4.89469,Car
Fix,FLP,39.1988096,-120.2294775,1873.2335067043105,6.840443,6.692,18.99286,1676247075372,0.35554677,2.7876909,282271001176000,16.642221,Car
Fix,GPS,39.1988631885,-120.2294497123,1860.5085531354064,6.065113,5.285666,22.000137,1676247076000,0.3901928,3.4052558,282272001189000,5.074315,Car
Fix,FLP,39.1988648,-120.2294504,1872.9575830207095,6.0705376,6.757,21.976402,1676247076372,0.3901928,3.4052558,282272001189000,17.125727,Car
Fix,GPS,39.1989116704,-120.2294199177,1860.676187362444,5.544605,5.5698376,27.635305,1676247077000,0.46106297,4.3292336,282273001236000,5.2360864,Car
Fix,FLP,39.198913,-120.2294214,1872.9575830207095,5.5495815,6.852,26.949278,1676247077372,0.46106297,4.3292336,282273001236000,17.099646,Car
Fix,GPS,39.1989440979,-120.2293861988,1860.6490968247003,4.8120775,5.4729695,37.430504,1676247078000,0.42130747,4.6714654,282274001248000,5.269635,Car
Fix,FLP,39.1989488,-120.2293883,1872.944836467345,4.8173194,6.92,36.909756,1676247078372,0.42130747,4.6714654,282274001248000,17.148798,Car
Fix,GPS,39.1989722598,-120.229349534,1860.846477061493,3.840041,5.594755,50.088276,1676247079000,0.47845906,6.822444,282275001234000,5.4217834,Car
Fix,FLP,39.1989763,-120.2293514,1873.10221654146,3.8487725,5.386,49.834106,1676247079372,0.47845906,6.822444,282275001234000,16.776028,Car
Fix,GPS,39.1989871377,-120.2293133332,1861.729307612732,2.7342322,5.6488457,55.090397,1676247080000,0.4059683,8.17641,282276001260000,5.4674816,Car
Fix,FLP,39.1989912,-120.2293147,1872.9212179127016,2.7424498,5.514,54.94926,1676247080372,0.4059683,8.17641,282276001260000,16.786448,Car
Fix,GPS,39.1989959509,-120.2292859204,1861.9998818361407,2.1239965,5.54858,49.234337,1676247081000,0.34879914,8.931619,282277001438000,5.4218774,Car
Fix,FLP,39.1989993,-120.2292869,1872.570733686279,2.1273136,5.567,49.043175,1676247081372,0.34879914,8.931619,282277001438000,17.204117,Car
Fix,GPS,39.1990051886,-120.2292610785,1862.213962954052,2.1354492,5.620136,44.3384,1676247082000,0.33376008,8.458209,282278001278000,5.3956656,Car
Fix,FLP,39.1990076,-120.2292637,1872.633794955256,2.1353638,5.577,44.02556,1676247082372,0.33376008,8.458209,282278001278000,16.807417,Car
Fix,GPS,39.1990154791,-120.2292387652,1862.1566120996931,2.034656,5.639907,56.473713,1676247083000,0.37059334,9.979695,282279001431000,5.4192166,Car
Fix,FLP,39.1990176,-120.2292416,1872.387830856805,2.0349596,5.61,55.9231,1676247083372,0.37059334,9.979695,282279001431000,17.199217,Car
Fix,GPS,39.1990226191,-120.2292182301,1861.318868132736,1.7117535,5.660892,54.36758,1676247084000,0.30653092,9.903209,282280001336000,5.353591,Car
Fix,FLP,39.1990245,-120.2292196,1872.641442446196,1.7131511,5.623,54.01063,1676247084372,0.30653092,9.903209,282280001336000,16.899366,Car
Fix,GPS,39.1990295867,-120.2291984098,1861.4435081553029,1.3951695,5.621442,49.072384,1676247085000,0.33307388,13.042215,282281001350000,5.328079,Car
Fix,FLP,39.199031,-120.2292002,1872.703259918616,1.396748,5.618,49.03166,1676247085372,0.33307388,13.042215,282281001350000,16.806002,Car
Fix,NLP,39.19957,-120.229294,1872.7000732421875,,22.469,,1676247085240,,,282280869000000,100.0,Car
Fix,GPS,39.1990347475,-120.2291855717,1861.4107230465293,1.0445634,5.5151544,37.198193,1676247086000,0.3184759,16.236229,282282001650000,5.314161,Car
Fix,FLP,39.1990366,-120.2291856,1873.1735973479329,1.0458254,5.613,37.061924,1676247086372,0.3184759,16.236229,282282001650000,16.707249,Car
Fix,GPS,39.1990394623,-120.2291773611,1861.539206689206,2.1852367,5.3549104,48.046486,1676247087000,0.2980524,7.4196515,282283001357000,5.267554,Car
Fix,FLP,39.1990411,-120.2291777,1872.7874181177217,2.1805604,5.568,47.978455,1676247087371,0.2980524,7.4196515,282283001357000,16.917505,Car
Fix,GPS,39.1990548783,-120.2291511447,1861.7624268768768,4.186751,5.4936223,52.438675,1676247088000,0.38973197,5.1300626,282284001369000,5.3467264,Car
Fix,FLP,39.1990547,-120.2291538,1873.0251400744228,4.17273,5.558,51.983772,1676247088372,0.38973197,5.1300626,282284001369000,16.9259,Car
Fix,GPS,39.1990827471,-120.2291015163,1861.7654240526624,5.9925613,5.526999,55.99087,1676247089000,0.46462286,4.29825,282285001494000,5.373343,Car
Fix,FLP,39.199081,-120.2291065,1873.1169165594904,5.974482,5.522,54.97757,1676247089372,0.46462286,4.29825,282285001494000,16.81242,Car
Fix,NLP,39.1995236,-120.229314,1872.7000732421875,,32.469,,1676247090245,,,282285874000000,7.053428,Car
Fix,FLP,39.1991041,-120.2290637,1872.7000732421875,5.968622,7.396,54.97803,1676247090245,0.46462286,4.29825,282285874000000,7.318427,Car
Fix,GPS,39.1991182,-120.2290284913,1862.0228248360536,7.632905,5.512269,59.62066,1676247090000,0.45050249,3.2603927,282286001400000,5.455337,Car
Fix,FLP,39.1991145,-120.2290385,1872.7000732421875,7.61887,7.378,58.970688,1676247090372,0.45050249,3.2603927,282286001400000,7.1327105,Car
Fix,GPS,39.1991524306,-120.2289415292,1861.852840126628,8.0917425,5.111313,68.42198,1676247091000,0.35272735,2.5311394,282287001493000,5.414443,Car
Fix,FLP,39.1991515,-120.2289483,1874.501332748658,8.088491,7.054,67.949326,1676247091372,0.35272735,2.5311394,282287001493000,14.027247,Car
Fix,GPS,39.1991833386,-120.2288461234,1862.3749433876196,9.083589,4.9882655,70.74437,1676247092000,0.3755421,2.494066,282288001442000,5.440391,Car
Fix,FLP,39.1991819,-120.2288509,1875.3319638035691,9.076826,7.25,69.98783,1676247092372,0.3755421,2.494066,282288001442000,14.199351,Car
Fix,GPS,39.199205164,-120.2287451743,1863.0046268784115,9.234276,4.903117,72.86764,1676247093000,0.40743446,2.613355,282289001495000,5.5161963,Car
Fix,FLP,39.1992067,-120.2287473,1872.7000732421875,9.23303,7.151,71.98385,1676247093372,0.40743446,2.613355,282289001495000,6.795609,Car
Fix,GPS,39.1992302019,-120.2286368349,1864.095736240136,9.845899,4.9813604,70.77646,1676247094000,0.41355848,2.4833343,282290001472000,5.4500275,Car
Fix,FLP,39.1992309,-120.2286395,1875.4913421029405,9.840811,6.841,70.016396,1676247094372,0.41355848,2.4833343,282290001472000,14.775276,Car
Fix,NLP,39.1995072,-120.229367,1872.7000732421875,,48.9,,1676247094831,,,282290460000000,4.19815,Car
Fix,FLP,39.1992416,-120.2286004,1872.7000732421875,9.835715,7.615,70.01796,1676247094831,0.41355848,2.4833343,282290460000000,6.3979034,Car
Fix,GPS,39.1992605726,-120.2285207816,1863.2684512211883,10.587331,5.2413416,70.648506,1676247095000,0.45290363,2.5033526,282291001475000,5.4088125,Car
Fix,FLP,39.1992599,-120.2285278,1872.7000732421875,10.582536,6.027,70.00353,1676247095372,0.45290363,2.5033526,282291001475000,6.3789177,Car
Fix,GPS,39.1992921378,-120.2283900665,1864.3395728375467,10.983303,5.3829117,72.225105,1676247096000,0.45765135,2.410221,282292001526000,5.319573,Car
Fix,FLP,39.1992922,-120.2283978,1872.7000732421875,10.979395,6.072,71.980995,1676247096372,0.45765135,2.410221,282292001526000,6.5783005,Car
Fix,GPS,39.1993200873,-120.2282601165,1864.8279804407248,11.114104,5.4000473,74.48519,1676247097000,0.45426336,2.380439,282293001806000,5.3236103,Car
Fix,FLP,39.199321,-120.2282658,1874.551397892364,11.11282,6.141,73.9803,1676247097372,0.45426336,2.380439,282293001806000,6.654932,Car
Fix,GPS,39.199345148,-120.2281284952,1865.1610820496144,11.147299,5.176289,75.9315,1676247098000,0.4778264,2.4950757,282294001568000,5.3846564,Car
Fix,FLP,39.1993462,-120.2281328,1874.6833776312608,11.146983,6.187,74.989,1676247098372,0.4778264,2.4950757,282294001568000,6.5807333,Car
Fix,GPS,39.1993708761,-120.2279990782,1865.263918009568,11.205737,5.0367823,76.23874,1676247099000,0.48534676,2.4991446,282295001853000,5.4670367,Car
Fix,FLP,39.1993713,-120.2280019,1874.597941236579,11.205122,6.196,75.98885,1676247099372,0.48534676,2.4991446,282295001853000,6.591663,Car
Fix,GPS,39.1993965243,-120.227872158,1865.3552147640012,11.152852,5.057994,75.800606,1676247100000,0.48789954,2.5147882,282296001552000,5.595165,Car
Fix,FLP,39.1993963,-120.2278733,1874.555223363045,11.1534395,5.21,75.01118,1676247100372,0.48789954,2.5147882,282296001552000,6.575846,Car
Fix,GPS,39.1994245885,-120.2277468476,1865.8637321006772,11.373328,4.9818373,74.51449,1676247101000,0.4974484,2.5037618,282297001677000,5.687036,Car
Fix,FLP,39.1994238,-120.2277472,1874.621531796575,11.370768,5.13,74.01142,1676247101372,0.4974484,2.5037618,282297001677000,6.6992455,Car
Fix,GPS,39.1994557412,-120.2276229983,1865.816090773938,11.372444,5.1661997,73.73227,1676247102000,0.50834036,2.5241213,282298001660000,5.8943033,Car
Fix,FLP,39.1994545,-120.2276221,1874.3537509292,11.37241,5.136,73.01179,1676247102372,0.50834036,2.5241213,282298001660000,6.6421137,Car
Fix,GPS,39.1994864107,-120.2274973897,1865.765049553074,11.524075,5.333275,73.582886,1676247103000,0.50970393,2.4781647,282299001780000,6.0935555,Car
Fix,FLP,39.1994857,-120.2274968,1874.345462609123,11.522232,5.115,72.99994,1676247103372,0.50970393,2.4781647,282299001780000,6.571117,Car
Fix,GPS,39.1995174916,-120.2273701612,1865.8511107522625,11.741751,5.3870955,73.41442,1676247104000,0.48690543,2.4258974,282300001648000,6.2670717,Car
Fix,FLP,39.199517,-120.2273697,1872.7000732421875,11.7392845,5.16,73.000046,1676247104372,0.48690543,2.4258974,282300001648000,6.7719693,Car
Fix,GPS,39.1995488634,-120.2272400056,1865.8047651071893,11.79702,5.5779986,72.815735,1676247105000,0.5041647,2.430796,282301001734000,6.447962,Car
Fix,FLP,39.1995485,-120.2272398,1872.7000732421875,11.796319,5.289,72.01168,1676247105371,0.5041647,2.430796,282301001734000,6.750258,Car
Fix,GPS,39.1995787162,-120.2271084667,1865.7622069771496,11.562087,5.4902425,72.39376,1676247106000,0.47614765,2.274887,282302001694000,6.3577952,Car
Fix,FLP,39.1995796,-120.2271089,1872.7000732421875,11.564554,5.39,72.00043,1676247106372,0.47614765,2.274887,282302001694000,6.6863527,Car
Fix,GPS,39.199608162,-120.2269780236,1865.7129817396449,11.792231,5.458581,71.81403,1676247107000,0.48445538,2.3250294,282303002030000,6.189416,Car
Fix,FLP,39.1996095,-120.2269791,1872.7000732421875,11.78973,5.449,71.0107,1676247107373,0.48445538,2.3250294,282303002030000,6.701266,Car
Fix,GPS,39.1996402821,-120.2268449835,1865.649518834476,12.167544,5.563966,70.75094,1676247108000,0.5129596,2.295493,282304001744000,6.1523967,Car
Fix,FLP,39.1996416,-120.2268467,1868.747602683608,12.163022,5.468,70.01084,1676247108372,0.5129596,2.295493,282304001744000,6.8856215,Car
Fix,GPS,39.1996774958,-120.2267063484,1865.7243552890488,12.749374,5.5403953,69.48727,1676247109000,0.49663728,2.094807,282305001917000,6.08111,Car
Fix,FLP,39.1996781,-120.226709,1868.3653269012727,12.742857,5.526,69.0094,1676247109372,0.49663728,2.094807,282305001917000,6.780055,Car
Fix,GPS,39.1997186296,-120.2265630709,1866.0939718517309,12.808323,5.5906625,69.83645,1676247110000,0.51118577,2.1867034,282306002080000,6.1129427,Car
Fix,FLP,39.1997188,-120.2265658,1868.190760043685,12.807581,5.528,69.00013,1676247110373,0.51118577,2.1867034,282306002080000,6.7630553,Car
Fix,GPS,39.1997604565,-120.2264199099,1866.153092843404,13.059864,5.574783,68.21749,1676247111000,0.50402784,2.1997783,282307001812000,6.173086,Car
Fix,FLP,39.1997604,-120.2264224,1868.0404060778587,13.056891,5.545,68.01166,1676247111372,0.50402784,2.1997783,282307001812000,6.887135,Car
Fix,GPS,39.1998091519,-120.2262718524,1866.0655789792504,13.206175,5.7127495,66.745026,1676247112000,0.5425729,2.254303,282308001799000,6.459257,Car
Fix,FLP,39.1998074,-120.2262756,1868.0111001078085,13.204269,5.573,66.02558,1676247112372,0.5425729,2.254303,282308001799000,6.837376,Car
Fix,GPS,39.1998633958,-120.2261258171,1866.0067973087844,13.525017,5.734608,63.83908,1676247113000,0.534661,2.136164,282309001879000,6.7241974,Car
Fix,FLP,39.1998606,-120.2261293,1868.016196790954,13.520986,5.63,63.036022,1676247113371,0.534661,2.136164,282309001879000,6.8533654,Car
Fix,GPS,39.1999246159,-120.2259848035,1866.341891696769,13.780445,5.7842193,59.490005,1676247114000,0.48702118,1.8914888,282310001844000,6.941365,Car
Fix,FLP,39.1999214,-120.2259865,1868.060155810633,13.7776785,5.656,59.04018,1676247114372,0.48702118,1.8914888,282310001844000,6.8404737,Car
Fix,GPS,39.199992562,-120.2258476166,1866.7794417394705,13.950741,5.759349,56.2607,1676247115000,0.46677122,1.7992232,282311001849000,7.115313,Car
Fix,FLP,39.1999899,-120.2258482,1868.1461632494304,13.94905,5.692,56.028446,1676247115372,0.46677122,1.7992232,282311001849000,6.7731338,Car
Fix,GPS,39.2000651099,-120.2257100373,1867.2411515069605,14.258137,5.594883,54.002087,1676247116000,0.47747618,1.8069332,282312001875000,7.0015,Car
Fix,FLP,39.2000633,-120.2257114,1868.5201465102232,14.255014,5.717,54.019737,1676247116372,0.47747618,1.8069332,282312001875000,6.816135,Car
Fix,GPS,39.2001422901,-120.2255728724,1867.742661110907,14.263532,5.4680705,52.958717,1676247117000,0.5009287,1.9144064,282313002188000,6.9128127,Car
Fix,FLP,39.2001411,-120.2255745,1868.855917298269,14.263436,5.668,52.02261,1676247117373,0.5009287,1.9144064,282313002188000,6.832866,Car
Fix,GPS,39.2002208415,-120.2254388766,1868.5587598402428,14.140351,5.441364,52.747402,1676247118000,0.50205743,1.9226251,282314001875000,6.8828864,Car
Fix,FLP,39.2002205,-120.2254407,1869.3943252426411,14.141767,5.63,52.00039,1676247118372,0.50205743,1.9226251,282314001875000,6.8432765,Car
Fix,NLP,39.199975,-120.226843,1869.0999755859373,,104.693,,1676247119126,,,282314755000000,3.2001922,Car
Fix,FLP,39.2002697,-120.2253592,1869.0999755859373,14.126356,7.213,51.99998,1676247119126,0.50205743,1.9226251,282314755000000,5.5398183,Car
Fix,GPS,39.2002971624,-120.2253120385,1868.987280611406,13.605572,5.4265943,52.699707,1676247119000,0.53696716,2.1133556,282315001881000,6.995159,Car
Fix,FLP,39.2002939,-120.2253181,1869.0999755859373,13.614783,7.153,52.001217,1676247119372,0.53696716,2.1133556,282315001881000,5.6630616,Car
Fix,GPS,39.2003704378,-120.225190338,1869.362086130986,13.199511,5.4564266,53.786674,1676247120000,0.5242722,2.1307251,282316002239000,7.2137046,Car
Fix,FLP,39.20037,-120.2251914,1869.0999755859373,13.204512,7.103,52.988007,1676247120373,0.5242722,2.1307251,282316002239000,5.846578,Car
Fix,GPS,39.2004404476,-120.2250695446,1870.0200761024155,13.028027,5.464079,52.935272,1676247121000,0.5209865,2.1703317,282317002264000,7.3569036,Car
Fix,FLP,39.2004408,-120.2250693,1869.0999755859373,13.030168,7.081,52.012203,1676247121373,0.5209865,2.1703317,282317002264000,5.9921107,Car
Fix,GPS,39.200513488,-120.2249553862,1870.5043222888671,12.680562,5.5139847,50.53134,1676247122000,0.5454301,2.339401,282318002106000,7.5634284,Car
Fix,FLP,39.2005133,-120.2249536,1870.8459674591547,12.685123,6.857,50.027397,1676247122372,0.5454301,2.339401,282318002106000,6.0910764,Car
Fix,GPS,39.2005898698,-120.2248529699,1870.681081985532,11.683363,5.5978827,46.712807,1676247123000,0.5290407,2.4571962,282319002278000,7.801663,Car
Fix,FLP,39.2005887,-120.2248486,1870.8459674591547,11.695413,7.115,46.05395,1676247123373,0.5290407,2.4571962,282319002278000,6.1370754,Car
Fix,GPS,39.2006668659,-120.2247589489,1870.869977322994,10.873387,5.9569244,39.592037,1676247124000,0.5874429,2.908239,282320002289000,8.066718,Car
Fix,FLP,39.2006649,-120.2247559,1869.0999755859373,10.884313,5.597,39.113373,1676247124373,0.5874429,2.908239,282320002289000,6.2499714,Car
Fix,GPS,39.2007468549,-120.22468025,1871.5683634182935,10.580482,6.1476803,37.07437,1676247125000,0.55716336,2.8340988,282321002299000,8.110799,Car
Fix,FLP,39.2007446,-120.2246786,1869.0999755859373,10.584495,5.736,37.02878,1676247125372,0.55716336,2.8340988,282321002299000,6.2599716,Car
Fix,GPS,39.2008278452,-120.2246096715,1870.78935760934,10.708478,6.159732,34.318115,1676247126000,0.55018866,2.698728,282322002019000,7.973312,Car
Fix,FLP,39.200825,-120.2246078,1869.0999755859373,10.706474,5.806,34.03848,1676247126373,0.55018866,2.698728,282322002019000,6.2075796,Car
Fix,GPS,39.2009145473,-120.2245472519,1869.9917372618395,11.25686,6.2143154,30.638512,1676247127000,0.5569476,2.5538652,282323002039000,7.962153,Car
Fix,FLP,39.2009107,-120.2245437,1869.0999755859373,11.248694,5.931,30.050444,1676247127373,0.5569476,2.5538652,282323002039000,6.216998,Car
Fix,GPS,39.2010147903,-120.2244934552,1868.236802201928,12.029928,6.171338,29.967861,1676247128000,0.5482261,2.3473253,282324002041000,7.9785194,Car
Fix,FLP,39.2010084,-120.2244876,1869.0999755859373,12.019646,6.041,29.01357,1676247128373,0.5482261,2.3473253,282324002041000,6.227205,Car
Fix,GPS,39.2011208947,-120.2244276101,1866.3075266920905,12.500891,6.052358,28.753567,1676247129000,0.5374529,2.308414,282325002005000,7.7356424,Car
Fix,FLP,39.2011141,-120.2244247,1869.0999755859373,12.49468,6.117,28.012398,1676247129373,0.5374529,2.308414,282325002005000,6.237377,Car
Fix,GPS,39.2012313133,-120.2243668091,1865.2010902329832,12.894274,5.8994374,27.301985,1676247130000,0.49992514,2.0767999,282326002381000,7.6343784,Car
Fix,FLP,39.2012247,-120.224363,1869.0999755859373,12.889793,6.099,27.010612,1676247130373,0.49992514,2.0767999,282326002381000,6.3262334,Car
Fix,GPS,39.20133881,-120.2243035283,1865.124634877927,13.073041,5.7962117,26.72723,1676247131000,0.5156629,2.119552,282327002169000,7.5063252,Car
Fix,FLP,39.2013349,-120.2243004,1869.0999755859373,13.07079,6.026,26.011372,1676247131373,0.5156629,2.119552,282327002169000,6.231501,Car
Fix,GPS,39.2014451328,-120.224238007,1864.926222686328,13.051504,5.797787,26.803558,1676247132000,0.53495663,2.200892,282328002352000,7.4562764,Car
Fix,FLP,39.2014434,-120.2242365,1869.0999755859373,13.051779,5.943,25.999924,1676247132373,0.53495663,2.200892,282328002352000,6.226659,Car
Fix,GPS,39.2015518059,-120.2241733597,1864.8462695891344,13.249961,5.8213477,27.358591,1676247133000,0.5381451,2.1790593,282329002352000,7.3988843,Car
Fix,FLP,39.2015508,-120.2241721,1869.0999755859373,13.2474575,5.873,26.987917,1676247133373,0.5381451,2.1790593,282329002352000,6.236989,Car
Fix,GPS,39.2016608015,-120.2241059764,1864.817384387172,13.250763,6.039604,27.971756,1676247134000,0.55661166,2.244731,282330002146000,7.487698,Car
Fix,FLP,39.2016593,-120.2241046,1869.0999755859373,13.250743,5.87,26.999668,1676247134373,0.55661166,2.244731,282330002146000,6.247051,Car
Fix,GPS,39.2017658803,-120.2240384189,1864.9049623968551,13.173353,6.201647,28.006245,1676247135000,0.56550515,2.3115823,282331002142000,7.7506914,Car
Fix,FLP,39.2017658,-120.2240369,1869.0999755859373,13.174517,5.926,27.985853,1676247135373,0.56550515,2.3115823,282331002142000,6.257625,Car
Fix,GPS,39.2018736167,-120.2239662052,1864.2928112044087,13.2390375,6.190179,28.388737,1676247136000,0.538563,2.1462307,282332002187000,7.852232,Car
Fix,FLP,39.2018724,-120.2239658,1869.0999755859373,13.2382345,6.01,27.999865,1676247136373,0.538563,2.1462307,282332002187000,6.4695053,Car
Fix,GPS,39.2019831546,-120.2238917517,1863.603003848457,13.206291,6.23374,28.54547,1676247137000,0.54238826,2.175631,282333002414000,7.8876796,Car
Fix,FLP,39.201981,-120.2238925,1867.3116094983377,13.206762,6.097,27.999868,1676247137373,0.54238826,2.175631,282333002414000,6.3310814,Car
Fix,GPS,39.2020911302,-120.2238140073,1863.1857181790367,12.957065,6.228703,29.634476,1676247138000,0.52373165,2.1498146,282334002339000,7.7903795,Car
Fix,FLP,39.202089,-120.2238166,1867.243447297136,12.960241,6.119,28.987663,1676247138373,0.52373165,2.1498146,282334002339000,6.286678,Car
Fix,GPS,39.2021887644,-120.2237360013,1864.25650959375,12.62013,6.2823324,33.605953,1676247139000,0.5241277,2.2195344,282335002190000,7.6480837,Car
Fix,FLP,39.2021897,-120.223739,1867.236439999196,12.624177,6.227,32.950706,1676247139373,0.5241277,2.2195344,282335002190000,6.297018,Car
Fix,GPS,39.2022778082,-120.2236536075,1864.183802262913,12.331869,6.293124,36.989082,1676247140000,0.46921593,2.0626667,282336002544000,7.706208,Car
Fix,FLP,39.2022806,-120.2236558,1867.2332548656905,12.334659,6.245,35.96958,1676247140373,0.46921593,2.0626667,282336002544000,6.3072715,Car
Fix,GPS,39.2023605017,-120.2235685655,1865.1593107894023,12.141004,6.1364746,39.22117,1676247141000,0.4780274,2.124499,282337002254000,7.6989865,Car
Fix,FLP,39.2023643,-120.2235698,1867.1912112158736,12.142847,6.234,38.968914,1676247141373,0.4780274,2.124499,282337002254000,6.4357376,Car
Fix,GPS,39.2024340022,-120.2234767988,1866.054044029492,11.957823,6.0343275,42.25064,1676247142000,0.46212038,2.091101,282338002273000,7.669621,Car
Fix,FLP,39.2024398,-120.2234784,1867.1306942082535,11.959411,6.201,41.971004,1676247142373,0.46212038,2.091101,282338002273000,6.3812413,Car
Fix,GPS,39.2025129217,-120.2233804932,1866.169616816893,11.691576,5.580851,44.472336,1676247143000,0.4505811,2.091742,282339002598000,7.237258,Car
Fix,FLP,39.2025153,-120.2233822,1867.1306942082535,11.693938,6.065,43.981316,1676247143373,0.4505811,2.091742,282339002598000,6.3367195,Car
Fix,GPS,39.2025888566,-120.2232864067,1866.0520753331036,11.639474,5.3646183,45.640385,1676247144000,0.42828855,2.0011313,282340002570000,7.013874,Car
Fix,FLP,39.2025896,-120.2232869,1867.142160555379,11.639905,5.881,44.99162,1676247144373,0.42828855,2.0011313,282340002570000,6.347392,Car
Fix,GPS,39.2026631403,-120.2231885507,1865.9102719284351,11.851238,5.224916,46.64395,1676247145000,0.43529293,1.9989306,282341002489000,6.8102417,Car
Fix,FLP,39.2026633,-120.2231895,1867.1829299155604,11.849423,5.772,45.991585,1676247145373,0.43529293,1.9989306,282341002489000,6.4188604,Car
Fix,GPS,39.2027392603,-120.223084904,1865.3325472947772,12.293463,5.2248783,47.111088,1676247146000,0.4618948,2.0443418,282342002303000,6.655674,Car
Fix,FLP,39.2027387,-120.2230868,1867.2561878537267,12.2892065,5.486,46.990654,1676247146373,0.4618948,2.0443418,282342002303000,6.428871,Car
Fix,GPS,39.2028166911,-120.2229782067,1865.3641229097816,12.583933,5.1743402,46.548393,1676247147000,0.44424966,1.9195024,282343002315000,6.671724,Car
Fix,FLP,39.2028158,-120.2229796,1867.264469225808,12.581333,5.314,46.008556,1676247147373,0.44424966,1.9195024,282343002315000,6.4317904,Car
Fix,GPS,39.2028985117,-120.2228728654,1865.3995406263532,12.622585,5.122898,45.152504,1676247148000,0.40138885,1.7278018,282344002495000,6.67289,Car
Fix,FLP,39.2028972,-120.2228734,1867.1829299155604,12.622289,5.282,45.00724,1676247148373,0.40138885,1.7278018,282344002495000,6.505593,Car
Fix,GPS,39.2029792707,-120.222769192,1865.6453268186967,12.592785,5.153257,45.836967,1676247149000,0.4297865,1.8564388,282345002355000,6.751524,Car
Fix,FLP,39.2029787,-120.2227694,1867.142160555379,12.593037,5.21,45.000042,1676247149373,0.4297865,1.8564388,282345002355000,6.5161986,Car
Fix,GPS,39.2030593335,-120.2226652544,1865.2915048342184,12.475194,5.223863,46.750683,1676247150000,0.46979716,2.0503957,282346002379000,6.8522663,Car
Fix,FLP,39.2030591,-120.2226655,1867.1975814524053,12.476344,5.187,45.99,1676247150373,0.46979716,2.0503957,282346002379000,6.3751483,Car
Fix,GPS,39.2031383101,-120.2225622627,1864.7247131940196,12.314201,5.280695,46.69217,1676247151000,0.43915167,1.9417803,282347002413000,6.913599,Car
Fix,FLP,39.2031379,-120.222562,1867.281031994309,12.315607,5.191,45.99989,1676247151373,0.43915167,1.9417803,282347002413000,6.4389925,Car
Fix,GPS,39.2032154212,-120.2224595928,1864.635170890487,12.156508,5.24483,46.41037,1676247152000,0.4219767,1.8898677,282348002800000,6.9355445,Car
Fix,FLP,39.2032152,-120.2224594,1867.1765596900705,12.157783,5.205,45.999996,1676247152373,0.4219767,1.8898677,282348002800000,6.448958,Car
Fix,NLP,39.2034324,-120.2225895,902.0,,77.6,,1676247153036,,,282348665000000,30.565102,Car
Fix,FLP,39.2032565,-120.2224043,1867.1568120215595,12.149021,6.646,45.9998,1676247153036,0.4219767,1.8898677,282348665000000,6.035211,Car
Fix,GPS,39.2032905933,-120.2223583906,1864.7398687221892,12.03609,5.160205,45.59452,1676247153000,0.42511976,1.9202709,282349002402000,6.7590775,Car
Fix,FLP,39.2032876,-120.2223628,1867.1517158565284,12.038661,6.434,45.008743,1676247153373,0.42511976,1.9202709,282349002402000,6.084542,Car
Fix,GPS,39.2033665541,-120.2222573796,1864.7428550869145,12.169931,5.140774,45.964943,1676247154000,0.44918182,2.0062027,282350002424000,6.5873466,Car
Fix,FLP,39.2033658,-120.2222596,1867.1568120215595,12.16877,6.65,45.000126,1676247154372,0.44918182,2.0062027,282350002424000,6.1351414,Car
Fix,GPS,39.2034437005,-120.2221570734,1863.819669020414,12.241825,5.1939588,46.13276,1676247155000,0.47713238,2.1186328,282351002445000,6.4697556,Car
Fix,FLP,39.2034435,-120.2221579,1867.2217883950027,12.241068,6.645,45.989883,1676247155373,0.47713238,2.1186328,282351002445000,6.208579,Car
Fix,GPS,39.203522677,-120.2220582395,1863.7981433584036,12.391547,5.166144,46.46569,1676247156000,0.46359238,2.0343304,282352002469000,6.31451,Car
Fix,FLP,39.2035218,-120.2220574,1867.2886763599463,12.3901005,6.626,45.999794,1676247156373,0.46359238,2.0343304,282352002469000,6.3019986,Car
Fix,GPS,39.2035966262,-120.2219552815,1863.4151774277816,12.303591,5.0708637,47.931545,1676247157000,0.44177032,1.9547867,282353002457000,6.185571,Car
Fix,FLP,39.2035975,-120.2219548,1867.440291039954,12.304312,6.404,46.991215,1676247157373,0.44177032,1.9547867,282353002457000,6.2912183,Car
Fix,GPS,39.2036695188,-120.2218507484,1863.6099228127143,12.207748,5.0715504,47.05873,1676247158000,0.45536733,2.0298815,282354002481000,6.117289,Car
Fix,FLP,39.2036706,-120.2218506,1867.4536689363924,12.208633,5.128,46.999992,1676247158373,0.45536733,2.0298815,282354002481000,6.15754,Car
Fix,GPS,39.2037454106,-120.2217487443,1863.926804133734,12.363435,5.053881,45.44956,1676247159000,0.4622522,2.032568,282355002508000,6.0371323,Car
Fix,FLP,39.2037455,-120.2217481,1867.440291039954,12.361875,5.111,45.018894,1676247159373,0.4622522,2.032568,282355002508000,6.170084,Car
Fix,GPS,39.2038251755,-120.2216469157,1864.185158240861,12.408428,5.0639625,43.84728,1676247160000,0.4604464,2.0005338,282356002594000,5.9608774,Car
Fix,FLP,39.2038249,-120.2216468,1867.4536689363924,12.407904,5.085,43.01894,1676247160373,0.4604464,2.0005338,282356002594000,6.1807194,Car
Fix,GPS,39.2039038793,-120.2215482507,1864.541100632582,12.403875,5.208654,40.827633,1676247161000,0.4789824,2.0916793,282357002537000,5.872893,Car
Fix,FLP,39.2039048,-120.2215484,1869.0999755859373,12.4036665,5.094,40.03093,1676247161373,0.4789824,2.0916793,282357002537000,6.2540092,Car
Fix,GPS,39.2039879352,-120.2214559142,1864.3173387316888,12.379734,5.221007,35.3145,1676247162000,0.46269867,2.0111024,282358002637000,5.744152,Car
Fix,FLP,39.2039887,-120.2214559,1869.0999755859373,12.379292,5.124,35.047527,1676247162373,0.46269867,2.0111024,282358002637000,6.3440185,Car
Fix,GPS,39.2040792974,-120.2213752681,1864.4423547923743,12.474472,5.2267222,32.912945,1676247163000,0.48755422,2.0787451,282359002579000,5.644797,Car
Fix,FLP,39.2040795,-120.2213747,1869.0999755859373,12.473076,5.155,32.031223,1676247163373,0.48755422,2.0787451,282359002579000,6.4414043,Car
Fix,GPS,39.204176046,-120.221297853,1864.05638138854,12.803632,5.2268248,32.584618,1676247164000,0.4843118,1.992605,282360002585000,5.52618,Car
Fix,FLP,39.2041756,-120.2212979,1869.0999755859373,12.800215,5.189,32.00077,1676247164373,0.4843118,1.992605,282360002585000,6.401665,Car
Fix,GPS,39.204277788,-120.2212209619,1863.7832459976405,13.075152,5.209576,32.30396,1676247165000,0.48247093,1.9476346,282361002860000,5.415669,Car
Fix,FLP,39.2042763,-120.2212204,1869.0999755859373,13.072346,5.218,32.000282,1676247165373,0.48247093,1.9476346,282361002860000,6.205765,Car
Fix,GPS,39.204379897,-120.2211423249,1863.7246186348368,13.295982,5.258424,32.66444,1676247166000,0.47394308,1.9066608,282362002655000,5.418428,Car
Fix,FLP,39.2043786,-120.2211415,1869.0999755859373,13.293755,5.228,32.000153,1676247166373,0.47394308,1.9066608,282362002655000,6.215775,Car
Fix,GPS,39.2044809226,-120.2210623748,1863.8251915710216,13.162435,5.255451,35.485497,1676247167000,0.49011353,2.0101326,282363002664000,5.442039,Car
Fix,FLP,39.2044806,-120.2210615,1869.0999755859373,13.163789,5.235,34.967716,1676247167373,0.49011353,2.0101326,282363002664000,6.178948,Car
Fix,GPS,39.2045747727,-120.2209712815,1863.959228678119,12.922163,5.410161,37.749283,1676247168000,0.48069528,2.0157268,282364002681000,5.489977,Car
Fix,FLP,39.2045758,-120.2209722,1869.0999755859373,12.92464,5.272,36.97871,1676247168373,0.48069528,2.0157268,282364002681000,6.188927,Car
Fix,GPS,39.2046639743,-120.2208784907,1864.311541993609,12.854616,5.5169253,43.86965,1676247169000,0.51245254,2.1625853,282365002715000,5.6154747,Car
Fix,FLP,39.2046656,-120.2208797,1869.0999755859373,12.854655,5.33,42.92941,1676247169373,0.51245254,2.1625853,282365002715000,6.2525806,Car
Fix,GPS,39.2047442036,-120.2207697235,1864.0430392555372,12.934343,5.55023,48.465187,1676247170000,0.49871543,2.100447,282366002673000,5.731543,Car
Fix,FLP,39.2047464,-120.2207726,1869.0999755859373,12.932841,5.366,47.94429,1676247170373,0.49871543,2.100447,282366002673000,6.317141,Car
Fix,GPS,39.2048195501,-120.2206553373,1863.0707436882128,13.222799,5.5810285,54.181156,1676247171000,0.48960936,2.0322971,282367002688000,5.7808213,Car
Fix,FLP,39.2048212,-120.2206573,1869.0999755859373,13.218699,5.462,53.936306,1676247171372,0.48960936,2.0322971,282367002688000,6.3270273,Car
Fix,GPS,39.2048853727,-120.2205306602,1862.677643212392,13.160664,5.577855,57.423416,1676247172000,0.48301974,2.005128,282368002713000,5.8733044,Car
Fix,FLP,39.2048875,-120.2205316,1869.0999755859373,13.160941,5.527,56.968212,1676247172373,0.48301974,2.005128,282368002713000,6.4626107,Car
Fix,GPS,39.2049454665,-120.220398325,1862.6815632081127,13.294927,5.5375113,60.033688,1676247173000,0.50685287,2.0746782,282369002718000,5.9951987,Car
Fix,FLP,39.2049478,-120.2204001,1869.0999755859373,13.292984,5.552,59.966026,1676247173373,0.50685287,2.0746782,282369002718000,6.38891,Car
Fix,GPS,39.2050031088,-120.2202590084,1863.1628390794092,13.306572,5.595934,61.811428,1676247174000,0.5511627,2.2730865,282370002956000,6.1281915,Car
Fix,FLP,39.2050047,-120.2202616,1869.0999755859373,13.306323,5.568,60.986324,1676247174373,0.5511627,2.2730865,282370002956000,6.3993015,Car
Fix,GPS,39.2050574611,-120.2201184903,1863.230685604732,13.164218,5.72017,63.829994,1676247175000,0.5626336,2.3488715,282371003024000,6.291586,Car
Fix,FLP,39.2050594,-120.2201214,1869.0999755859373,13.166061,5.602,62.972027,1676247175374,0.5626336,2.3488715,282371003024000,6.346109,Car
Fix,GPS,39.2051072629,-120.2199773207,1863.6413932355144,13.016283,5.7306395,64.35793,1676247176000,0.56081605,2.3636374,282372003104000,6.3594747,Car
Fix,FLP,39.2051095,-120.2199802,1869.0999755859373,13.018369,5.632,63.98619,1676247176374,0.56081605,2.3636374,282372003104000,6.426827,Car
Fix,GPS,39.205157395,-120.2198369254,1864.166709307921,12.879788,5.7135406,63.604164,1676247177000,0.5606329,2.4030192,282373003064000,6.3908305,Car
Fix,FLP,39.2051587,-120.2198396,1869.0999755859373,12.881849,5.659,63.014393,1676247177374,0.5606329,2.4030192,282373003064000,6.4367247,Car
Fix,GPS,39.2052088716,-120.2197000385,1864.092389527852,12.916912,5.8465695,62.969215,1676247178000,0.5478706,2.3336475,282374002836000,6.4687114,Car
Fix,FLP,39.2052098,-120.2197024,1869.0999755859373,12.916501,5.721,62.013664,1676247178373,0.5478706,2.3336475,282374002836000,6.3819485,Car
Fix,GPS,39.2052594736,-120.2195611836,1864.3858802108184,13.003009,5.8278627,63.012497,1676247179000,0.5359544,2.2533252,282375003163000,6.4692407,Car
Fix,FLP,39.2052613,-120.2195644,1869.0999755859373,13.001836,5.768,62.98783,1676247179374,0.5359544,2.2533252,282375003163000,6.3919387,Car
Fix,GPS,39.2053103788,-120.2194215817,1864.645227663283,12.996734,5.7922597,62.70643,1676247180000,0.52799404,2.2123523,282376002862000,6.4525433,Car
Fix,FLP,39.2053119,-120.2194247,1869.0999755859373,12.996878,5.772,62.01238,1676247180373,0.52799404,2.2123523,282376002862000,6.465138,Car
Fix,GPS,39.2053613556,-120.2192833913,1864.7525863647345,12.985056,5.7764626,62.42187,1676247181000,0.5243718,2.2078474,282377003201000,6.4822555,Car
Fix,FLP,39.2053634,-120.2192863,1869.0999755859373,12.985234,5.791,62.000465,1676247181374,0.5243718,2.2078474,282377003201000,6.404552,Car
Fix,GPS,39.2054141809,-120.219148072,1864.5739898555528,12.9312105,5.7554245,61.53265,1676247182000,0.5250201,2.240605,282378003205000,6.386676,Car
Fix,FLP,39.2054157,-120.21915,1869.0999755859373,12.931928,5.799,61.012653,1676247182374,0.5250201,2.240605,282378003205000,6.3748913,Car
Fix,GPS,39.2054708388,-120.2190154702,1864.717310170467,12.796654,5.7409267,62.15527,1676247183000,0.54054165,2.3346171,282379002902000,6.482861,Car
Fix,FLP,39.2054713,-120.2190166,1869.0999755859373,12.798405,5.778,61.987183,1676247183372,0.54054165,2.3346171,282379002902000,6.438679,Car
Fix,GPS,39.2055236475,-120.2188795084,1864.8052797513767,13.0784645,5.63256,62.7146,1676247184000,0.5102857,2.166005,282380002943000,6.4897895,Car
Fix,FLP,39.2055242,-120.2188816,1869.0999755859373,13.075149,5.754,61.999798,1676247184373,0.5102857,2.166005,282380002943000,6.521427,Car
Fix,GPS,39.2055754845,-120.2187418453,1864.42851568345,13.311654,5.5272665,63.23669,1676247185000,0.5040922,2.1110258,282381003170000,6.4159207,Car
Fix,FLP,39.2055769,-120.2187438,1867.137701418538,13.308845,5.686,62.98874,1676247185374,0.5040922,2.1110258,282381003170000,6.5314884,Car
Fix,GPS,39.2056266275,-120.2185992453,1863.999140358808,13.6431465,5.428922,63.93334,1676247186000,0.50523406,2.0419607,282382002956000,6.3432665,Car
Fix,FLP,39.2056282,-120.2186016,1866.6860667425824,13.639257,5.643,62.999813,1676247186373,0.50523406,2.0419607,282382002956000,6.476819,Car
Fix,NLP,39.2055863,-120.2187958,1866.9000244140625,,92.9,,1676247186871,,,282382500000000,59.9076,Car
Fix,FLP,39.2056498,-120.2185455,1866.403886943375,13.628752,6.662,63.000652,1676247186871,0.50523406,2.0419607,282382500000000,6.1081767,Car
Fix,GPS,39.205679464,-120.2184516591,1863.6712250718151,14.046765,5.48474,64.962776,1676247187000,0.5110728,2.02686,282383003008000,6.2979555,Car
Fix,FLP,39.2056788,-120.2184597,1866.139550981156,14.044907,6.494,63.993137,1676247187374,0.5110728,2.02686,282383003008000,6.101456,Car
Fix,GPS,39.2057315627,-120.2183020045,1863.5714944983897,14.241158,5.548601,65.84595,1676247188000,0.50079566,1.9554012,282384003297000,6.3081717,Car
Fix,FLP,39.2057326,-120.2183059,1865.5344756781008,14.238885,6.585,64.98888,1676247188374,0.50079566,1.9554012,282384003297000,6.095825,Car
Fix,GPS,39.2057834565,-120.2181505387,1863.6727309275996,14.104064,5.596187,66.81051,1676247189000,0.51030797,2.007256,282385003004000,6.361463,Car
Fix,FLP,39.2057846,-120.2181525,1865.2083898960016,14.105636,6.579,65.98833,1676247189374,0.51030797,2.007256,282385003004000,5.993033,Car
Fix,GPS,39.2058334395,-120.2180027117,1863.961122984666,13.62061,5.6399198,66.62836,1676247190000,0.52894807,2.1392288,282386003019000,6.4592533,Car
Fix,FLP,39.2058344,-120.2180028,1865.149797690196,13.626833,6.445,66.00044,1676247190374,0.52894807,2.1392288,282386003019000,6.0853996,Car
Fix,GPS,39.205881071,-120.2178623728,1864.7996484702835,13.004114,5.5904813,67.151886,1676247191000,0.52831864,2.2610521,282387003249000,6.567752,Car
Fix,FLP,39.2058822,-120.2178609,1865.1599876098587,13.012028,6.625,66.98743,1676247191374,0.52831864,2.2610521,282387003249000,6.0527635,Car
Fix,GPS,39.2059260195,-120.2177295437,1864.6358459264045,12.45484,5.5550847,68.353714,1676247192000,0.50567967,2.2792654,282388003375000,6.740066,Car
Fix,FLP,39.2059267,-120.2177268,1865.2198536359429,12.461349,5.586,67.987976,1676247192374,0.50567967,2.2792654,282388003375000,6.1541686,Car
Fix,GPS,39.2059656101,-120.2176039723,1864.3656375497983,11.3995,5.568287,69.51211,1676247193000,0.4977614,2.4998293,282389003076000,6.907929,Car
Fix,FLP,39.2059667,-120.2176,1865.1644457035732,11.411755,5.583,68.98715,1676247193374,0.4977614,2.4998293,282389003076000,6.1886144,Car
Fix,GPS,39.2059976481,-120.2174890436,1863.773044048564,10.46469,5.633934,71.744896,1676247194000,0.5102305,2.7793577,282390003098000,7.102764,Car
Fix,FLP,39.2059997,-120.2174845,1865.110948734165,10.476051,5.597,70.97369,1676247194374,0.5102305,2.7793577,282390003098000,6.2549267,Car
Fix,GPS,39.2060210028,-120.2173808398,1864.2643160550017,10.17637,5.7059956,77.66017,1676247195000,0.5352533,2.908522,282391003400000,7.345535,Car
Fix,FLP,39.2060244,-120.2173766,1864.835189964696,10.179303,5.61,76.92258,1676247195374,0.5352533,2.908522,282391003400000,6.3846617,Car
Fix,GPS,39.2060289801,-120.2172621501,1864.3647509248951,10.745408,5.6622286,84.14584,1676247196000,0.52322245,2.6219592,282392003127000,7.3365917,Car
Fix,FLP,39.2060348,-120.2172619,1864.590644679007,10.736974,5.619,83.924,1676247196374,0.52322245,2.6219592,282392003127000,6.3246894,Car
Fix,GPS,39.2060319922,-120.2171340426,1864.63477200479,11.201527,5.7183824,88.99684,1676247197000,0.5750609,2.7510095,282393003279000,7.56781,Car
Fix,FLP,39.2060367,-120.2171354,1864.1799009399317,11.193915,5.64,87.94745,1676247197374,0.5750609,2.7510095,282393003279000,6.3740253,Car
Fix,GPS,39.2060308409,-120.2170006236,1864.878021620253,11.425005,5.8543587,89.7823,1676247198000,0.56533235,2.6632764,282394003123000,7.8533874,Car
Fix,FLP,39.2060344,-120.2170024,1863.7921007500472,11.421575,5.714,88.98685,1676247198374,0.56533235,2.6632764,282394003123000,6.279717,Car
Fix,GPS,39.2060279595,-120.2168661934,1865.1845501562984,11.420131,5.838091,90.28558,1676247199000,0.5588867,2.5939016,282395003480000,8.064743,Car
Fix,FLP,39.206031,-120.2168675,1863.4692658860824,11.420161,5.755,89.98771,1676247199374,0.5588867,2.5939016,282395003480000,6.241225,Car
Fix,GPS,39.206026454,-120.2167299692,1865.3102822520077,11.36764,5.8710146,90.55748,1676247200000,0.55668443,2.5944362,282396003166000,8.306303,Car
Fix,FLP,39.2060282,-120.2167318,1863.2292171845936,11.368447,5.774,90.00005,1676247200374,0.55668443,2.5944362,282396003166000,6.415724,Car
Fix,GPS,39.2060235624,-120.2165906062,1864.4548846705088,11.501917,5.924455,89.93204,1676247201000,0.54971254,2.6168454,282397003210000,8.381952,Car
Fix,FLP,39.2060253,-120.2165941,1863.199927889216,11.500095,5.841,89.01299,1676247201374,0.54971254,2.6168454,282397003210000,6.364524,Car
Fix,GPS,39.2060255585,-120.2164515872,1862.819020680445,11.521787,6.0168757,86.52198,1676247202000,0.55120295,2.6575603,282398003243000,8.456852,Car
Fix,FLP,39.2060262,-120.216455,1863.1922872201544,11.521368,5.87,86.04033,1676247202374,0.55120295,2.6575603,282398003243000,6.7723374,Car
Fix,GPS,39.2060351164,-120.2163106239,1861.5171227857936,11.470326,6.122426,81.51903,1676247203000,0.5495492,2.627489,282399003224000,8.505642,Car
Fix,FLP,39.2060345,-120.2163149,1863.2247601113595,11.470694,5.954,81.0658,1676247203374,0.5495492,2.627489,282399003224000,6.391445,Car
Fix,GPS,39.2060521378,-120.2161815912,1861.5150901140812,11.39947,5.877656,73.56552,1676247204000,0.5588958,2.6921601,282400003562000,8.475312,Car
Fix,FLP,39.2060516,-120.2161822,1863.3712080332853,11.399333,5.962,73.11002,1676247204374,0.5588958,2.6921601,282400003562000,6.392529,Car
Fix,GPS,39.2060804396,-120.216049543,1860.974860813939,11.648557,5.8423667,71.508865,1676247205000,0.55940795,2.6816425,282401003399000,8.445441,Car
Fix,FLP,39.2060808,-120.2160517,1863.4329716131697,11.644959,5.956,71.02893,1676247205374,0.55940795,2.6816425,282401003399000,6.4986,Car
Fix,GPS,39.2061167573,-120.2159135251,1860.511923305408,12.209782,5.882104,66.57838,1676247206000,0.5615346,2.5121646,282402003261000,8.149018,Car
Fix,FLP,39.2061161,-120.2159174,1863.4673556573064,12.201465,5.948,66.06519,1676247206374,0.5615346,2.5121646,282402003261000,6.384818,Car
Fix,GPS,39.2061642655,-120.2157770363,1860.400873708277,12.578187,6.0064726,62.97384,1676247207000,0.59519637,2.5687938,282403003321000,8.024717,Car
Fix,FLP,39.206163,-120.2157812,1863.452710584373,12.572146,5.946,62.060192,1676247207374,0.59519637,2.5687938,282403003321000,6.726218,Car
Fix,GPS,39.2062214566,-120.215645441,1860.4496062850485,12.543393,6.019926,59.12358,1676247208000,0.57417864,2.5117638,282404003608000,7.7589364,Car
Fix,FLP,39.2062194,-120.215648,1863.4348818341748,12.543825,5.925,59.044678,1676247208373,0.57417864,2.5117638,282404003608000,6.4330516,Car
Fix,GPS,39.2062848719,-120.2155236022,1860.1170872807409,12.195109,6.23223,56.479076,1676247209000,0.5825887,2.6219363,282405003333000,7.783091,Car
Fix,FLP,39.206282,-120.2155234,1863.3565631269223,12.200362,5.976,56.047237,1676247209374,0.5825887,2.6219363,282405003333000,6.384907,Car
Fix,GPS,39.2063467486,-120.2154103024,1860.7096450076824,12.0474205,6.579479,53.81075,1676247210000,0.57295036,2.6091385,282406003408000,8.019841,Car
Fix,FLP,39.2063453,-120.2154085,1863.3565631269223,12.04952,6.143,53.04498,1676247210374,0.57295036,2.6091385,282406003408000,6.481841,Car
Fix,GPS,39.2064146084,-120.2153006663,1860.8721240473028,12.454681,6.6761255,49.021732,1676247211000,0.6452354,2.8102338,282407003296000,8.255958,Car
Fix,FLP,39.2064129,-120.215299,1863.4788170364325,12.446807,6.302,49.071194,1676247211374,0.6452354,2.8102338,282407003296000,6.353921,Car
Fix,GPS,39.2064963886,-120.2151969067,1861.4030889863704,12.854733,6.6019993,45.93443,1676247212000,0.5878765,2.4543374,282408003423000,8.479649,Car
Fix,FLP,39.2064923,-120.215194,1863.6596541861504,12.848156,6.421,45.05876,1676247212374,0.5878765,2.4543374,282408003423000,6.689571,Car
Fix,GPS,39.2065880452,-120.215091568,1861.5229815474852,12.73669,6.3025665,45.34756,1676247213000,0.5630686,2.364919,282409003394000,8.492208,Car
Fix,FLP,39.2065825,-120.2150904,1863.697222952579,12.738325,6.402,45.00024,1676247213374,0.5630686,2.364919,282409003394000,6.4487987,Car
Fix,GPS,39.2066800254,-120.2149857651,1862.8007055142837,12.641965,6.0593796,44.27628,1676247214000,0.5698725,2.4099298,282410003415000,8.466245,Car
Fix,FLP,39.2066738,-120.2149858,1863.633547175604,12.643427,6.443,44.01373,1676247214373,0.5698725,2.4099298,282410003415000,6.721307,Car
Fix,GPS,39.206765773,-120.2148870627,1862.9466145909992,12.028897,5.9627743,46.073593,1676247215000,0.50602347,2.2884579,282411003372000,8.414103,Car
Fix,FLP,39.206762,-120.2148859,1863.5685983772191,12.035864,6.363,45.975857,1676247215374,0.50602347,2.2884579,282411003372000,6.770613,Car
Fix,GPS,39.2068463988,-120.2147915578,1862.4061183512497,11.6501,5.92638,47.425396,1676247216000,0.5214457,2.4464028,282412003428000,8.207537,Car
Fix,FLP,39.2068429,-120.2147893,1863.5342139212728,11.654795,6.17,46.98679,1676247216374,0.5214457,2.4464028,282412003428000,6.5730286,Car
Fix,GPS,39.2069189033,-120.2146955842,1861.620197628492,10.982671,5.9883804,51.430305,1676247217000,0.5677921,2.8534007,282413003447000,7.991498,Car
Fix,FLP,39.2069172,-120.2146936,1863.5685983772191,10.9919615,6.047,50.938286,1676247217374,0.5677921,2.8534007,282413003447000,6.7593346,Car
Fix,GPS,39.206977678,-120.2146000877,1860.832187063783,10.25195,6.063779,58.233143,1676247218000,0.5914862,3.187808,282414003783000,7.910557,Car
Fix,FLP,39.2069783,-120.2145979,1863.574965884409,10.262022,6.0,57.882763,1676247218374,0.5914862,3.187808,282414003783000,6.4633393,Car
Fix,GPS,39.2070226566,-120.2144992835,1860.020509727383,9.808561,6.1871996,66.139206,1676247219000,0.6039538,3.4949634,282415003659000,7.854596,Car
Fix,FLP,39.2070245,-120.2144984,1863.574965884409,9.814354,6.025,65.85872,1676247219374,0.6039538,3.4949634,282415003659000,6.447068,Car
Fix,GPS,39.207052404,-120.2143912448,1859.9765758718827,9.867328,6.1963234,71.129456,1676247220000,0.5869367,3.418554,282416003726000,7.633439,Car
Fix,FLP,39.2070556,-120.2143924,1863.5049235691165,9.86587,6.072,70.91847,1676247220374,0.5869367,3.418554,282416003726000,6.7077727,Car
