Fix,Provider,LatitudeDegrees,LongitudeDegrees,AltitudeMeters,SpeedMps,AccuracyMeters,BearingDegrees,UnixTimeMillis,SpeedAccuracyMps,BearingAccuracyDegrees,elapsedRealtimeNanos,VerticalAccuracyMeters,TransitType
Fix,FLP,37.4280504,-122.1699744,-12.774057893716538,0.01847173,5.15,,1678498542704,,,1933357581968001,2.9611373,Walk
Fix,NLP,37.4280812,-122.1703293,-4.299999713897705,,43.749,,1678498543169,,,1933358046000000,2.6912668,Walk
Fix,GPS,37.4280475962,-122.1699705865,25.4231638542675,0.02052115,5.7125134,83.429405,1678498540999,0.038147002,180.0,1933358537570000,4.3698516,Walk
Fix,FLP,37.4280504,-122.1699763,-13.200398549131528,0.026569504,6.358,,1678498543717,,,1933358594868392,2.5352647,Walk
Fix,GPS,37.4280471192,-122.1699706317,25.496093011272137,0.015974022,5.874622,83.429405,1678498541999,0.039211586,180.0,1933359537584000,4.335742,Walk
Fix,FLP,37.4280503,-122.1699777,-13.242345985867251,0.019180555,6.843,,1678498544730,,,1933359607763107,2.5409732,Walk
Fix,NLP,37.4280785,-122.1703413,-4.599999904632568,,40.565,,1678498545546,,,1933360423000000,2.9180517,Walk
Fix,FLP,37.4280502,-122.1699782,-13.12366489450028,0.017631188,6.884,,1678498545237,,,1933360114214583,2.6062489,Walk
Fix,GPS,37.4280469954,-122.1699708949,25.577462242871363,0.020338109,5.7130046,83.429405,1678498542999,0.038677625,180.0,1933360537618000,4.300505,Walk
Fix,FLP,37.4280501,-122.1699785,-13.12366489450028,0.017307779,6.937,,1678498545743,,,1933360620664535,2.654996,Walk
Fix,FLP,37.4280498,-122.1699786,-13.12366489450028,0.019211836,7.228,,1678498546250,,,1933361127118026,2.654996,Walk
Fix,GPS,37.4280492948,-122.1699731562,25.178267570967428,0.17883249,5.8751,326.03192,1678498543999,0.039527696,10.0,1933361537615000,4.2664404,Walk
Fix,FLP,37.4280498,-122.1699788,-10.85785048377418,0.01977271,7.221,,1678498546756,,,1933361633553206,2.7301471,Walk
Fix,FLP,37.4280493,-122.1699788,-10.85785048377418,0.08316563,7.203,,1678498547263,,,1933362140019333,2.7301471,Walk
Fix,GPS,37.4280508089,-122.1699751838,25.052847946130232,0.21441329,5.7134957,326.03192,1678498544999,0.32253987,30.13838,1933362537816000,4.2944217,Walk
Fix,FLP,37.4280491,-122.1699788,-10.761673102669311,0.11564929,7.182,154.7231,1678498547769,,,1933362646472152,3.1818886,Walk
Fix,NLP,37.4279452,-122.1705314,-4.5,,25.958,,1678498548157,,,1933363034000000,2.319303,Walk
Fix,GPS,37.4280485734,-122.1699782588,25.144281907635666,0.38721967,4.992646,326.03192,1678498545999,0.4706184,34.798992,1933363537842000,4.333392,Walk
Fix,FLP,37.4280478,-122.1699861,-11.181673727624071,0.13626307,7.149,157.32175,1678498548782,,,1933363659380355,2.9646668,Walk
Fix,GPS,37.4280477453,-122.1699859615,25.117706217565097,0.5565442,5.3121414,326.03192,1678498546999,0.6550243,25.183342,1933364537711000,4.4571743,Walk
Fix,FLP,37.4280458,-122.1699918,-11.49781146800212,0.2682584,7.146,151.68642,1678498549795,,,1933364672278365,2.9702556,Walk
Fix,FLP,37.4280441,-122.1699998,-11.49781146800212,0.40193856,7.119,152.91568,1678498550301,,,1933365178745162,2.9702556,Walk
Fix,GPS,37.428046509,-122.1699942951,25.36313030891253,0.63287884,5.7233357,326.03192,1678498547999,0.7505521,180.0,1933365537703000,4.6446323,Walk
Fix,FLP,37.4280437,-122.1700025,-12.865047785167036,0.4496506,7.077,153.38664,1678498550822,,,1933365699642624,2.892954,Walk
Fix,FLP,37.4280424,-122.1700074,-12.865047785167036,0.50599116,7.046,162.36383,1678498551364,,,1933366241389982,2.892954,Walk
Fix,GPS,37.428044133,-122.1700017382,25.6438445093577,0.6702761,6.2231827,326.03192,1678498548999,0.8415523,30.701008,1933366537750000,4.870581,Walk
Fix,FLP,37.4280419,-122.1700115,-13.344269828765448,0.5599162,7.026,170.06474,1678498551907,,,1933366784023649,2.902812,Walk
Fix,FLP,37.4280413,-122.1700152,-13.344269828765448,0.5607147,7.023,190.23064,1678498552449,,,1933367326648404,2.902812,Walk
Fix,GPS,37.4280532877,-122.1700074315,25.202119488561816,0.73015916,6.638239,326.03192,1678498549999,0.66705996,158.26526,1933367537776000,5.0975704,Walk
Fix,NLP,37.428146,-122.1704084,-4.599999904632568,,39.363,,1678498553169,,,1933368046000000,2.4442105,Walk
Fix,FLP,37.4280421,-122.1700222,-18.60574228469203,0.5843111,7.027,210.44173,1678498552991,,,1933367869274991,2.7138336,Walk
Fix,FLP,37.4280432,-122.1700304,-18.60574228469203,0.6110396,7.058,219.71646,1678498553534,,,1933368411888455,2.7138336,Walk
Fix,GPS,37.4280568206,-122.1700088732,25.16116976234636,0.2600911,7.0063534,326.03192,1678498550999,0.6507916,43.35804,1933368537785000,5.363661,Walk
Fix,FLP,37.4280455,-122.1700373,-17.075850931615996,0.34071872,7.14,268.89255,1678498554077,,,1933368954524686,3.7414412,Walk
Fix,GPS,37.4280674653,-122.1700112166,25.996949118157616,0.45425543,7.3070197,326.03192,1678498551999,0.627527,12.791434,1933369537829000,5.614344,Walk
Fix,FLP,37.4280471,-122.1700389,-16.75480951437656,0.2743775,7.245,279.53427,1678498554620,,,1933369497136746,3.6619408,Walk
Fix,FLP,37.4280516,-122.1700429,-16.75480951437656,0.22871731,7.582,334.75934,1678498555703,,,1933370580000000,3.6619408,Walk
Fix,GPS,37.4280814437,-122.1700129123,26.257537812133723,0.57951486,7.5448647,326.03192,1678498552999,0.62362725,180.0,1933370537787000,5.910321,Walk
Fix,FLP,37.4280568,-122.1700448,-16.75480951437656,0.3689333,7.896,353.78513,1678498556227,,,1933371105000000,3.6083133,Walk
Fix,GPS,37.4280902897,-122.1700110136,26.40725087501681,0.71555847,7.791664,326.03192,1678498553999,0.63704175,135.95428,1933371537776000,6.182383,Walk
Fix,FLP,37.4280605,-122.1700457,-7.305211730347437,0.4417033,8.194,3.1804328,1678498556790,,,1933371667621855,3.5842173,Walk
Fix,FLP,37.4280678,-122.1700466,-7.305211730347437,0.5727009,8.564,9.278881,1678498557333,,,1933372210240384,3.5842173,Walk
Fix,GPS,37.4281012139,-122.1700096735,26.813402845273565,0.58492273,7.9133453,326.03192,1678498554999,0.6477374,19.548695,1933372537808000,6.412246,Walk
Fix,FLP,37.4280747,-122.1700464,-6.25801645113264,0.62219214,9.057,13.142152,1678498557875,,,1933372752855069,3.5891988,Walk
Fix,NLP,37.4283646,-122.1700562,-4.699999809265137,,29.508,,1678498558259,,,1933373136000000,2.6948988,Walk
Fix,FLP,37.4280857,-122.1700453,-4.699999809265137,0.65465117,9.519,13.652207,1678498558418,,,1933373295468412,2.3562205,Walk
Fix,GPS,37.4281162269,-122.1700051082,26.731349016458203,1.0856993,8.102492,14.409329,1678498555999,0.64028233,19.221638,1933373537853000,6.592358,Walk
Fix,FLP,37.428101,-122.1700431,-4.699999809265137,0.8760316,9.842,16.604845,1678498558961,,,1933373838079740,2.2014894,Walk
Fix,FLP,37.4281108,-122.1700407,-4.699999809265137,0.98541194,10.001,17.070068,1678498559502,,,1933374380690030,2.2014894,Walk
Fix,GPS,37.4281283572,-122.1700045528,27.3734180602167,1.1591094,8.130079,26.903534,1678498556999,0.53343564,25.568747,1933374538033000,6.7723823,Walk
Fix,FLP,37.4281242,-122.1700376,-4.699999809265137,1.0904008,10.197,16.541273,1678498560046,,,1933374923298734,2.1997404,Walk
Fix,FLP,37.4281327,-122.1700352,-4.699999809265137,1.1307503,10.312,15.843012,1678498560588,,,1933375465907072,2.1997404,Walk
Fix,GPS,37.4281410441,-122.1700024428,27.92616211424011,1.2071475,8.142455,29.239504,1678498557999,0.49947983,24.655142,1933375537842000,6.9100647,Walk
Fix,FLP,37.4281454,-122.1700319,-2.926704330671022,1.1802685,10.387,15.628593,1678498561131,,,1933376008512845,2.2077227,Walk
Fix,GPS,37.4281541531,-122.1699988596,28.27935411718745,1.2497754,8.158691,39.968437,1678498558999,0.5496529,29.255234,1933376538220000,7.069463,Walk
Fix,FLP,37.428151,-122.1700305,-4.699999809265137,1.1994809,10.439,15.55609,1678498561674,,,1933376551115628,2.2176926,Walk
Fix,FLP,37.4281639,-122.1700277,-4.699999809265137,1.2317775,10.504,14.978555,1678498562216,,,1933377093721524,2.2176926,Walk
Fix,GPS,37.4281643608,-122.1699940074,28.475955612647184,1.2362764,8.174479,26.452118,1678498559999,0.5701707,22.31647,1933377537910000,7.231302,Walk
Fix,FLP,37.428168,-122.1700272,-4.699999809265137,1.2448996,10.55,14.382775,1678498562759,,,1933377636324125,2.2290351,Walk
Fix,NLP,37.4283653,-122.1702628,-4.699999809265137,,31.297,,1678498563255,,,1933378133000000,2.5777798,Walk
Fix,FLP,37.4281781,-122.1700257,-4.699999809265137,1.2551229,10.581,13.7523155,1678498563284,,,1933378161437772,2.0900052,Walk
Fix,GPS,37.4281764712,-122.1699916489,28.535354695003832,1.2543979,8.190853,21.262226,1678498560999,0.52448523,20.093643,1933378537926000,7.357777,Walk
Fix,FLP,37.4281881,-122.1700263,-4.699999809265137,1.2723804,10.605,13.294613,1678498563844,,,1933378721524930,2.0948408,Walk
Fix,FLP,37.4282075,-122.1700248,-4.699999809265137,1.3038479,10.539,12.5957775,1678498564387,,,1933379264126981,2.0948408,Walk
Fix,GPS,37.4281890133,-122.169991206,28.70916877433308,1.2716188,8.196579,11.849391,1678498561999,0.5165741,18.987717,1933379537927000,7.464659,Walk
Fix,FLP,37.4282201,-122.1700228,-4.699999809265137,1.3104343,10.316,12.988303,1678498564929,,,1933379806721647,2.1033437,Walk
Fix,GPS,37.4282022365,-122.1699888512,28.739107550586297,1.2931408,8.196785,41.59557,1678498562999,0.5758637,29.334705,1933380538029000,7.5627065,Walk
Fix,FLP,37.4282279,-122.1700208,-2.688994397102178,1.314171,10.181,13.462875,1678498565472,,,1933380349310941,2.1143646,Walk
Fix,FLP,37.4282404,-122.1700169,-2.688994397102178,1.3190576,9.856,14.679374,1678498566013,,,1933380891902372,2.1143646,Walk
Fix,GPS,37.4282152157,-122.1699826054,29.146224733566456,1.3179702,8.1945305,41.430126,1678498563999,0.53472304,22.706612,1933381538007000,7.6335177,Walk
Fix,FLP,37.4282461,-122.1700146,-8.141206738833446,1.3249675,9.724,16.082535,1678498566557,,,1933381434508878,2.124575,Walk
Fix,FLP,37.4282582,-122.1700097,-8.141206738833446,1.3308957,9.292,17.109148,1678498567100,,,1933381977102262,2.124575,Walk
Fix,GPS,37.4282257599,-122.1699776127,29.22453090105216,1.2987776,8.193516,34.485466,1678498564999,0.55173826,35.973717,1933382537949000,7.692005,Walk
Fix,FLP,37.4282625,-122.1700079,-4.699999809265137,1.3403465,8.938,17.084082,1678498567642,,,1933382519680936,2.137852,Walk
Fix,FLP,37.4282749,-122.1700031,-4.699999809265137,1.3387965,8.254,16.88049,1678498568185,,,1933383062286344,2.137852,Walk
Fix,NLP,37.4284308,-122.170392,-4.699999809265137,,32.04,,1678498568301,,,1933383178000000,3.7614713,Walk
Fix,GPS,37.4282378363,-122.1699758389,29.166996506172488,1.2931235,8.204346,42.03699,1678498565999,0.5442343,27.998306,1933383537960000,7.7463403,Walk
Fix,FLP,37.4282816,-122.1700023,-4.699999809265137,1.3448539,7.974,16.542791,1678498568727,,,1933383604869413,3.0479577,Walk
Fix,FLP,37.4282933,-122.17,-4.699999809265137,1.3361741,7.607,16.09214,1678498569269,,,1933384147464018,3.0479577,Walk
Fix,GPS,37.4282459936,-122.1699740493,29.289974985488065,1.2472616,8.193583,10.714437,1678498566999,0.512428,19.56161,1933384537923000,7.783672,Walk
Fix,FLP,37.4282947,-122.1699999,-4.699999809265137,1.3373823,7.547,15.892669,1678498569813,,,1933384690056180,3.0580804,Walk
Fix,FLP,37.4283022,-122.1699976,-4.699999809265137,1.3280532,7.299,15.736755,1678498570334,,,1933385211000000,3.0580804,Walk
Fix,GPS,37.4282541818,-122.1699730496,29.525082301464053,1.2115221,8.204102,2.7724822,1678498567999,0.5321526,19.290245,1933385537995000,7.8137493,Walk
Fix,FLP,37.428312,-122.1699946,-4.699999809265137,1.2996123,6.859,15.610172,1678498571448,,,1933386325000000,3.067942,Walk
Fix,GPS,37.4282639578,-122.169971293,29.545961720323145,1.2024941,8.223898,3.5509815,1678498568999,0.5337771,16.326862,1933386538034000,7.8340144,Walk
Fix,FLP,37.4283216,-122.1699909,-4.699999809265137,1.275959,6.505,15.654893,1678498572525,,,1933387402988920,3.076874,Walk
Fix,GPS,37.4282744889,-122.1699707584,29.768402538869537,1.2014287,8.260013,8.883262,1678498569999,0.55134124,18.60944,1933387538013000,7.8503656,Walk
Fix,FLP,37.4283254,-122.1699891,-4.699999809265137,1.2631626,6.341,15.533513,1678498573068,,,1933387945000000,3.0866435,Walk
Fix,NLP,37.4284216,-122.1702478,-4.299999713897705,,31.441,,1678498573019,,,1933387896000000,3.5054183,Walk
Fix,FLP,37.4283322,-122.1699873,-4.299999713897705,1.2573631,5.999,15.425318,1678498573611,,,1933388488158170,2.8325675,Walk
Fix,GPS,37.4282861881,-122.1699682565,29.750210708684733,1.2121319,8.291323,23.93034,1678498570999,0.5478418,19.688189,1933388538007000,7.860571,Walk
Fix,FLP,37.4283365,-122.1699863,-4.299999713897705,1.2511572,5.885,15.369063,1678498574153,,,1933389030738676,2.8421237,Walk
Fix,FLP,37.4283422,-122.1699842,-4.299999713897705,1.2472639,5.777,15.438078,1678498574696,,,1933389573324613,2.8421237,Walk
Fix,GPS,37.4282988723,-122.1699635017,29.590687739977888,1.2315134,8.320222,21.96902,1678498571999,0.54684687,21.093647,1933389538023000,7.8653364,Walk
Fix,FLP,37.4283465,-122.1699822,-4.599999904632568,1.239247,5.797,15.582022,1678498575238,,,1933390115906583,2.861826,Walk
Fix,GPS,37.4283118776,-122.1699601823,29.63918141067176,1.2480465,8.3363495,16.528957,1678498572999,0.58049524,25.10567,1933390538255000,7.865693,Walk
Fix,FLP,37.4283499,-122.1699807,-8.370526329393499,1.2379527,5.792,15.640259,1678498575781,,,1933390658479642,2.871999,Walk
Fix,FLP,37.4283551,-122.1699784,-8.370526329393499,1.2326356,5.842,15.655269,1678498576284,,,1933391161437772,2.871999,Walk
Fix,GPS,37.4283281894,-122.1699583003,30.265122858964684,1.2937026,8.346279,11.235856,1678498573999,0.5316484,15.501705,1933391538186000,7.856892,Walk
Fix,FLP,37.4283594,-122.1699765,-4.299999713897705,1.2308236,5.922,15.636813,1678498576866,,,1933391743649564,2.8798618,Walk
Fix,FLP,37.4283632,-122.1699749,-4.299999713897705,1.2309691,5.998,15.626814,1678498577409,,,1933392286229276,2.8798618,Walk
Fix,GPS,37.4283457396,-122.1699567226,30.50866514075656,1.3467387,8.364943,13.435289,1678498574999,0.54598075,16.216675,1933392538316000,7.8642683,Walk
Fix,FLP,37.4283665,-122.1699731,-4.299999713897705,1.2332021,6.292,15.721224,1678498577951,,,1933392828808744,2.8897834,Walk
Fix,NLP,37.4284632,-122.1702111,-2.5,,27.197,,1678498578070,,,1933392947000000,3.9091094,Walk
Fix,FLP,37.4283667,-122.1699728,-2.5,1.2383949,6.393,15.820362,1678498578494,,,1933393371387418,3.1777716,Walk
Fix,GPS,37.4283632405,-122.169955827,30.65937883582522,1.3902335,8.376404,6.4476104,1678498575999,0.53906995,19.690567,1933393538086000,7.8695307,Walk
Fix,FLP,37.4283769,-122.1699689,-2.5,1.2482437,6.863,16.091436,1678498579035,,,1933393913957243,2.7231038,Walk
Fix,FLP,37.428382,-122.1699673,-2.5,1.2539846,7.024,16.150984,1678498579579,,,1933394456543058,2.7231038,Walk
Fix,GPS,37.4283727515,-122.1699562696,30.75836615123504,1.3563433,8.386695,0.89565593,1678498576999,0.5394402,30.509027,1933394538104000,7.871799,Walk
Fix,FLP,37.4283878,-122.1699651,-2.5,1.2605523,7.382,16.353065,1678498580122,,,1933394999120206,2.7727406,Walk
Fix,GPS,37.4283797945,-122.1699553276,30.89134677359033,1.3016218,8.390057,33.313053,1678498577999,0.5357854,37.886086,1933395538149000,7.8928246,Walk
Fix,FLP,37.4283907,-122.1699637,-7.245331626287097,1.2640928,7.496,16.516945,1678498580664,,,1933395541696622,2.5806274,Walk
Fix,FLP,37.428397,-122.1699607,-7.245331626287097,1.2647575,8.011,16.852293,1678498581207,,,1933396084272794,2.5806274,Walk
Fix,GPS,37.4283903288,-122.1699518417,30.71755667741733,1.2869848,8.393631,12.896172,1678498578999,0.53738743,20.769945,1933396538168000,7.918383,Walk
Fix,FLP,37.4283982,-122.1699599,-2.5,1.2657353,8.136,16.972145,1678498581749,,,1933396626848234,2.5904837,Walk
Fix,FLP,37.4284059,-122.169956,-2.5,1.2638503,8.687,17.201971,1678498582284,,,1933397161437772,2.5904837,Walk
Fix,GPS,37.4284057658,-122.1699495218,30.851244808800065,1.3169949,8.395334,6.9336343,1678498579999,0.53546286,16.871155,1933397538157000,7.9594984,Walk
Fix,FLP,37.4284059,-122.1699557,-2.5,1.2643851,8.813,17.247906,1678498582833,,,1933397711986784,2.5999622,Walk
Fix,NLP,37.4284573,-122.1701008,-1.8000000715255735,,77.6,,1678498583151,,,1933398028000000,8.783623,Walk
Fix,FLP,37.4284142,-122.1699518,-1.8000000715255735,1.2630218,9.656,17.351976,1678498583377,,,1933398254571622,4.692141,Walk
Fix,GPS,37.4284177225,-122.1699502761,30.878665844983864,1.3165656,8.395961,350.87216,1678498580999,0.53038496,17.230604,1933398538197000,8.010491,Walk
Fix,FLP,37.4284172,-122.1699505,-1.8000000715255735,1.2622802,9.871,17.281666,1678498583920,,,1933398797145109,3.2595584,Walk
Fix,FLP,37.4284222,-122.1699488,-1.8000000715255735,1.2622484,10.377,17.261047,1678498584461,,,1933399339718107,3.2595584,Walk
Fix,GPS,37.4284306963,-122.1699523822,31.097246120323348,1.3275212,8.386826,2.88288,1678498581999,0.5802438,17.706806,1933399538229000,8.069994,Walk
Fix,FLP,37.4284267,-122.1699474,-1.8000000715255735,1.2619569,10.694,17.246958,1678498585005,,,1933399882290372,2.481971,Walk
Fix,GPS,37.4284484405,-122.1699523327,31.709111160039345,1.3756211,8.388098,9.385736,1678498582999,0.6880411,20.791292,1933400538451000,8.126497,Walk
Fix,FLP,37.4284291,-122.1699465,-1.8000000715255735,1.2634991,10.912,17.346369,1678498585547,,,1933400424862150,2.4921088,Walk
Fix,FLP,37.4284351,-122.1699442,-1.8000000715255735,1.2666527,11.255,17.455784,1678498586090,,,1933400967433744,2.4921088,Walk
Fix,GPS,37.4284681599,-122.1699490189,32.3718305952385,1.4425374,8.438214,16.338251,1678498583999,0.60825753,14.110912,1933401538294000,8.188261,Walk
Fix,FLP,37.4284371,-122.1699435,-4.699999809265137,1.2703693,11.561,17.503555,1678498586633,,,1933401510004239,2.5020592,Walk
Fix,FLP,37.4284458,-122.1699401,-4.699999809265137,1.2793094,11.918,17.597607,1678498587175,,,1933402052574430,2.5020592,Walk
Fix,GPS,37.4284855469,-122.1699431044,32.65227725001825,1.490248,8.448401,15.661333,1678498584999,0.57884735,15.963201,1933402538250000,8.256337,Walk
Fix,FLP,37.428447,-122.1699395,-4.699999809265137,1.2857985,12.252,17.68252,1678498587718,,,1933402595144315,2.5125403,Walk
Fix,NLP,37.4284704,-122.1701304,-1.8000000715255735,,56.1,,1678498588164,,,1933403041000000,5.6864815,Walk
Fix,FLP,37.4284582,-122.169935,-4.699999809265137,1.3045272,13.004,17.854828,1678498588260,,,1933403137713468,2.183922,Walk
Fix,GPS,37.4285014885,-122.1699387323,32.99661950310351,1.5118139,8.458554,6.7245445,1678498585999,0.5482135,21.62868,1933403538303000,8.31664,Walk
Fix,FLP,37.4284595,-122.1699346,-4.699999809265137,1.3129852,13.136,17.824856,1678498588803,,,1933403680282255,2.208934,Walk
Fix,FLP,37.4284786,-122.1699277,-4.699999809265137,1.3356837,13.487,17.7484,1678498589345,,,1933404222847563,2.208934,Walk
Fix,GPS,37.4285105088,-122.169934183,32.99982533975142,1.4712496,8.500122,9.220346,1678498586999,0.55707544,25.489923,1933404538279000,8.397025,Walk
Fix,FLP,37.4284975,-122.1699213,-6.376757700702811,1.3609705,13.329,17.584885,1678498590403,,,1933405280000000,3.1182203,Walk
Fix,GPS,37.4285113842,-122.1699295023,32.877136821974645,1.3823142,8.527647,19.000923,1678498587999,0.63082814,29.431356,1933405538301000,8.482752,Walk
Fix,FLP,37.42851,-122.1699178,-4.699999809265137,1.3740337,12.911,17.273146,1678498590907,,,1933405784000000,3.8444784,Walk
Fix,FLP,37.4285188,-122.169915,-4.699999809265137,1.3769828,12.66,17.154108,1678498591407,,,1933406284605497,3.8444784,Walk
Fix,GPS,37.4285138541,-122.1699255646,33.22519181501569,1.3042283,8.559063,6.050657,1678498588999,0.56213397,21.764719,1933406538491000,8.562028,Walk
Fix,FLP,37.4285276,-122.1699123,-1.8000000715255735,1.3774288,12.141,16.987291,1678498591950,,,1933406827171781,3.9611862,Walk
Fix,FLP,37.4285358,-122.1699093,-1.8000000715255735,1.3763127,11.72,16.941244,1678498592492,,,1933407369735319,3.9611862,Walk
Fix,GPS,37.4285194463,-122.1699241871,33.29572928565519,1.250301,8.596717,7.536848,1678498589999,0.5621797,19.54051,1933407538296000,8.626651,Walk
Fix,FLP,37.428544,-122.169906,0.0376134725079424,1.3721905,11.202,16.87587,1678498593035,,,1933407912291654,3.9715161,Walk
Fix,NLP,37.4285258,-122.1701955,-1.8000000715255735,,52.4,,1678498593151,,,1933408028000000,5.583187,Walk
Fix,FLP,37.4285536,-122.1699019,-1.8000000715255735,1.3660668,9.875,16.809795,1678498593576,,,1933408454868925,3.4928212,Walk
Fix,GPS,37.4285288312,-122.1699199424,33.23884325520327,1.2404301,8.648278,2.4311495,1678498590999,0.5793253,17.979956,1933408538268000,8.697271,Walk
Fix,FLP,37.4285625,-122.1698976,-1.8000000715255735,1.3610651,9.751,16.754147,1678498594120,,,1933408997433927,3.4027212,Walk
Fix,FLP,37.4285713,-122.1698934,-4.699999809265137,1.359031,9.058,16.750849,1678498594662,,,1933409539998563,4.3666425,Walk
Fix,GPS,37.4285401481,-122.1699174669,33.22484457469332,1.2428027,8.700636,5.299638,1678498591999,0.66560113,22.283165,1933409538341000,8.763381,Walk
Fix,FLP,37.4285824,-122.1698877,-4.299999713897705,1.3545885,9.0,16.75349,1678498595205,,,1933410082563260,4.3462753,Walk
Fix,GPS,37.428554825,-122.1699144716,33.82142740050253,1.2789083,8.804239,4.0701776,1678498592999,0.6991936,20.604763,1933410538332000,8.833603,Walk
Fix,FLP,37.4285878,-122.169885,-6.9684572385292896,1.3536471,8.795,16.802208,1678498595748,,,1933410625127958,3.249774,Walk
Fix,FLP,37.4285998,-122.1698783,-6.9684572385292896,1.3513638,8.696,16.884766,1678498596284,,,1933411161437772,3.249774,Walk
Fix,GPS,37.4285692756,-122.1699117692,34.50276512290842,1.3073659,8.913087,351.4483,1678498593999,0.6666292,23.281683,1933411538369000,8.8969345,Walk
Fix,FLP,37.4286045,-122.1698755,-1.8000000715255735,1.3523563,8.619,16.877344,1678498596833,,,1933411710246122,3.2596602,Walk
Fix,FLP,37.4286165,-122.1698686,-1.8000000715255735,1.3513666,8.438,16.913778,1678498597375,,,1933412252821744,3.2596602,Walk
Fix,GPS,37.4285806183,-122.1699083967,34.79064723926634,1.3106867,8.980341,3.063016,1678498594999,0.5890488,16.72768,1933412538452000,8.916892,Walk
Fix,FLP,37.4286235,-122.1698633,-1.8000000715255735,1.3493305,8.167,17.083775,1678498597918,,,1933412795386198,3.2755327,Walk
Fix,NLP,37.42836,-122.1699839,-4.699999809265137,,135.6,,1678498598209,,,1933413086000000,41.6025,Walk
Fix,FLP,37.4286296,-122.1698591,-2.1055196872402817,1.3473091,7.869,17.339512,1678498598460,,,1933413337950223,4.1060305,Walk
Fix,GPS,37.4285926348,-122.1699025147,35.0746207234432,1.324759,9.022957,10.888739,1678498595999,0.66347283,18.047848,1933413538386000,8.939202,Walk
Fix,FLP,37.4286359,-122.1698552,-2.1055196872402817,1.3444631,7.44,17.602964,1678498599003,,,1933413880514005,3.4128032,Walk
Fix,FLP,37.4286412,-122.1698523,-2.1055196872402817,1.3435782,7.263,17.697304,1678498599546,,,1933414423077604,3.4128032,Walk
Fix,GPS,37.4286077629,-122.1698962348,34.641324219743936,1.3596201,9.005523,17.438923,1678498596999,0.55995667,19.582586,1933414538433000,8.931176,Walk
Fix,FLP,37.4286469,-122.1698495,-2.5,1.3399928,7.019,17.90983,1678498600088,,,1933414965639859,4.803759,Walk
Fix,GPS,37.4286208592,-122.1698894469,34.491540752150165,1.3729227,8.987706,21.628553,1678498597999,0.5588213,23.229776,1933415538441000,8.9241495,Walk
Fix,FLP,37.4286498,-122.1698485,-4.699999809265137,1.3401242,6.782,17.984928,1678498600631,,,1933415508204618,3.6143742,Walk
Fix,FLP,37.4286544,-122.1698471,-4.699999809265137,1.3356409,6.595,18.183712,1678498601173,,,1933416050767606,3.6143742,Walk
Fix,GPS,37.4286310421,-122.1698820929,34.588538156839725,1.3618882,8.97393,24.631138,1678498598999,0.55765474,25.659954,1933416538462000,8.911249,Walk
Fix,FLP,37.4286562,-122.1698465,-4.699999809265137,1.3357006,6.447,18.370646,1678498601716,,,1933416593330839,3.6306942,Walk
Fix,FLP,37.428661,-122.1698449,-4.699999809265137,1.3291585,6.319,18.759214,1678498602258,,,1933417135893522,3.6306942,Walk
Fix,GPS,37.4286427888,-122.1698768592,34.440830692103994,1.3582122,8.958327,16.650826,1678498599999,0.55326843,21.025547,1933417538615000,8.888593,Walk
Fix,FLP,37.428661,-122.1698448,-4.699999809265137,1.3290519,6.296,18.896862,1678498602801,,,1933417678455594,3.6225667,Walk
Fix,NLP,37.432041,-122.1698154,,,1000.0,,1678498602499,,,1933417376000000,,Walk
Fix,FLP,37.4286681,-122.1698415,-4.699999809265137,1.3175449,6.342,19.2127,1678498603344,,,1933418221017789,3.6225667,Walk
Fix,GPS,37.4286542856,-122.1698727654,34.13056936492174,1.3500283,8.928513,8.8187065,1678498600999,0.5421889,21.033741,1933418538502000,8.856961,Walk
Fix,FLP,37.4286672,-122.1698424,-2.5,1.3106676,6.337,19.160776,1678498603886,,,1933418763568570,3.6327515,Walk
Fix,FLP,37.4286691,-122.1698412,-2.5,1.3039784,6.35,19.275229,1678498604429,,,1933419306141263,3.6327515,Walk
Fix,GPS,37.4286705104,-122.169869678,34.258533095057686,1.3849452,8.90128,3.309695,1678498601999,0.5412436,14.340508,1933419538487000,8.818161,Walk
Fix,FLP,37.4286682,-122.1698412,-2.5,1.2978855,6.31,19.455984,1678498604971,,,1933419848702848,3.642703,Walk
Fix,FLP,37.4286719,-122.1698395,-2.5,1.2968938,6.322,19.607681,1678498605514,,,1933420391262540,3.642703,Walk
Fix,GPS,37.4286857143,-122.1698668905,34.19179580401562,1.4085438,8.8766365,12.588231,1678498602999,0.58787876,16.933638,1933420538454000,8.777057,Walk
Fix,FLP,37.428675,-122.1698386,-1.8000000715255735,1.297069,6.297,19.80707,1678498606056,,,1933420933825162,5.3683767,Walk
Fix,GPS,37.4287033287,-122.169864096,34.534267735225086,1.454476,8.842076,11.462685,1678498603999,0.5373241,13.386593,1933421538459000,8.730021,Walk
Fix,FLP,37.4286773,-122.1698378,-1.8000000715255735,1.3000774,6.302,19.87723,1678498606599,,,1933421476385526,5.3784065,Walk
Fix,FLP,37.4286826,-122.1698364,-1.8000000715255735,1.3050565,6.281,19.858156,1678498607141,,,1933422018935575,5.3784065,Walk
Fix,GPS,37.4287230014,-122.1698626241,35.06495025473144,1.5183448,8.8205185,3.3688953,1678498604999,0.55181503,11.871035,1933422538467000,8.699577,Walk
Fix,FLP,37.4286858,-122.1698355,-4.699999809265137,1.3109434,6.245,19.75339,1678498607684,,,1933422561506559,4.7177095,Walk
Fix,NLP,37.432041,-122.1698154,,,1000.0,,1678498607543,,,1933422420000000,,Walk
Fix,FLP,37.4286892,-122.1698354,-4.699999809265137,1.3224992,6.219,19.594395,1678498608227,,,1933423104069731,4.7177095,Walk
Fix,GPS,37.428743815,-122.1698631363,35.26309104439602,1.5890341,8.800734,1.9188262,1678498605999,0.60160685,11.287105,1933423538836000,8.681538,Walk
Fix,FLP,37.4286984,-122.1698331,-4.699999809265137,1.3314289,6.178,19.528269,1678498608769,,,1933423646627652,4.727663,Walk
Fix,FLP,37.4287081,-122.1698331,-4.699999809265137,1.3401192,6.775,18.409264,1678498609282,,,1933424159000000,4.727663,Walk
Fix,GPS,37.4287696115,-122.1698654787,35.64866077679961,1.6810776,8.795541,1.9188262,1678498606999,0.78581846,10.0,1933424538699000,8.683626,Walk
Fix,FLP,37.4287228,-122.1698364,-4.699999809265137,1.3645939,7.977,16.375982,1678498609854,,,1933424731747831,4.73763,Walk
Fix,FLP,37.4287323,-122.1698375,-4.699999809265137,1.3808974,8.604,15.70994,1678498610371,,,1933425248000000,4.73763,Walk
Fix,GPS,37.428783585,-122.169864355,35.83238327823363,1.6757712,8.844285,1.9188262,1678498607999,0.76193744,149.49243,1933425538605000,8.7061205,Walk
Fix,FLP,37.4287498,-122.1698418,-4.699999809265137,1.4111445,9.768,14.317495,1678498610939,,,1933425816862699,4.747651,Walk
Fix,FLP,37.428759,-122.1698442,-4.699999809265137,1.4266022,10.328,13.78696,1678498611463,,,1933426340000000,4.747651,Walk
Fix,GPS,37.4287996358,-122.1698620409,36.12030032951096,1.6858203,8.9204035,11.662618,1678498608999,0.6201811,17.256535,1933426538600000,8.751677,Walk
Fix,FLP,37.4287739,-122.1698473,-4.699999809265137,1.4522374,11.508,13.111175,1678498612023,,,1933426901988431,4.5771265,Walk
Fix,GPS,37.4288131925,-122.1698565092,36.60323491185744,1.6828272,9.005798,18.417316,1678498609999,0.63967645,17.006977,1933427538571000,8.821849,Walk
Fix,FLP,37.4287847,-122.1698497,-7.1512737769906,1.4737444,13.242,12.7086315,1678498612567,,,1933427444548307,4.587086,Walk
Fix,FLP,37.4287998,-122.1698487,-7.1512737769906,1.4941307,14.475,12.670334,1678498613110,,,1933427987108243,4.587086,Walk
Fix,GPS,37.4288204227,-122.1698489083,36.39421341116429,1.6297982,9.067755,7.629994,1678498610999,0.617549,25.299746,1933428538609000,8.909996,Walk
Fix,FLP,37.4288045,-122.169848,-7.221410507966098,1.5048223,14.456,12.76994,1678498613652,,,1933428529668180,5.485296,Walk
Fix,FLP,37.4288188,-122.1698451,-7.221410507966098,1.5169914,14.901,12.580836,1678498614195,,,1933429072215726,5.485296,Walk
Fix,GPS,37.4288240716,-122.169845699,36.29326696623977,1.5321715,9.142902,7.629994,1678498611999,0.6320804,25.390364,1933429538735000,9.010713,Walk
Fix,FLP,37.4288199,-122.1698455,-1.8000000715255735,1.5213995,14.842,12.320416,1678498614737,,,1933429614789029,5.4952555,Walk
Fix,FLP,37.4288332,-122.1698427,-1.8000000715255735,1.5232797,14.791,11.735463,1678498615280,,,1933430157345975,5.4952555,Walk
Fix,GPS,37.4288312031,-122.1698452138,36.079705664807534,1.464522,9.214861,353.18036,1678498612999,0.6167047,29.802208,1933430538657000,9.112684,Walk
Fix,FLP,37.4288338,-122.1698427,-1.8000000715255735,1.5234443,14.866,11.386299,1678498615822,,,1933430699904935,5.508383,Walk
Fix,FLP,37.4288463,-122.1698405,-1.8000000715255735,1.5130013,15.065,10.146287,1678498616364,,,1933431242464078,5.508383,Walk
Fix,GPS,37.4288373995,-122.1698427495,35.57483918197778,1.3940034,9.314538,353.18036,1678498613999,0.6662697,47.02451,1933431538694000,9.214777,Walk
Fix,FLP,37.4288524,-122.1698409,-7.379581560578465,1.495419,15.106,8.448805,1678498616908,,,1933431785025419,5.5184107,Walk
Fix,GPS,37.4288407791,-122.1698387581,35.56786192008618,1.2121595,9.450246,353.18036,1678498614999,0.6833249,80.094666,1933432538639000,9.299636,Walk
Fix,FLP,37.4288547,-122.1698417,-7.674928645439408,1.4869434,15.112,7.5980887,1678498617450,,,1933432327577971,5.36622,Walk
Fix,FLP,37.4288606,-122.1698423,-7.674928645439408,1.4626273,14.868,6.101174,1678498617993,,,1933432870139188,5.36622,Walk
Fix,GPS,37.428848737,-122.1698350798,36.41623399999394,1.1729912,9.588809,353.2507,1678498615999,0.67230856,34.02993,1933433538682000,9.385837,Walk
Fix,FLP,37.4288615,-122.1698435,-7.674928645439408,1.4495561,14.709,5.422829,1678498618535,,,1933433412697233,5.37621,Walk
Fix,FLP,37.4288681,-122.1698433,-7.674928645439408,1.4224168,14.12,4.4470515,1678498619078,,,1933433955255033,5.37621,Walk
Fix,GPS,37.4288573525,-122.1698337776,36.83705702858993,1.149779,9.827849,353.2507,1678498616999,1.0487431,180.0,1933434538649000,9.497594,Walk
Fix,FLP,37.4288689,-122.1698433,-4.699999809265137,1.411863,13.781,4.058896,1678498619619,,,1933434497812650,5.2973523,Walk
Fix,FLP,37.4288768,-122.1698416,-4.699999809265137,1.3873698,12.995,3.5580983,1678498620163,,,1933435040370023,5.2973523,Walk
Fix,GPS,37.4288662766,-122.1698318808,37.729113534148574,1.1316512,10.011048,353.2507,1678498617999,0.82553977,25.39947,1933435538706000,9.531743,Walk
Fix,FLP,37.4288774,-122.169841,-4.699999809265137,1.3786286,12.473,3.418638,1678498620705,,,1933435582914762,5.307419,Walk
Fix,FLP,37.4288868,-122.169838,-4.699999809265137,1.3556267,11.137,3.4781153,1678498621248,,,1933436125474576,5.307419,Walk
Fix,GPS,37.4288810279,-122.1698243949,38.19731036048136,1.1861215,10.0851965,26.032618,1678498618999,0.73926395,28.650318,1933436538759000,9.534704,Walk
Fix,FLP,37.4288869,-122.1698369,-4.699999809265137,1.3478885,10.926,3.5913827,1678498621791,,,1933436668041715,5.318861,Walk
Fix,GPS,37.4288924546,-122.1698175023,38.73668822355113,1.211267,10.07703,24.21114,1678498619999,0.6988673,25.540373,1933437538815000,9.507553,Walk
Fix,FLP,37.4288987,-122.1698326,-4.699999809265137,1.3303791,9.445,4.069425,1678498622850,,,1933437727000000,5.328881,Walk
Fix,FLP,37.4289044,-122.1698274,-4.699999809265137,1.3166459,8.788,4.8169694,1678498623375,,,1933438252000000,5.3288856,Walk
Fix,GPS,37.4289022281,-122.1698128152,39.03527667727565,1.2121941,10.0067215,24.619558,1678498620999,0.6591458,24.643332,1933438538752000,9.455875,Walk
Fix,FLP,37.4289074,-122.1698217,-4.699999809265137,1.30258,8.176,5.7253237,1678498623961,,,1933438838269010,5.411875,Walk
Fix,FLP,37.4289122,-122.1698183,-4.699999809265137,1.2976257,8.184,6.193793,1678498624485,,,1933439362000000,5.411875,Walk
Fix,GPS,37.4289125693,-122.1698095151,39.48235090478766,1.2073675,9.967007,17.486645,1678498621999,0.67290264,27.158506,1933439538983000,9.41837,Walk
Fix,FLP,37.4289184,-122.1698111,-4.699999809265137,1.2806226,8.027,7.409348,1678498625046,,,1933439923384672,5.4218583,Walk
Fix,GPS,37.4289242588,-122.1698067913,39.95034965106933,1.211214,9.949278,9.07421,1678498622999,0.682732,26.752838,1933440538742000,9.381832,Walk
Fix,FLP,37.42892,-122.1698088,-2.5,1.2773777,8.057,7.857335,1678498625588,,,1933440465934659,4.0935297,Walk
Fix,FLP,37.4289245,-122.1698052,-2.5,1.2736098,8.054,8.318588,1678498626131,,,1933441008493558,4.0935297,Walk
Fix,GPS,37.4289320193,-122.169807396,39.8617657098756,1.1800144,9.902629,5.510052,1678498623999,0.66528386,26.536114,1933441538805000,9.336692,Walk
Fix,FLP,37.4289283,-122.1698006,0.6025645490230147,1.2665333,8.077,8.961069,1678498626674,,,1933441551049283,4.1035028,Walk
Fix,FLP,37.4289335,-122.1697971,0.6025645490230147,1.2619398,8.117,9.112597,1678498627225,,,1933442102000000,4.1035028,Walk
Fix,GPS,37.4289423256,-122.169804718,39.91156150093239,1.1738565,9.823017,26.060333,1678498624999,0.64070356,29.553917,1933442538916000,9.2738285,Walk
Fix,FLP,37.4289371,-122.1697933,2.8966747498577377,1.2533069,8.137,9.294246,1678498627759,,,1933442636160306,4.11349,Walk
Fix,FLP,37.4289445,-122.1697894,2.8966747498577377,1.2504569,8.129,9.5336895,1678498628284,,,1933443161437772,4.11349,Walk
Fix,FLP,37.42895,-122.1697864,2.8966747498577377,1.2481909,8.188,9.8256235,1678498628824,,,1933443701000000,4.11349,Walk
Fix,GPS,37.4289485658,-122.1698012659,39.46986454832466,1.1350521,9.747816,26.060333,1678498625999,0.79890597,29.800808,1933443538866000,9.204514,Walk
Fix,FLP,37.4289578,-122.169781,-0.801232233073641,1.2405236,8.201,10.402183,1678498629386,,,1933444263825345,3.3784523,Walk
Fix,GPS,37.4289548382,-122.1697994019,39.45871989081834,1.0981486,9.666899,20.246326,1678498626999,0.63580024,26.791597,1933444538874000,9.149167,Walk
Fix,FLP,37.4289619,-122.1697773,-2.5,1.2295417,8.121,10.877949,1678498629929,,,1933444806371183,3.388373,Walk
Fix,FLP,37.4289687,-122.1697736,-2.5,1.2252897,8.077,11.044814,1678498630470,,,1933445348934476,3.388373,Walk
Fix,GPS,37.4289659626,-122.1697949759,39.60404301079353,1.1085787,9.588197,29.526958,1678498627999,0.6203205,28.75918,1933445539088000,9.112406,Walk
Fix,FLP,37.4289737,-122.1697696,-2.5,1.2162238,7.993,11.356454,1678498631013,,,1933445891488981,3.387104,Walk
Fix,FLP,37.4289803,-122.1697665,-2.5,1.2129353,7.964,11.675346,1678498631556,,,1933446434043607,3.387104,Walk
Fix,GPS,37.4289805732,-122.1697908015,39.31551823493042,1.1474464,9.506437,12.217075,1678498628999,0.61260587,21.986547,1933446538847000,9.078749,Walk
Fix,FLP,37.4289857,-122.1697631,-2.5,1.2074841,7.904,12.240484,1678498632099,,,1933446976597562,3.3970625,Walk
Fix,FLP,37.4289928,-122.16976,-2.5,1.2066482,7.826,12.693004,1678498632642,,,1933447519151273,3.3970625,Walk
Fix,GPS,37.4289974213,-122.1697876777,39.49061809225223,1.2083347,9.451453,12.901396,1678498629999,0.62578934,14.690791,1933447538896000,9.039874,Walk
Fix,FLP,37.4289994,-122.1697565,-1.8000000715255735,1.2058054,7.805,13.491779,1678498633184,,,1933448061705045,5.2086477,Walk
Fix,FLP,37.4290066,-122.1697531,-1.8000000715255735,1.2077197,7.683,13.881741,1678498633727,,,1933448604258512,5.218668,Walk
Fix,GPS,37.429011679,-122.1697834918,39.19641302278113,1.2446774,9.387754,8.271745,1678498630999,0.6159961,16.208199,1933448538909000,9.0194235,Walk
Fix,FLP,37.429014,-122.1697494,-1.8000000715255735,1.2111504,7.656,14.369211,1678498634269,,,1933449146000000,5.2187543,Walk
Fix,GPS,37.4290225566,-122.1697803289,39.04738663367591,1.2435733,9.351654,10.474334,1678498631999,0.70409566,25.895042,1933449538926000,9.002942,Walk
Fix,FLP,37.4290211,-122.1697466,-1.8000000715255735,1.2142293,7.619,14.426793,1678498634812,,,1933449689365140,5.2187543,Walk
Fix,FLP,37.4290294,-122.1697437,-4.699999809265137,1.2176,7.565,14.421386,1678498635380,,,1933450257000000,7.8448873,Walk
Fix,GPS,37.4290413098,-122.1697786543,39.180968274878886,1.3119297,9.31783,10.338684,1678498632999,0.62489957,14.490562,1933450538920000,8.991578,Walk
Fix,FLP,37.4290354,-122.1697427,-4.699999809265137,1.2223396,7.453,14.207969,1678498635903,,,1933450780000000,7.855314,Walk
Fix,GPS,37.4290588487,-122.1697764646,39.03688839341023,1.3662895,9.2893,9.532721,1678498633999,0.6244726,14.556424,1933451538978000,9.004175,Walk
Fix,FLP,37.4290435,-122.169741,-4.699999809265137,1.2285272,7.302,13.976097,1678498636440,,,1933451317024076,7.8656096,Walk
Fix,FLP,37.4290509,-122.1697395,-4.699999809265137,1.2358458,7.189,13.869992,1678498636982,,,1933451859576566,7.8656096,Walk
Fix,GPS,37.4290752012,-122.1697744358,39.42515027637108,1.4037673,9.23857,6.018323,1678498634999,0.60498744,16.055025,1933452538979000,9.003643,Walk
Fix,FLP,37.4290551,-122.1697386,-7.338478271544524,1.2424397,7.128,13.761012,1678498637525,,,1933452402128995,7.8768744,Walk
Fix,FLP,37.4290641,-122.169737,-7.338478271544524,1.2524763,7.015,13.370438,1678498638067,,,1933452944681364,7.8768744,Walk
Fix,GPS,37.4290871859,-122.1697740916,39.20922457584498,1.3986511,9.190202,355.5834,1678498635999,0.6042502,17.002985,1933453538983000,9.000527,Walk
Fix,FLP,37.429068,-122.1697367,-4.699999809265137,1.2597157,6.978,12.9771385,1678498638610,,,1933453487233732,6.8401446,Walk
Fix,FLP,37.4290789,-122.1697359,-4.699999809265137,1.2698654,6.923,12.16108,1678498639152,,,1933454029786039,6.8401446,Walk
Fix,GPS,37.4290962394,-122.1697779922,38.123539818604414,1.3738239,9.147212,342.0547,1678498636999,0.5954202,16.794912,1933454539326000,8.990338,Walk
Fix,FLP,37.4290824,-122.1697363,-1.8000000715255735,1.276673,6.913,11.68505,1678498639695,,,1933454572326932,6.845588,Walk
Fix,FLP,37.4290946,-122.1697366,-1.8000000715255735,1.2835757,6.937,10.468671,1678498640236,,,1933455114890287,6.845588,Walk
Fix,GPS,37.4291086235,-122.1697846264,38.220335951146254,1.3826203,9.100087,343.70184,1678498637999,0.5981749,17.785507,1933455539000000,8.955389,Walk
Fix,FLP,37.4290973,-122.1697379,-4.699999809265137,1.2864498,6.986,9.455776,1678498640780,,,1933455657442106,7.2304487,Walk
Fix,FLP,37.4291109,-122.1697406,-4.699999809265137,1.2878577,7.111,7.192336,1678498641284,,,1933456161437772,7.2304487,Walk
Fix,GPS,37.4291172344,-122.1697910858,38.2843748148206,1.3571941,9.006659,340.28516,1678498638999,0.5584442,23.452433,1933456538966000,8.917964,Walk
Fix,FLP,37.4291196,-122.1697459,-4.699999809265137,1.2864074,7.154,4.614231,1678498641865,,,1933456742545560,7.2400055,Walk
Fix,FLP,37.4291262,-122.1697496,-4.699999809265137,1.2810767,7.232,2.9033709,1678498642408,,,1933457285091580,7.2400055,Walk
Fix,GPS,37.4291207812,-122.1697973465,37.82372521652275,1.2961918,8.947634,311.36264,1678498639999,0.58130074,40.116653,1933457539084000,8.8993,Walk
Fix,FLP,37.4291348,-122.1697578,-4.699999809265137,1.2609389,7.264,359.50812,1678498642950,,,1933457827645414,7.1971455,Walk
Fix,GPS,37.4291236929,-122.1698055804,37.51794569073768,1.249988,8.914109,308.52924,1678498640999,0.58666205,29.309376,1933458539053000,8.89221,Walk
Fix,FLP,37.4291379,-122.1697634,-8.068773815369397,1.2419274,7.325,357.60358,1678498643493,,,1933458370188199,7.224968,Walk
Fix,FLP,37.4291447,-122.1697752,-8.068773815369397,1.1965138,7.336,353.72287,1678498644035,,,1933458912751615,7.224968,Walk
Fix,GPS,37.4291270226,-122.1698139423,37.57773034168655,1.20903,8.898767,322.08514,1678498641999,0.5971162,34.166237,1933459539096000,8.883267,Walk
Fix,FLP,37.4291458,-122.1697815,-1.8000000715255735,1.1680819,7.349,351.66464,1678498644578,,,1933459455302824,6.8042617,Walk
Fix,FLP,37.4291515,-122.1697983,-1.8000000715255735,1.1001438,7.316,347.0354,1678498645626,,,1933460503000000,6.8042617,Walk
Fix,GPS,37.4291333775,-122.1698255119,37.33896129489997,1.2057956,8.894561,317.31506,1678498642999,0.61471266,26.044594,1933460539031000,8.876296,Walk
Fix,FLP,37.4291533,-122.1698183,-1.8000000715255735,0.9969378,7.169,339.46194,1678498646205,,,1933461082956632,6.8144317,Walk
Fix,GPS,37.4291354761,-122.1698406654,36.74567589522072,1.2148888,8.906117,285.55475,1678498643999,0.6576441,23.29758,1933461539218000,8.867085,Walk
Fix,FLP,37.4291518,-122.1698237,-1.8000000715255735,0.9640588,7.142,336.66595,1678498646748,,,1933461625510832,6.8242826,Walk
Fix,FLP,37.4291549,-122.1698408,-1.8000000715255735,0.9030128,7.03,330.22467,1678498647788,,,1933462665000000,6.8242826,Walk
Fix,GPS,37.4291352914,-122.1698584656,36.13144222789779,1.245779,8.943256,284.9274,1678498644999,0.5899357,18.21862,1933462539126000,8.838225,Walk
Fix,GPS,37.4291370816,-122.1698763257,36.07152195005855,1.271364,8.972452,280.4611,1678498645999,0.5489492,25.071646,1933463539158000,8.808083,Walk
Fix,FLP,37.429154,-122.169858,-13.150436222910074,0.8440706,6.879,320.57687,1678498648376,,,1933463253161283,6.8145165,Walk
Fix,FLP,37.4291537,-122.1698645,-13.150436222910074,0.84101605,6.777,317.66513,1678498648907,,,1933463784000000,6.8145165,Walk
Fix,GPS,37.4291405185,-122.1698929172,36.15639197911247,1.288979,9.053642,289.33,1678498646999,0.6348755,23.347332,1933464539135000,8.803832,Walk
Fix,FLP,37.4291542,-122.169876,-1.8000000715255735,0.83990246,6.627,312.29913,1678498649461,,,1933464338253263,7.780777,Walk
Fix,FLP,37.4291546,-122.1698824,-1.8000000715255735,0.84504557,6.581,309.82666,1678498649965,,,1933464842000000,7.780777,Walk
Fix,FLP,37.4291555,-122.169891,-1.8000000715255735,0.84182894,6.503,306.4618,1678498650481,,,1933465358000000,7.780777,Walk
Fix,GPS,37.4291434823,-122.1699084978,36.318946997273976,1.2973944,9.008326,284.53204,1678498647999,0.54582393,20.870165,1933465539086000,8.707651,Walk
Fix,GPS,37.4291426798,-122.1699280823,35.34637587184891,1.3284824,8.93675,278.68027,1678498648999,0.38015375,16.875618,1933466539112000,8.623313,Walk
Fix,FLP,37.4291626,-122.1699011,8.860976528418277,0.87190557,7.837,304.1506,1678498651581,,,1933466458733749,10.09135,Walk
Fix,FLP,37.4291658,-122.1699076,8.860976528418277,0.8902063,8.32,303.23935,1678498652088,,,1933466965114120,10.09135,Walk
Fix,FLP,37.429169,-122.1699148,8.860976528418277,0.90959066,8.882,302.54077,1678498652594,,,1933467471495040,10.09135,Walk
Fix,GPS,37.4291452011,-122.169944746,35.66151944731051,1.3436791,8.902417,300.20804,1678498649999,0.36303034,11.363282,1933467539115000,8.57359,Walk
Fix,FLP,37.4291717,-122.1699271,9.675118050537236,0.9460566,9.595,301.09616,1678498653100,,,1933467977873641,10.483391,Walk
Fix,GPS,37.429149527,-122.1699604414,35.0414767394565,1.3562989,8.8552685,298.7938,1678498650999,0.32802424,10.642366,1933468539125000,8.519767,Walk
Fix,FLP,37.4291727,-122.1699348,0.4724013754274381,0.9642356,9.642,300.30518,1678498653607,,,1933468484245528,6.186672,Walk
Fix,FLP,37.4291743,-122.1699491,0.4724013754274381,0.9961556,10.474,298.83276,1678498654113,,,1933468990642745,6.186672,Walk
Fix,GPS,37.4291576579,-122.1699749959,34.402610947556255,1.3716717,8.403627,284.0808,1678498651999,0.043282088,10.0,1933469539156000,7.841289,Walk
Fix,FLP,37.4291741,-122.1699543,-6.621489479859818,1.011771,10.713,298.15225,1678498654620,,,1933469497027938,6.1981277,Walk
Fix,NLP,37.4289236,-122.1706026,-4.699999809265137,,34.25,,1678498654735,,,1933469612000000,11.435739,Walk
Fix,FLP,37.4291754,-122.1699709,-6.621489479859818,1.0378095,11.01,296.8992,1678498655126,,,1933470003417709,6.726053,Walk
Fix,GPS,37.4291490205,-122.169982131,34.20593599221774,1.3554701,7.9741845,295.1283,1678498652999,0.31140786,10.914684,1933470539164000,7.655046,Walk
Fix,FLP,37.4291747,-122.169974,-8.03986054121932,1.0395095,11.169,296.77478,1678498655632,,,1933470509803817,5.1531205,Walk
Fix,FLP,37.4291762,-122.1699854,-8.03986054121932,1.050599,10.381,295.9225,1678498656139,,,1933471016180831,5.1531205,Walk
Fix,GPS,37.42914793,-122.1699901229,32.82880846090543,1.3131292,7.6221657,281.4231,1678498653999,0.46429917,16.72281,1933471539182000,7.479187,Walk
Fix,FLP,37.4291756,-122.1699872,-9.538818030662696,1.0627956,9.783,295.24268,1678498656645,,,1933471522583846,4.797523,Walk
Fix,FLP,37.4291783,-122.1700005,-9.538818030662696,1.085263,9.046,294.5441,1678498657658,,,1933472535370529,4.797523,Walk
Fix,GPS,37.4291461391,-122.1700036282,32.66975990990272,1.3147236,7.382788,283.62793,1678498654999,0.3535773,10.367458,1933472539193000,7.329102,Walk
Fix,NLP,37.4291233,-122.1705509,-1.899999976158142,,26.351,,1678498657903,,,1933472780000000,6.0987086,Walk
Fix,FLP,37.4291796,-122.1700146,-10.113262683996794,1.1123646,9.019,294.274,1678498658164,,,1933473041765365,4.2943406,Walk
Fix,GPS,37.4291485864,-122.1700188421,32.45052247966118,1.3222502,7.197259,283.8788,1678498655999,0.040303253,10.0,1933473539193000,7.1636896,Walk
Fix,FLP,37.4291835,-122.1700402,-10.432438567989069,1.1269656,8.898,293.8712,1678498658832,,,1933473709299074,6.276641,Walk
Fix,GPS,37.4291542177,-122.1700349434,32.46024110144506,1.3389343,7.0330796,286.423,1678498656999,0.30484447,13.878012,1933474539227000,7.019784,Walk
Fix,FLP,37.4291879,-122.1700569,-10.458013037189744,1.1343523,8.938,293.73505,1678498659849,,,1933474726364830,6.2865424,Walk
Fix,GPS,37.4291596238,-122.1700521038,32.24683186416466,1.3577976,6.798728,263.50858,1678498657999,0.31069866,14.433039,1933475539247000,6.8898263,Walk
Fix,FLP,37.4291903,-122.1700637,-10.55519531452083,1.1396517,9.074,293.725,1678498660662,,,1933475539247000,6.298105,Walk
Fix,GPS,37.4291633052,-122.1700669043,32.13564745610352,1.3533103,6.6254635,269.15668,1678498658999,0.3324391,16.407522,1933476539253000,6.7689266,Walk
Fix,FLP,37.4291702,-122.1700687,-10.446248790966784,1.2783631,8.745,271.71243,1678498661662,0.3324391,16.407522,1933476539253000,7.904576,Walk
Fix,GPS,37.4291619503,-122.1700786223,31.938361102261428,1.3227618,6.688631,267.0541,1678498659999,0.49582118,32.3784,1933477539271000,6.6975517,Walk
Fix,FLP,37.4291658,-122.1700789,-10.071318803340588,1.3065889,8.381,270.50424,1678498662662,0.49582118,32.3784,1933477539271000,7.9166174,Walk
Fix,NLP,37.4289468,-122.1705068,1.899999976158142,,35.829,,1678498662907,,,1933477784000000,7.247739,Walk
Fix,FLP,37.4291656,-122.1700832,-10.071318803340588,1.2989324,58.816,271.24716,1678498662907,,,1933477784000000,7.931352,Walk
Fix,FLP,37.4291625,-122.1700978,-10.071318803340588,1.300512,29.653,271.17255,1678498663481,,,1933478358947982,7.931352,Walk
Fix,GPS,37.4291587875,-122.1700894359,31.939420225604955,1.2948766,6.81244,238.106,1678498660999,0.5706612,25.141048,1933478539314000,6.6531887,Walk
Fix,NLP,37.4290074,-122.1706007,-4.699999809265137,,29.54,,1678498663828,,,1933478706000000,8.364785,Walk
Fix,FLP,37.4291555,-122.1701189,-9.979757657914943,1.3051528,21.936,270.97372,1678498663997,,,1933478874380416,5.5727305,Walk
Fix,GPS,37.4291539439,-122.170101399,32.11376069284841,1.2828567,7.081275,251.626,1678498661999,0.7710726,36.09555,1933479539362000,6.6701984,Walk
Fix,FLP,37.4291492,-122.1701364,-9.926048144628034,1.3104562,19.617,270.77203,1678498664711,,,1933479588778060,5.568634,Walk
Fix,FLP,37.4291475,-122.1701518,-9.926048144628034,1.3027431,18.85,271.95322,1678498665218,,,1933480095179183,5.568634,Walk
Fix,GPS,37.4291544761,-122.1701168235,31.988687211085924,1.2864401,7.3179445,284.74347,1678498662999,0.6978591,32.32928,1933480539376000,6.693948,Walk
Fix,FLP,37.4291452,-122.1701592,-11.883411611841694,1.2858571,17.773,274.29297,1678498665724,,,1933480601580551,5.659799,Walk
Fix,FLP,37.4291452,-122.1701749,-11.883411611841694,1.2617936,17.065,276.8868,1678498666229,,,1933481107980392,5.659799,Walk
Fix,GPS,37.4291590947,-122.1701277477,32.42794518199608,1.2667006,7.5541778,306.84445,1678498663999,0.5293448,29.05206,1933481539364000,6.7327933,Walk
Fix,FLP,37.4291453,-122.1701751,-16.32684157663863,1.2469354,16.829,278.23157,1678498666737,,,1933481614383285,5.669839,Walk
Fix,FLP,37.4291467,-122.1701829,-16.32684157663863,1.2261139,16.641,279.72327,1678498667243,,,1933482120784408,5.669839,Walk
Fix,FLP,37.4291411,-122.170194,-16.32684157663863,1.2282033,16.408,279.39835,1678498667750,,,1933482627185226,5.669839,Walk
Fix,GPS,37.4291627473,-122.170140225,32.6730677020134,1.2518423,7.7395353,269.08862,1678498664999,0.49951604,34.16479,1933482539347000,6.7860556,Walk
Fix,FLP,37.4291343,-122.1702086,-18.324626829953285,1.2285008,13.414,280.17923,1678498668256,,,1933483133575057,5.678822,Walk
Fix,GPS,37.4291651218,-122.1701525132,32.59062575221211,1.2340786,7.910946,282.9039,1678498665999,0.8167861,42.059284,1933483539418000,6.8200846,Walk
Fix,FLP,37.429133,-122.1702167,-18.324626829953285,1.2271262,13.078,281.24942,1678498668762,,,1933483639986068,5.678822,Walk
Fix,NLP,37.429224,-122.1704107,-1.899999976158142,,52.398,,1678498668829,,,1933483706000000,10.782665,Walk
Fix,FLP,37.4291311,-122.170229,-10.85952206082689,1.2209642,13.241,284.29846,1678498669269,,,1933484146386154,7.2093143,Walk
Fix,GPS,37.4291728469,-122.1701674569,32.26676243870973,1.2535428,8.07361,315.82233,1678498666999,0.51809776,25.37731,1933484539444000,6.8609157,Walk
Fix,FLP,37.4291314,-122.1702323,-6.963312064027214,1.2183036,13.388,285.3581,1678498669775,,,1933484652785812,7.3977847,Walk
Fix,FLP,37.4291334,-122.170243,-6.963312064027214,1.2135327,13.55,287.408,1678498670282,,,1933485159184982,7.3977847,Walk
Fix,GPS,37.4291775672,-122.1701790266,32.14660216939932,1.2358788,8.123322,283.19296,1678498667999,0.57653266,41.541214,1933485539416000,6.9133706,Walk
Fix,FLP,37.4291342,-122.170246,-6.432662395191379,1.2126764,13.653,288.39655,1678498670788,,,1933485665587082,7.4212832,Walk
Fix,FLP,37.4291381,-122.1702579,-6.432662395191379,1.2101912,13.867,290.28857,1678498671294,,,1933486171971725,7.4212832,Walk
Fix,GPS,37.4291844555,-122.17019348,31.78400815354138,1.2500252,8.131803,305.2569,1678498668999,0.51707184,21.805502,1933486539430000,6.9715734,Walk
Fix,FLP,37.4291391,-122.1702598,-1.899999976158142,1.2096604,13.929,291.1935,1678498671801,,,1933486678382003,7.4551253,Walk
Fix,FLP,37.4291429,-122.1702737,-1.899999976158142,1.2101036,13.996,292.01587,1678498672307,,,1933487184780197,7.4551253,Walk
Fix,GPS,37.4291953992,-122.1702088306,31.54660643808108,1.2922004,8.246213,317.52957,1678498669999,0.53295195,19.358719,1933487539478000,7.060849,Walk
Fix,FLP,37.4291441,-122.1702764,-1.899999976158142,1.2122114,14.027,292.032,1678498672826,,,1933487703886520,7.4237413,Walk
Fix,FLP,37.429149,-122.1702915,-1.899999976158142,1.2177706,14.123,292.72964,1678498673334,,,1933488211137540,7.4237413,Walk
Fix,GPS,37.4292028516,-122.1702199072,31.367529290001777,1.2876554,8.242966,308.49323,1678498670999,0.5223772,25.719559,1933488539464000,7.1445823,Walk
Fix,NLP,37.429242,-122.1703354,-4.699999809265137,,46.584,,1678498673853,,,1933488730000000,32.467278,Walk
Fix,FLP,37.4291509,-122.1702956,0.3715083467584179,1.2251273,14.134,294.021,1678498673876,,,1933488753706083,13.81702,Walk
Fix,FLP,37.4291557,-122.1703087,0.3715083467584179,1.2316011,14.134,295.01056,1678498674419,,,1933489296274259,13.81702,Walk
Fix,GPS,37.429213676,-122.1702330484,31.17303851367153,1.3157251,8.211567,309.72623,1678498671999,0.5184422,20.235874,1933489539527000,7.2291784,Walk
Fix,FLP,37.4291577,-122.1703176,-1.140206440122398,1.2385727,14.128,295.49503,1678498674961,,,1933489838839262,14.159433,Walk
Fix,FLP,37.42916,-122.1703255,-1.140206440122398,1.2426127,14.088,295.66837,1678498675503,,,1933490381409391,14.159433,Walk
Fix,GPS,37.4292281362,-122.1702476841,31.273796819928425,1.3754522,8.207109,321.7641,1678498672999,0.50797606,15.486612,1933490539436000,7.310191,Walk
Fix,FLP,37.4291626,-122.1703345,-4.699999809265137,1.2516589,14.086,295.9548,1678498676046,,,1933490923978543,13.998288,Walk
Fix,GPS,37.4292428239,-122.1702664722,31.32635979138308,1.4509369,8.23205,322.05084,1678498673999,0.55437136,15.828497,1933491539626000,7.408697,Walk
Fix,FLP,37.4291643,-122.1703399,-4.699999809265137,1.2576451,14.038,296.0872,1678498676589,,,1933491466542936,8.1503315,Walk
Fix,FLP,37.4291677,-122.1703496,-4.699999809265137,1.2704657,14.062,296.28583,1678498677132,,,1933492009109403,8.1503315,Walk
Fix,GPS,37.4292567663,-122.1702797972,31.57341446788593,1.4886117,8.282216,321.56085,1678498674999,0.6555241,20.772583,1933492539505000,7.504992,Walk
Fix,FLP,37.4291694,-122.1703542,-1.1079470573202244,1.2786508,14.198,296.37872,1678498677674,,,1933492551675138,8.45135,Walk
Fix,FLP,37.4291733,-122.1703646,-1.1079470573202244,1.2939705,14.346,296.5553,1678498678216,,,1933493094240751,8.45135,Walk
Fix,GPS,37.4292680445,-122.1702946185,31.64942565020211,1.5134842,8.329671,310.90335,1678498675999,0.5838489,18.021765,1933493539517000,7.6067843,Walk
Fix,FLP,37.429175,-122.1703686,-2.135578319811472,1.3025055,14.45,296.63422,1678498678759,,,1933493636808622,8.454507,Walk
Fix,NLP,37.4292379,-122.1703246,1.899999976158142,,35.283,,1678498678875,,,1933493752000000,10.392115,Walk
Fix,FLP,37.4291807,-122.1703794,-2.7975586084832926,1.3166386,14.739,296.8383,1678498679283,,,1933494161437772,6.138768,Walk
Fix,GPS,37.4292788642,-122.1703090922,31.84377884404951,1.5299165,8.370069,316.8644,1678498676999,0.56920975,19.078371,1933494539656000,7.713312,Walk
Fix,FLP,37.4291826,-122.1703815,-1.1079470573202244,1.3172396,14.854,296.8854,1678498679844,,,1933494721933805,5.1996512,Walk
Fix,FLP,37.4292028,-122.1703819,-1.1079470573202244,1.3197402,14.938,298.73734,1678498680387,,,1933495264493558,5.1996512,Walk
Fix,GPS,37.4292877036,-122.1703255831,31.10361768315472,1.5413938,8.36967,308.2098,1678498677999,0.50497764,22.305553,1933495539614000,7.776574,Walk
Fix,FLP,37.4292277,-122.170373,-1.899999976158142,1.3315258,14.812,301.27563,1678498680930,,,1933495807060453,4.8033104,Walk
Fix,FLP,37.4292396,-122.1703721,-1.899999976158142,1.3400614,14.753,302.14444,1678498681472,,,1933496349623014,4.8033104,Walk
Fix,GPS,37.4292990085,-122.1703394402,30.9241007623955,1.5498682,8.374631,324.75372,1678498678999,0.49778116,21.042109,1933496539582000,7.8376064,Walk
Fix,FLP,37.4292586,-122.1703701,-1.899999976158142,1.3515689,14.579,304.21936,1678498682015,,,1933496892174039,4.813367,Walk
Fix,FLP,37.4292689,-122.1703715,-1.899999976158142,1.356274,14.425,305.53323,1678498682556,,,1933497434746793,4.813367,Walk
Fix,GPS,37.4293060969,-122.1703517999,30.67483934583392,1.5219545,8.377588,299.2729,1678498679999,0.51801884,34.02067,1933497539676000,7.9003663,Walk
Fix,FLP,37.4292819,-122.1703727,-1.899999976158142,1.366886,14.251,306.60464,1678498683100,,,1933497977308500,6.648613,Walk
Fix,FLP,37.4292886,-122.1703764,-1.899999976158142,1.3735126,14.106,306.67078,1678498683642,,,1933498519869291,6.648613,Walk
Fix,GPS,37.4293131896,-122.1703643788,30.71580406467553,1.4968945,8.40083,324.4978,1678498680999,0.5212108,27.880545,1933498539597000,7.9529104,Walk
Fix,FLP,37.4293002,-122.1703811,-1.899999976158142,1.380559,13.843,307.70404,1678498684185,,,1933499062430143,6.5169716,Walk
Fix,NLP,37.4291666,-122.1704789,-4.699999809265137,,40.386,,1678498683891,,,1933498768000000,12.375552,Walk
Fix,FLP,37.4293126,-122.1703878,-1.899999976158142,1.3832475,13.466,309.478,1678498684727,,,1933499604990446,7.001001,Walk
Fix,GPS,37.4293286622,-122.1703762022,30.939740935065764,1.5258443,8.413813,319.87976,1678498681999,0.5313914,21.716995,1933499539700000,7.993521,Walk
Fix,FLP,37.4293234,-122.1703912,-1.899999976158142,1.3890064,13.194,311.01443,1678498685269,,,1933500147547330,7.0043216,Walk
Fix,GPS,37.4293383865,-122.1703870302,30.93532877407609,1.508642,8.4266205,320.33676,1678498682999,0.52022636,24.944183,1933500539637000,8.03146,Walk
Fix,FLP,37.4293305,-122.1703943,-1.899999976158142,1.3921075,13.057,311.86914,1678498685813,,,1933500690110074,7.0043216,Walk
Fix,FLP,37.4293401,-122.1703998,-2.1094666656613867,1.3987565,12.998,313.12793,1678498686355,,,1933501232669401,8.470092,Walk
Fix,GPS,37.4293458225,-122.1703949749,30.89967212201989,1.4631622,8.432753,304.36847,1678498683999,0.5823683,38.444237,1933501539682000,8.064461,Walk
Fix,FLP,37.4293447,-122.1704032,-1.5339658095245523,1.401886,13.049,313.23102,1678498686886,,,1933501763000000,8.480393,Walk
Fix,FLP,37.4293503,-122.17041,-1.5339658095245523,1.4019829,13.132,312.93686,1678498687440,,,1933502317775907,8.480393,Walk
Fix,GPS,37.4293532016,-122.1704040424,30.908432694791703,1.426845,8.454162,310.70737,1678498684999,0.5292498,28.901793,1933502539891000,8.085412,Walk
Fix,FLP,37.4293527,-122.1704119,-1.5339658095245523,1.402179,13.289,312.67612,1678498687963,,,1933502840000000,6.205502,Walk
Fix,FLP,37.4293578,-122.1704176,-1.5339658095245523,1.4024706,13.293,312.8019,1678498688525,,,1933503402902555,6.205502,Walk
Fix,GPS,37.429362417,-122.1704115939,31.01446080914586,1.4007101,8.462061,333.554,1678498685999,0.5203676,23.816486,1933503539792000,8.096884,Walk
Fix,FLP,37.4293679,-122.1704271,-0.213340208743908,1.4012702,13.328,313.36478,1678498689611,,,1933504488016752,6.216197,Walk
Fix,GPS,37.4293703585,-122.170416084,31.05862070797725,1.3556826,8.489355,331.0454,1678498686999,0.56393886,35.272205,1933504539719000,8.116854,Walk
Fix,FLP,37.42938,-122.1704358,-1.5339658095245523,1.3960884,13.131,314.56708,1678498690704,,,1933505581000000,6.226892,Walk
Fix,GPS,37.4293793678,-122.1704217525,30.86245920476653,1.3301296,8.509188,323.35434,1678498687999,0.56443435,23.097841,1933505539785000,8.134168,Walk
Fix,FLP,37.4293914,-122.1704429,0.4467938937127869,1.3824419,12.262,316.16602,1678498691238,,,1933506115685880,6.237171,Walk
Fix,GPS,37.4293895307,-122.170430744,30.884353758804124,1.3276329,8.531723,316.18106,1678498688999,0.64269793,29.332289,1933506539728000,8.161563,Walk
Fix,FLP,37.4293932,-122.1704429,-0.2886198767736943,1.3803215,11.992,316.61884,1678498691781,,,1933506658241605,6.3114657,Walk
Fix,FLP,37.4294038,-122.1704511,-0.2886198767736943,1.372085,10.928,317.5715,1678498692284,,,1933507161437772,6.3114657,Walk
Fix,GPS,37.4293973296,-122.170437678,31.22525331329976,1.2993243,8.596447,308.8356,1678498689999,0.6069774,35.91513,1933507539734000,8.1867075,Walk
Fix,FLP,37.4294094,-122.1704542,-0.3367575443814417,1.3632665,10.239,318.50717,1678498692865,,,1933507743352262,6.321672,Walk
Fix,FLP,37.429416,-122.1704587,-0.3367575443814417,1.3597963,9.481,319.03732,1678498693408,,,1933508285904325,6.321672,Walk
Fix,GPS,37.4294046316,-122.1704418371,31.14900775105597,1.2629493,8.641379,318.4647,1678498690999,0.60635304,26.41876,1933508539926000,8.206127,Walk
Fix,FLP,37.4294223,-122.1704621,-1.899999976158142,1.3509972,8.83,319.91095,1678498693951,,,1933508828461637,6.3552756,Walk
Fix,FLP,37.4294292,-122.170467,-1.899999976158142,1.3470958,8.428,320.4054,1678498694493,,,1933509371006864,6.3552756,Walk
Fix,NLP,37.4293184,-122.170627,-4.699999809265137,,80.741,,1678498694604,,,1933509481000000,23.384306,Walk
Fix,GPS,37.4294124446,-122.1704470698,31.002846095926955,1.2380241,8.714456,322.70258,1678498691999,0.58717453,25.555029,1933509539750000,8.247629,Walk
Fix,FLP,37.4294366,-122.1704713,-1.899999976158142,1.3334596,7.538,321.57004,1678498695036,,,1933509913569791,10.464766,Walk
Fix,FLP,37.429443,-122.1704761,-1.899999976158142,1.3293228,7.244,321.96896,1678498695579,,,1933510456123746,10.464766,Walk
Fix,GPS,37.4294153028,-122.1704533377,31.19755919740504,1.1902382,8.786916,322.89304,1678498692999,0.5949513,25.863148,1933510539771000,8.295222,Walk
Fix,FLP,37.4294491,-122.1704796,-4.699999809265137,1.3171293,7.01,322.78955,1678498696120,,,1933510998677213,10.0054655,Walk
Fix,FLP,37.4294557,-122.1704839,-4.699999809265137,1.3096875,6.822,323.3986,1678498696664,,,1933511541230436,10.0054655,Walk
Fix,GPS,37.4294199911,-122.1704576419,31.05581687453663,1.1447408,8.839356,316.20743,1678498693999,0.5893387,34.687077,1933511539791000,8.336275,Walk
Fix,FLP,37.4294623,-122.1704873,-1.899999976158142,1.2934761,6.683,324.43753,1678498697206,,,1933512083782499,9.201613,Walk
Fix,FLP,37.4294687,-122.1704912,-1.899999976158142,1.2863314,6.577,324.88568,1678498697748,,,1933512626326688,9.201613,Walk
Fix,GPS,37.4294255758,-122.1704612136,31.062107233789405,1.1030929,8.894537,316.20743,1678498694999,0.59205353,22.841864,1933512539974000,8.376299,Walk
Fix,FLP,37.4294751,-122.1704944,-1.899999976158142,1.2697632,6.548,325.57254,1678498698281,,,1933513159000000,10.118346,Walk
Fix,FLP,37.4294811,-122.1704982,-1.899999976158142,1.2616544,6.515,325.9072,1678498698841,,,1933513718000000,9.816228,Walk
Fix,GPS,37.4294309712,-122.1704655627,31.36012220118347,1.0627799,9.046495,316.20743,1678498695999,0.64484817,59.96654,1933513539860000,8.417343,Walk
