Fix,Provider,LatitudeDegrees,LongitudeDegrees,AltitudeMeters,SpeedMps,AccuracyMeters,BearingDegrees,UnixTimeMillis,SpeedAccuracyMps,BearingAccuracyDegrees,elapsedRealtimeNanos,VerticalAccuracyMeters,TransitType
Fix,FLP,37.4216646,-122.1587072,-8.5,1.2966372,12.359,31.85968,1678224807615,,,1659619623512469,2.2907982,Walk
Fix,FLP,37.421669,-122.1587098,-8.5,1.1119121,12.532,48.435627,1678224808158,,,1659620166097002,2.2907982,Walk
Fix,GPS,37.4216764976,-122.1586806031,-9.975023032630848,1.4185429,4.827709,43.385017,1678224807000,0.036952507,25.0,1659620514258000,5.5230618,Walk
Fix,FLP,37.4216719,-122.1587154,-8.5,1.1461558,12.698,65.44031,1678224808700,,,1659620708683184,2.0605187,Walk
Fix,FLP,37.4216737,-122.1587155,-8.5,1.2035763,12.777,69.30852,1678224809243,,,1659621251271075,2.0605187,Walk
Fix,GPS,37.4216849176,-122.1586701802,-9.96495175861083,1.473374,5.5405574,40.444946,1678224808000,0.2676686,25.0,1659621514256000,5.296096,Walk
Fix,FLP,37.4216755,-122.1587165,-8.5,1.2979501,12.914,72.29311,1678224809785,,,1659621793861346,2.156506,Walk
Fix,FLP,37.4216774,-122.1587122,-8.5,1.343883,13.03,72.55633,1678224810328,,,1659622336439593,2.156506,Walk
Fix,GPS,37.4216934054,-122.1586594402,-9.89223027116693,1.4882064,5.902602,32.876926,1678224809000,0.2520825,25.0,1659622514270000,5.0958676,Walk
Fix,FLP,37.4216795,-122.1587092,-8.5,1.4019632,13.19,71.67114,1678224810871,,,1659622879042681,2.0546482,Walk
Fix,FLP,37.421682,-122.1587025,-8.5,1.4285475,12.634,70.396675,1678224811394,,,1659623402000000,2.0546482,Walk
Fix,GPS,37.4217046693,-122.1586495325,-9.945703474998403,1.5022868,5.528423,39.952866,1678224810000,0.24399756,25.0,1659623514337000,4.9578657,Walk
Fix,FLP,37.4216854,-122.1586949,-8.5,1.462632,12.568,69.18653,1678224811925,,,1659623934000000,2.230869,Walk
Fix,NLP,37.4218043,-122.158939,-8.600000381469727,,21.509,,1678224812320,,,1659624328000000,1.0,Walk
Fix,GPS,37.4217149458,-122.1586391822,-9.974524117164428,1.523515,5.902276,25.47376,1678224811000,0.2643244,25.0,1659624514429000,4.846802,Walk
Fix,FLP,37.421694,-122.1586929,-8.600000381469727,1.4659241,13.975,67.83615,1678224812497,,,1659624506825884,1.82503,Walk
Fix,FLP,37.4217078,-122.1586797,-8.600000381469727,1.3491658,13.696,48.16877,1678224813041,,,1659625049413226,1.82503,Walk
Fix,GPS,37.4217212144,-122.158631114,-9.725741443845685,1.6333562,4.923237,34.28957,1678224812000,0.09205737,25.0,1659625514359000,4.5896535,Walk
Fix,FLP,37.4217127,-122.1586722,-8.600000381469727,1.3666657,13.517,38.726505,1678224813584,,,1659625592018450,2.0635602,Walk
Fix,FLP,37.4217256,-122.1586488,-8.600000381469727,1.4976948,13.051,34.03748,1678224814126,,,1659626134615435,2.0635602,Walk
Fix,GPS,37.4217298865,-122.1586282731,-9.50244865235678,1.4620063,4.4413214,38.43048,1678224813000,0.096197784,25.0,1659626514346000,4.3797197,Walk
Fix,FLP,37.4217279,-122.1586418,-8.600000381469727,1.5462233,12.724,33.812366,1678224814669,,,1659626677212359,1.9636842,Walk
Fix,FLP,37.4217388,-122.1586258,-8.600000381469727,1.5373797,11.929,34.234142,1678224815210,,,1659627219809161,1.9636842,Walk
Fix,GPS,37.4217430445,-122.158616343,-9.633889137324092,1.353692,4.7674804,25.823767,1678224814000,0.23094003,25.0,1659627514538000,4.3650675,Walk
Fix,FLP,37.4217423,-122.1586207,-8.600000381469727,1.4612687,11.287,31.700584,1678224815754,,,1659627762394427,1.9883184,Walk
Fix,FLP,37.4217496,-122.1586146,-8.600000381469727,1.4381629,10.724,30.886263,1678224816297,,,1659628305002093,1.9883184,Walk
Fix,GPS,37.4217568095,-122.1586067005,-9.593394905653374,1.2824011,5.067158,29.110676,1678224815000,0.22221743,25.0,1659628514377000,4.351448,Walk
Fix,FLP,37.4217546,-122.1586101,-8.600000381469727,1.4056576,10.192,30.089092,1678224816827,,,1659628836000000,1.9134394,Walk
Fix,NLP,37.4218562,-122.1587665,-9.300000190734863,,18.343,,1678224817327,,,1659629335000000,1.6890134,Walk
Fix,FLP,37.4217623,-122.1586043,-8.600000381469727,1.3932296,9.269,29.883263,1678224817349,,,1659629357490741,1.9134394,Walk
Fix,GPS,37.4217683598,-122.1585987269,-9.38234426969499,1.2058539,5.1814804,45.755497,1678224816000,0.22273828,25.0,1659629514529000,4.3387713,Walk
Fix,FLP,37.4217717,-122.1586031,-9.300000190734863,1.359843,8.79,28.619307,1678224817888,,,1659629896000000,1.7761614,Walk
Fix,FLP,37.4217804,-122.1586022,-9.300000190734863,1.3501866,8.336,27.65669,1678224818427,,,1659630436000000,1.7761614,Walk
Fix,GPS,37.4217802176,-122.1585891664,-9.249320424301509,1.19196,5.351409,47.28634,1678224817000,0.22356623,25.0,1659630514381000,4.3382125,Walk
Fix,FLP,37.4217941,-122.1586011,-9.300000190734863,1.3186437,7.925,26.038727,1678224819008,,,1659631017975726,1.6946204,Walk
Fix,GPS,37.4217911748,-122.158579264,-9.081450104338892,1.211154,5.5162406,44.42191,1678224817999,0.23941568,25.0,1659631514394000,4.346455,Walk
Fix,FLP,37.4217964,-122.158601,-9.300000190734863,1.3136379,7.884,25.712288,1678224819552,,,1659631560559710,1.7617946,Walk
Fix,FLP,37.4218074,-122.1585959,-9.300000190734863,1.3013693,7.865,25.201645,1678224820095,,,1659632103158160,1.7617946,Walk
Fix,GPS,37.4218042598,-122.1585702805,-9.169236914655228,1.2361659,5.5757623,14.162266,1678224818999,0.20835122,25.0,1659632514442000,4.3664217,Walk
Fix,FLP,37.4218099,-122.1585948,-9.300000190734863,1.2991462,7.917,24.841625,1678224820637,,,1659632645751421,1.6201668,Walk
Fix,FLP,37.4218213,-122.1585883,-9.300000190734863,1.2919661,7.954,24.189201,1678224821180,,,1659633188341692,1.6201668,Walk
Fix,GPS,37.4218190482,-122.1585660454,-8.924101025558347,1.0188575,5.5606117,35.705513,1678224819999,0.22983922,25.0,1659633514420000,4.373631,Walk
Fix,FLP,37.4218198,-122.1585965,-9.300000190734863,1.250129,10.441,18.881323,1678224821523,,,1659633532003728,1.8874495,Walk
Fix,NLP,37.4218056,-122.1588821,-9.300000190734863,,26.144,,1678224822329,,,1659634338000000,1.5641862,Walk
Fix,FLP,37.4218266,-122.1586015,-9.300000190734863,1.2206051,12.468,16.345179,1678224822030,,,1659634038420659,1.6521926,Walk
Fix,GPS,37.4218258958,-122.158557695,-8.957602836347673,1.1425071,5.4198527,32.52704,1678224820999,0.2215975,25.0,1659634514434000,4.3645916,Walk
Fix,FLP,37.4218274,-122.1586063,-9.300000190734863,1.1995388,13.611,16.76289,1678224822536,,,1659634544834416,1.5763893,Walk
Fix,FLP,37.4218334,-122.1585963,-9.300000190734863,1.1763457,14.385,18.600637,1678224823042,,,1659635051254582,1.5763893,Walk
Fix,GPS,37.4218366596,-122.1585492296,-9.084287166487144,1.1089493,5.362119,35.132698,1678224821999,0.22775063,25.0,1659635514449000,4.364444,Walk
Fix,FLP,37.421834,-122.1585897,-9.300000190734863,1.1682615,14.837,19.881557,1678224823548,,,1659635557671636,1.6406683,Walk
Fix,FLP,37.4218408,-122.1585722,-9.300000190734863,1.1525366,14.443,22.47116,1678224824056,,,1659636064088933,1.6406683,Walk
Fix,GPS,37.4218487657,-122.1585403754,-8.480788293736264,0.9371057,5.31793,35.132698,1678224822999,0.19430567,25.0,1659636514599000,4.351465,Walk
Fix,FLP,37.4218426,-122.1585657,-9.300000190734863,1.1497196,14.779,23.514505,1678224824562,,,1659636570507695,1.6309876,Walk
Fix,FLP,37.4218509,-122.1585509,-9.300000190734863,1.1323441,14.603,25.532682,1678224825068,,,1659637076932195,1.6309876,Walk
Fix,GPS,37.4218563863,-122.1585333787,-8.548114544083486,0.93492526,5.24092,35.132698,1678224823999,0.1789791,25.0,1659637514495000,4.3491054,Walk
Fix,FLP,37.4218523,-122.1585468,-9.300000190734863,1.1212708,14.497,26.444792,1678224825574,,,1659637583345708,1.6098738,Walk
Fix,FLP,37.4218605,-122.1585351,-9.300000190734863,1.0967363,13.338,28.322392,1678224826081,,,1659638089767156,1.6098738,Walk
Fix,GPS,37.4218699519,-122.1585178675,-7.910791602715867,1.4679519,4.7216473,28.028439,1678224824999,0.03448297,25.0,1659638514490000,4.1414223,Walk
Fix,FLP,37.4218616,-122.158532,-9.300000190734863,1.086813,11.829,29.202387,1678224826588,,,1659638596188237,1.6857278,Walk
Fix,FLP,37.4218701,-122.1585202,-9.300000190734863,1.0902846,8.665,31.096418,1678224827094,,,1659639102606633,1.6857278,Walk
Fix,NLP,37.4218504,-122.1586078,-9.300000190734863,,26.853,,1678224827355,,,1659639364000000,1.1109422,Walk
Fix,GPS,37.4218820312,-122.1585104866,-7.804715396173788,1.6734259,4.8411303,19.273653,1678224825999,0.22037911,25.0,1659639514759000,4.1501193,Walk
Fix,FLP,37.4218727,-122.1585155,-9.300000190734863,1.1046199,7.495,32.000694,1678224827601,,,1659639609030217,1.4561455,Walk
Fix,FLP,37.4218817,-122.1585061,-9.300000190734863,1.126094,6.37,32.84467,1678224828107,,,1659640115455327,1.4561455,Walk
Fix,GPS,37.4218960221,-122.1585046917,-7.665569619674955,0.9950172,4.962528,19.273653,1678224826999,0.2290556,25.0,1659640514517000,4.1638985,Walk
Fix,FLP,37.4218831,-122.158504,-9.300000190734863,1.1468873,6.218,33.52678,1678224828612,,,1659640621874517,1.4511923,Walk
Fix,FLP,37.4218918,-122.1584955,-9.300000190734863,1.1565285,6.052,34.640804,1678224829119,,,1659641128291692,1.4511923,Walk
Fix,GPS,37.4219010903,-122.1584996637,-7.415326025060905,0.8995557,5.0008245,19.273653,1678224827999,0.25240353,25.0,1659641514562000,4.2084703,Walk
Fix,FLP,37.421893,-122.1584939,-9.300000190734863,1.148094,6.1,35.242916,1678224829626,,,1659641634725835,1.3996494,Walk
Fix,FLP,37.421901,-122.1584856,-9.300000190734863,1.0944738,6.046,37.727215,1678224830132,,,1659642141154973,1.3996494,Walk
Fix,GPS,37.4219019354,-122.1584910093,-7.404478921180529,0.8819562,5.2571516,19.273653,1678224828999,0.32986218,25.0,1659642514571000,4.3279266,Walk
Fix,FLP,37.4219006,-122.158484,-9.300000190734863,1.0098822,6.139,42.199062,1678224830639,,,1659642647572942,1.4532968,Walk
Fix,FLP,37.4219017,-122.1584713,-9.300000190734863,0.94216114,6.336,47.11138,1678224831145,,,1659643154003850,1.4532968,Walk
Fix,GPS,37.4219080291,-122.1584870552,-7.385496177240335,1.4926732,5.4863453,36.8917,1678224829999,0.34156644,25.0,1659643514594000,4.4481897,Walk
Fix,FLP,37.4218994,-122.1584616,-9.300000190734863,0.94910026,6.491,49.814377,1678224831670,,,1659643678491045,1.5184466,Walk
Fix,NLP,37.4217926,-122.158302,-9.600000381469728,,31.955,,1678224832105,,,1659644113000000,1.0,Walk
Fix,FLP,37.4218978,-122.1584589,-9.600000381469728,0.9569492,6.574,52.10044,1678224832212,,,1659644221097429,1.4308466,Walk
Fix,GPS,37.4219166339,-122.1584773342,-7.3397156355897,1.3265761,5.6085362,48.048874,1678224830999,0.3496493,25.0,1659644515006000,4.5787854,Walk
Fix,FLP,37.4218992,-122.1584449,-9.600000381469728,0.9791766,7.146,57.765373,1678224832755,,,1659644763695391,1.379387,Walk
Fix,FLP,37.4219005,-122.1584391,-9.600000381469728,0.9861486,7.396,59.209724,1678224833298,,,1659645306300433,1.3680148,Walk
Fix,GPS,37.4219227877,-122.1584669233,-7.344231127171066,1.3969275,5.730036,52.728287,1678224831999,0.3786814,25.0,1659645514655000,4.7088614,Walk
Fix,FLP,37.4219028,-122.1584315,-9.600000381469728,1.007009,7.648,61.25956,1678224833839,,,1659645848892229,1.3840507,Walk
Fix,FLP,37.4219051,-122.1584254,-9.600000381469728,1.0203928,7.926,62.08428,1678224834349,,,1659646357490741,1.3840507,Walk
Fix,GPS,37.4219290706,-122.1584546006,-7.407654778164924,1.3532933,5.7970457,46.561752,1678224832999,0.3526762,25.0,1659646514640000,4.8269863,Walk
Fix,FLP,37.4219088,-122.1584179,-9.600000381469728,1.0460658,8.147,63.002125,1678224834925,,,1659646934093463,1.3814986,Walk
Fix,GPS,37.4219378905,-122.1584455211,-7.476872762909945,1.3450087,5.7127266,44.558563,1678224833999,0.31304565,25.0,1659647514626000,4.8263297,Walk
Fix,FLP,37.4219119,-122.1584135,-9.600000381469728,1.0582422,8.329,62.163185,1678224835467,,,1659647476686907,1.3161343,Walk
Fix,FLP,37.4219178,-122.1584078,-9.600000381469728,1.0199944,8.608,59.09502,1678224836011,,,1659648019284991,1.3161343,Walk
Fix,GPS,37.4219475472,-122.1584356393,-7.377613182648189,0.84155,5.734579,44.558563,1678224834999,0.24933453,25.0,1659648514630000,4.7861266,Walk
Fix,FLP,37.421922,-122.1584069,-9.600000381469728,0.96706986,8.836,55.171703,1678224836553,,,1659648561881914,1.316356,Walk
Fix,NLP,37.4220376,-122.1584285,-9.600000381469728,,21.028,,1678224837162,,,1659649170000000,1.0,Walk
Fix,FLP,37.4219298,-122.1584054,-9.600000381469728,0.8999816,9.371,49.12458,1678224837096,,,1659649104477862,1.2922081,Walk
Fix,GPS,37.4219570717,-122.1584279196,-8.308367665545678,1.5184319,5.537834,21.285917,1678224835999,0.2553839,25.0,1659649514634000,4.7690444,Walk
Fix,FLP,37.4219388,-122.1584068,-9.600000381469728,0.88408303,9.439,46.871822,1678224837639,,,1659649647075518,1.2859023,Walk
Fix,FLP,37.4219512,-122.1584061,-9.600000381469728,0.8982288,9.756,44.05342,1678224838181,,,1659650189670001,1.2859023,Walk
Fix,GPS,37.4219706392,-122.158419565,-8.602233199025072,1.1136341,5.468197,54.94405,1678224836999,0.25349087,25.0,1659650514649000,4.7939386,Walk
Fix,FLP,37.4219602,-122.158407,-9.600000381469728,0.9047246,9.882,39.643425,1678224838713,,,1659650721000000,1.2590681,Walk
Fix,FLP,37.4219584,-122.1584051,-9.600000381469728,0.90395063,10.23,39.83576,1678224838794,,,1659650802240728,1.2590681,Walk
Fix,NLP,37.4220614,-122.158419,-9.90000057220459,,15.625,,1678224839345,,,1659651353000000,1.0,Walk
Fix,FLP,37.4219578,-122.1583969,-9.90000057220459,0.9101088,10.968,39.896244,1678224839349,,,1659651357490741,1.206363,Walk
Fix,GPS,37.4219874193,-122.1584035089,-8.999510249758663,1.4041567,4.9336886,33.80156,1678224837999,0.04294729,25.0,1659651514672000,4.4350505,Walk
Fix,FLP,37.4219659,-122.158389,-9.90000057220459,0.93410265,11.872,37.284958,1678224840058,,,1659652066159063,1.1987643,Walk
Fix,GPS,37.4220084458,-122.158393306,-8.86696312740494,1.4683278,4.4639673,27.296413,1678224838999,0.035250906,25.0,1659652514683000,4.272377,Walk
Fix,FLP,37.4219709,-122.1583894,-9.90000057220459,0.9485416,11.99,35.71155,1678224840582,,,1659652590667546,1.2124604,Walk
Fix,FLP,37.4219845,-122.158387,-9.90000057220459,0.9808396,12.084,32.946995,1678224841089,,,1659653097089543,1.2124604,Walk
Fix,GPS,37.4220181795,-122.1583803827,-8.748153409881798,1.2815545,4.691006,41.094536,1678224839999,0.2164314,25.0,1659653514700000,4.2838583,Walk
Fix,FLP,37.4219909,-122.1583863,-9.90000057220459,1.0007745,12.096,31.820507,1678224841660,,,1659653669788091,1.1893792,Walk
Fix,FLP,37.4220045,-122.1583826,-9.90000057220459,1.0274839,12.276,29.687902,1678224842287,,,1659654295324895,1.1893792,Walk
Fix,GPS,37.4220242383,-122.1583675125,-8.623901919674383,0.9648821,4.772813,41.094536,1678224840999,0.20367673,25.0,1659654514709000,4.28424,Walk
Fix,FLP,37.4220135,-122.1583801,-9.90000057220459,1.0301195,12.486,27.646786,1678224842793,,,1659654801749028,1.2076526,Walk
Fix,FLP,37.4220205,-122.1583768,-9.90000057220459,1.0255452,12.578,26.685566,1678224843300,,,1659655308175114,1.2076526,Walk
Fix,GPS,37.4220372473,-122.1583557367,-8.460411281349218,1.3749585,4.247558,31.359537,1678224841999,0.038479272,25.0,1659655514728000,4.114546,Walk
Fix,FLP,37.4220284,-122.158373,-9.90000057220459,1.0373507,12.547,25.555857,1678224843806,,,1659655814597661,1.2104088,Walk
Fix,NLP,37.4220483,-122.1584228,-9.800000190734863,,16.089,,1678224844371,,,1659656379000000,1.0,Walk
Fix,FLP,37.4220353,-122.1583691,-9.90000057220459,1.0524359,11.995,25.169916,1678224844313,,,1659656321023565,1.2104088,Walk
Fix,GPS,37.4220486567,-122.1583446177,-8.488204498775112,1.4775492,3.925695,29.651737,1678224842999,0.04310041,25.0,1659656514755000,3.9837785,Walk
Fix,FLP,37.4220461,-122.1583652,-9.800000190734863,1.0935713,11.106,23.950031,1678224844819,,,1659656827450383,1.1846495,Walk
Fix,FLP,37.422053,-122.1583632,-9.800000190734863,1.1095045,10.827,23.451994,1678224845324,,,1659657333872319,1.1846495,Walk
Fix,GPS,37.4220573245,-122.1583360474,-8.324323219639622,1.5521661,4.3131256,31.63391,1678224843999,0.21248803,25.0,1659657514761000,4.0238104,Walk
Fix,FLP,37.4220607,-122.1583605,-9.800000190734863,1.140824,10.481,22.829609,1678224845831,,,1659657840285893,1.1401701,Walk
Fix,FLP,37.4220675,-122.1583573,-9.800000190734863,1.1584096,10.285,22.805635,1678224846338,,,1659658346724858,1.1401701,Walk
Fix,GPS,37.4220689382,-122.1583284352,-8.832179795954108,1.3468834,3.9455676,38.791714,1678224844999,0.036798324,25.0,1659658514898000,3.8902159,Walk
Fix,FLP,37.4220753,-122.158352,-9.800000190734863,1.182564,10.074,22.998941,1678224846858,,,1659658866711431,1.1370392,Walk
Fix,FLP,37.4220812,-122.1583474,-9.800000190734863,1.1907877,9.791,23.494137,1678224847382,,,1659659391223577,1.1370392,Walk
Fix,GPS,37.4220764741,-122.1583187973,-8.931692981300172,1.2002399,4.3994474,27.89646,1678224845999,0.2294172,25.0,1659659514780000,3.954788,Walk
Fix,FLP,37.4220904,-122.1583328,-9.800000190734863,1.2015282,9.366,25.26538,1678224848207,,,1659660215000000,1.1587976,Walk
Fix,GPS,37.4220872644,-122.1583072074,-9.558326404396606,1.3050917,4.074203,35.061363,1678224846999,0.090678185,25.0,1659660514799000,3.8393695,Walk
Fix,FLP,37.4220931,-122.158322,-9.800000190734863,1.2055323,9.178,26.4876,1678224848780,,,1659660788395220,1.1881428,Walk
Fix,NLP,37.4220606,-122.1584344,-9.90000057220459,,14.719,,1678224849377,,,1659661385000000,1.0,Walk
Fix,FLP,37.4220969,-122.1583162,-9.90000057220459,1.2111259,9.043,26.817053,1678224849322,,,1659661330993792,1.1127363,Walk
Fix,GPS,37.4220941643,-122.1582997423,-9.308369556038588,1.4538223,3.7017703,30.954985,1678224847999,0.03619589,25.0,1659661514804000,3.7182205,Walk
Fix,FLP,37.4221005,-122.1583103,-9.90000057220459,1.2208779,8.877,26.810825,1678224849882,,,1659661891700444,1.0848151,Walk
Fix,GPS,37.4221051878,-122.1582916787,-9.654101839707746,1.3183132,3.7015958,30.604404,1678224848999,0.038479306,25.0,1659662514924000,3.6320207,Walk
Fix,FLP,37.4221087,-122.1583073,-9.90000057220459,1.2240099,9.126,25.869999,1678224850390,,,1659662398122564,1.0997796,Walk
Fix,FLP,37.4221171,-122.1583028,-9.90000057220459,1.2287263,9.295,25.275002,1678224850895,,,1659662904546758,1.0997796,Walk
Fix,GPS,37.422114038,-122.1582773343,-10.51839267380956,1.265288,4.1885695,45.41377,1678224849999,0.06861789,25.0,1659663514841000,3.5747886,Walk
Fix,FLP,37.4221198,-122.1583013,-9.90000057220459,1.2324954,9.324,25.082598,1678224851402,,,1659663410975591,1.0962763,Walk
Fix,FLP,37.4221281,-122.1582958,-9.90000057220459,1.2362834,9.423,24.850672,1678224851908,,,1659663917400639,1.0962763,Walk
Fix,GPS,37.4221207743,-122.1582671675,-10.583934425993007,0.9038989,4.1882286,45.41377,1678224850999,0.20909049,25.0,1659664514845000,3.69755,Walk
Fix,FLP,37.4221305,-122.158294,-9.90000057220459,1.2383225,9.469,24.82163,1678224852415,,,1659664423825994,1.1524504,Walk
Fix,FLP,37.4221351,-122.1582896,-9.90000057220459,1.2240726,9.489,24.827892,1678224852922,,,1659664930251775,1.1524504,Walk
Fix,NLP,37.4220567,-122.1584224,-9.800000190734863,,15.203,,1678224853429,,,1659665437000000,1.0,Walk
Fix,FLP,37.4221396,-122.1582846,-9.800000190734863,1.1959985,9.582,24.82142,1678224853428,,,1659665436633061,1.103133,Walk
Fix,GPS,37.4221273384,-122.1582645415,-10.746871913066204,1.1632155,4.3566947,24.297705,1678224851999,0.23060343,25.0,1659665514886000,3.8044665,Walk
Fix,GPS,37.4221338448,-122.1582596041,-10.86831560821594,0.9678146,4.786208,24.297705,1678224852999,0.28434595,25.0,1659666514916000,3.986245,Walk
Fix,FLP,37.4221476,-122.1582785,-9.800000190734863,1.1528072,9.809,26.033144,1678224854440,,,1659666449520330,1.0869201,Walk
Fix,FLP,37.4221492,-122.1582747,-9.800000190734863,1.0397996,9.757,29.930656,1678224854946,,,1659666955959477,1.0869201,Walk
Fix,FLP,37.4221497,-122.1582707,-9.800000190734863,0.9498066,9.548,34.07018,1678224855454,,,1659667462381780,1.0869201,Walk
Fix,GPS,37.4221402307,-122.1582555288,-10.983339223520964,0.97791654,5.2141876,24.297705,1678224853999,0.32749948,25.0,1659667514887000,4.198992,Walk
Fix,FLP,37.4221495,-122.1582651,-9.800000190734863,0.8738069,9.355,39.56616,1678224855960,,,1659667968788579,1.0765209,Walk
Fix,NLP,37.4220731,-122.1582312,-10.200000762939451,,16.379,,1678224855981,,,1659667989000000,1.0,Walk
Fix,FLP,37.4221505,-122.1582594,-10.200000762939451,0.8683031,9.264,41.75179,1678224856466,,,1659668475240300,1.0448833,Walk
Fix,GPS,37.4221462857,-122.1582483707,-11.013668943352323,1.3011626,5.529881,23.907085,1678224854999,0.33508056,25.0,1659668514944000,4.3964415,Walk
Fix,FLP,37.4221521,-122.1582541,-10.200000762939451,0.88448274,9.214,43.160686,1678224856973,,,1659668981661138,1.0455273,Walk
Fix,GPS,37.4221555863,-122.1582357992,-11.563573670975936,1.4883676,5.484799,26.776112,1678224855999,0.23016526,25.0,1659669514932000,4.498038,Walk
Fix,FLP,37.4221544,-122.1582501,-10.200000762939451,0.8984748,9.185,42.77733,1678224857480,,,1659669488092046,1.0615921,Walk
Fix,FLP,37.422158,-122.1582449,-10.200000762939451,0.8960902,9.213,40.289448,1678224857986,,,1659669994514592,1.0615921,Walk
Fix,FLP,37.422161,-122.1582419,-10.200000762939451,0.88488656,9.216,36.974598,1678224858492,,,1659670500941655,1.0615921,Walk
Fix,GPS,37.4221679781,-122.1582251153,-11.212052994524043,1.4629353,5.5109706,46.15333,1678224856999,0.21559246,25.0,1659670514925000,4.5674615,Walk
Fix,FLP,37.4221646,-122.1582361,-10.200000762939451,0.8777305,9.307,34.031277,1678224858998,,,1659671007365972,1.0503778,Walk
Fix,GPS,37.4221771967,-122.158213658,-10.63711332119741,1.4622138,5.5910707,40.443577,1678224857999,0.2217879,25.0,1659671514937000,4.65285,Walk
Fix,FLP,37.4221659,-122.158233,-10.200000762939451,0.8779884,9.404,34.14611,1678224859505,,,1659671513789922,1.057693,Walk
Fix,FLP,37.4221695,-122.158227,-10.200000762939451,0.9025222,9.572,34.25613,1678224860012,,,1659672020216192,1.057693,Walk
Fix,GPS,37.4221869739,-122.1582040287,-11.38429696834928,1.7573467,5.4600754,40.43736,1678224858999,0.21018122,25.0,1659672514955000,4.628229,Walk
Fix,FLP,37.422172,-122.1582238,-10.200000762939451,0.9267292,9.701,34.326866,1678224860554,,,1659672562791338,1.061948,Walk
Fix,NLP,37.4221718,-122.1583012,-9.90000057220459,,26.56,,1678224860930,,,1659672939000000,1.0,Walk
Fix,FLP,37.4221768,-122.1582176,-9.90000057220459,0.9979729,10.128,34.326992,1678224861096,,,1659673105386004,0.9957756,Walk
Fix,GPS,37.4221974589,-122.1581927456,-11.7169465648613,1.5350366,5.4412746,39.97192,1678224859999,0.20432292,10.0,1659673514983000,4.6063013,Walk
Fix,FLP,37.4221801,-122.1582145,-9.90000057220459,1.026284,10.316,34.393017,1678224861638,,,1659673647981157,1.0225989,Walk
Fix,FLP,37.4221899,-122.1582035,-9.90000057220459,1.0792792,10.51,34.80203,1678224862182,,,1659674190575213,1.0225989,Walk
Fix,GPS,37.4222092147,-122.1581871007,-10.517164533653718,1.4434803,4.9553747,33.106403,1678224860999,0.03801067,10.0,1659674514971000,4.321791,Walk
Fix,FLP,37.4221997,-122.1581944,-9.90000057220459,1.1209453,10.344,35.02214,1678224862729,,,1659674738000000,1.0375217,Walk
Fix,GPS,37.4222248638,-122.1581734493,-10.84859935299307,1.3308018,4.5294094,29.396729,1678224861999,0.03376984,10.0,1659675514994000,4.1801023,Walk
Fix,FLP,37.4222108,-122.1581863,-9.90000057220459,1.1525078,10.136,34.78038,1678224863267,,,1659675275769732,1.0510439,Walk
Fix,FLP,37.4222163,-122.1581819,-9.90000057220459,1.1639289,9.983,34.48754,1678224863770,,,1659675778000000,1.0510439,Walk
Fix,GPS,37.4222345674,-122.1581658402,-10.228576108028436,1.3703276,4.2187023,29.450132,1678224862999,0.036872365,10.0,1659676515020000,4.070106,Walk
Fix,FLP,37.4222266,-122.158174,-9.90000057220459,1.1812998,9.71,33.891445,1678224864349,,,1659676357490741,1.0361623,Walk
Fix,FLP,37.4222363,-122.1581672,-9.90000057220459,1.1984507,9.379,33.514538,1678224864895,,,1659676903564165,1.0361623,Walk
Fix,GPS,37.422246159,-122.158159652,-10.300258162222894,1.4462769,4.6567855,31.084194,1678224863999,0.18477654,10.0,1659677515054000,4.1343875,Walk
Fix,FLP,37.4222412,-122.1581637,-9.90000057220459,1.2090952,9.174,33.573395,1678224865438,,,1659677446163836,1.0519357,Walk
Fix,NLP,37.422222,-122.1583738,-10.0,,25.48,,1678224865906,,,1659677914000000,1.0,Walk
Fix,FLP,37.4222503,-122.1581589,-10.0,1.2246886,8.511,33.613277,1678224865980,,,1659677988761736,0.97792315,Walk
Fix,GPS,37.4222590673,-122.1581510358,-10.39873170701109,1.4130224,4.969111,48.934242,1678224864999,0.20061068,10.0,1659678515043000,4.1828275,Walk
Fix,FLP,37.4222545,-122.1581568,-10.0,1.2264491,8.205,33.544594,1678224866523,,,1659678531361956,0.98443586,Walk
Fix,FLP,37.422263,-122.1581518,-10.0,1.2363706,7.843,33.54088,1678224867065,,,1659679073961260,0.98443586,Walk
Fix,GPS,37.4222646153,-122.158141646,-10.541175377797815,1.352661,4.589607,41.789825,1678224865999,0.04156088,10.0,1659679515045000,4.054663,Walk
Fix,FLP,37.422267,-122.158149,-10.0,1.2464072,7.625,33.81898,1678224867608,,,1659679616563250,1.0051202,Walk
Fix,FLP,37.4222759,-122.1581418,-10.0,1.2599375,7.478,34.348877,1678224868151,,,1659680159164019,1.0051202,Walk
Fix,GPS,37.4222766831,-122.158129389,-10.394637769433722,1.3731419,4.308175,39.27638,1678224866999,0.03801242,10.0,1659680515085000,3.9533002,Walk
Fix,FLP,37.4222813,-122.158137,-10.0,1.2702479,7.336,34.67823,1678224868693,,,1659680701767595,1.0143038,Walk
Fix,FLP,37.4222878,-122.1581314,-10.0,1.2763643,7.303,34.71356,1678224869236,,,1659681244369707,1.0143038,Walk
Fix,GPS,37.4222864737,-122.1581208594,-10.344920517692552,1.394434,4.744081,42.099228,1678224867999,0.18597785,10.0,1659681515077000,4.0312886,Walk
Fix,FLP,37.4222932,-122.1581264,-10.0,1.2874544,7.218,34.805195,1678224869778,,,1659681786974016,1.0229248,Walk
Fix,FLP,37.4222994,-122.1581207,-10.0,1.2937089,7.236,34.838486,1678224870320,,,1659682329576372,1.0229248,Walk
Fix,GPS,37.422295388,-122.1581124064,-10.452317753705222,1.2578506,5.02593,23.18459,1678224868999,0.20915617,10.0,1659682515090000,4.092912,Walk
Fix,FLP,37.4223051,-122.1581157,-10.0,1.2977672,7.241,34.726986,1678224870870,,,1659682878000000,1.0198786,Walk
Fix,NLP,37.4221448,-122.158459,-9.90000057220459,,22.476,,1678224870929,,,1659682937000000,1.0,Walk
Fix,FLP,37.4223105,-122.1581161,-9.90000057220459,1.2919664,7.3,34.409325,1678224871406,,,1659683414782732,0.9653122,Walk
Fix,GPS,37.4223087062,-122.1581072523,-10.381489183046131,1.3569834,5.238312,31.740711,1678224869999,0.24493028,10.0,1659683515118000,4.1440287,Walk
Fix,FLP,37.4223143,-122.1581196,-9.90000057220459,1.2848258,7.433,33.37848,1678224871930,,,1659683938000000,0.96593326,Walk
Fix,FLP,37.4223196,-122.1581184,-9.90000057220459,1.2822852,7.534,32.5305,1678224872452,,,1659684460000000,0.96593326,Walk
Fix,GPS,37.4223202908,-122.1581022137,-10.009262158918458,1.2666595,5.3929443,43.068012,1678224870999,0.24107826,10.505528,1659684515112000,4.1887617,Walk
Fix,FLP,37.4223289,-122.1581168,-9.90000057220459,1.2739233,7.868,30.59116,1678224873034,,,1659685042599017,0.9763244,Walk
Fix,GPS,37.4223307953,-122.158096018,-9.966745812585769,1.5172356,5.509744,39.94161,1678224871999,0.3176188,11.141198,1659685515140000,4.2336383,Walk
Fix,FLP,37.4223296,-122.1581171,-9.90000057220459,1.273404,7.944,30.303532,1678224873577,,,1659685585194171,0.9867344,Walk
Fix,FLP,37.4223394,-122.1581107,-9.90000057220459,1.281352,8.201,29.946022,1678224874119,,,1659686127786700,0.9867344,Walk
Fix,GPS,37.4223519415,-122.1580878783,-9.129835563194751,1.7578284,5.1674933,21.54804,1678224872999,0.097239584,10.0,1659686515170000,4.0706105,Walk
Fix,FLP,37.4223405,-122.1581098,-9.90000057220459,1.2920771,8.348,29.91786,1678224874662,,,1659686670392534,1.0190791,Walk
Fix,FLP,37.422353,-122.1580989,-9.90000057220459,1.3216914,8.566,29.516554,1678224875205,,,1659687213006548,1.0190791,Walk
Fix,GPS,37.4223705241,-122.1580829685,-9.014487902678924,1.5726506,5.4481044,14.148642,1678224873999,0.3643144,10.0,1659687515164000,4.134326,Walk
Fix,NLP,37.4223492,-122.1580143,-10.0,,37.86,,1678224875950,,,1659687958000000,1.0,Walk
Fix,FLP,37.4223614,-122.1580914,-10.0,1.3477473,8.849,28.441977,1678224875747,,,1659687755607195,0.9703807,Walk
Fix,FLP,37.4223704,-122.1580843,-10.0,1.3574984,9.068,27.796494,1678224876290,,,1659688298209490,0.9703807,Walk
Fix,GPS,37.4223889695,-122.1580795298,-9.004666588228043,1.3600413,5.717804,34.08771,1678224874999,0.27802905,10.342334,1659688515170000,4.1964808,Walk
Fix,FLP,37.4223794,-122.158079,-10.0,1.3625745,9.213,27.960014,1678224876831,,,1659688840809343,0.9635829,Walk
Fix,FLP,37.4223872,-122.1580745,-10.0,1.3655046,9.373,27.992903,1678224877348,,,1659689357490741,0.9635829,Walk
Fix,GPS,37.4224047739,-122.1580735131,-8.859696813010114,1.4672575,5.881515,22.334522,1678224875999,0.29366893,10.0,1659689515187000,4.255238,Walk
Fix,FLP,37.4223974,-122.1580702,-10.0,1.3735294,9.511,27.656218,1678224877917,,,1659689925997698,0.97284627,Walk
Fix,FLP,37.4224058,-122.1580666,-10.0,1.3790665,9.632,27.234472,1678224878460,,,1659690468598650,0.97284627,Walk
Fix,GPS,37.4224209526,-122.158069145,-8.851871725983395,1.8587601,5.883218,26.255737,1678224876999,0.26095125,10.0,1659690515211000,4.2905045,Walk
Fix,FLP,37.4224163,-122.1580627,-10.0,1.403467,9.737,26.754477,1678224879002,,,1659691011206499,0.9865099,Walk
Fix,FLP,37.4224244,-122.1580589,-10.0,1.4231025,9.818,26.669853,1678224879545,,,1659691553804888,0.9865099,Walk
Fix,GPS,37.4224457402,-122.1580662975,-8.249494952946575,1.4781362,5.260916,22.432579,1678224877999,0.038993686,10.0,1659691515207000,4.126866,Walk
Fix,FLP,37.4224377,-122.1580563,-10.0,1.4460747,9.819,26.20773,1678224880088,,,1659692096400835,0.99340564,Walk
Fix,GPS,37.4224598336,-122.1580612371,-7.854647174311101,1.3996192,5.322544,29.501835,1678224878999,0.22786474,10.0,1659692515235000,4.1832485,Walk
Fix,FLP,37.4224455,-122.158055,-10.0,1.451648,9.925,25.952772,1678224880630,,,1659692638998491,1.0038056,Walk
Fix,FLP,37.4224584,-122.1580524,-10.0,1.4548972,9.871,25.956934,1678224881173,,,1659693181590716,1.0038056,Walk
Fix,GPS,37.4224716731,-122.1580561564,-7.536801664682431,1.5160717,5.308,27.83784,1678224879999,0.21848564,10.0,1659693515376000,4.216681,Walk
Fix,FLP,37.4224677,-122.1580509,-10.0,1.4575007,9.837,26.198858,1678224881716,,,1659693724190447,1.0141957,Walk
Fix,FLP,37.4224757,-122.1580475,-10.0,1.461515,9.783,26.30074,1678224882258,,,1659694266785112,1.0141957,Walk
Fix,GPS,37.4224816986,-122.1580490297,-7.430113845321038,1.4869757,5.273756,33.440327,1678224880999,0.23219115,10.0,1659694515518000,4.2375536,Walk
Fix,FLP,37.4224895,-122.1580415,-10.0,1.4681191,9.584,26.888092,1678224883351,,,1659695359000000,1.0305367,Walk
Fix,GPS,37.422500771,-122.1580341559,-7.785753887707448,1.3772992,4.650907,33.866844,1678224881999,0.05591179,10.0,1659695515522000,4.0625706,Walk
Fix,FLP,37.4225018,-122.1580326,-10.0,1.466409,9.311,27.83164,1678224883886,,,1659695894571734,1.0462906,Walk
Fix,GPS,37.4225136485,-122.1580198674,-8.522212252501197,1.3721924,4.2191057,46.382404,1678224882999,0.08489557,10.0,1659696515281000,3.9202332,Walk
Fix,FLP,37.422505,-122.1580294,-10.0,1.4654669,9.164,27.983994,1678224884429,,,1659696437166826,1.0530844,Walk
Fix,FLP,37.4225116,-122.1580244,-10.0,1.4647231,8.986,28.11155,1678224884932,,,1659696940000000,1.0530844,Walk
Fix,GPS,37.4225221708,-122.1580011877,-9.622230796516844,1.0285095,3.8583941,57.594517,1678224883999,0.089256994,10.0,1659697515298000,3.789489,Walk
Fix,FLP,37.4225194,-122.158018,-10.0,1.4598249,8.805,28.43156,1678224885514,,,1659697522354388,1.051981,Walk
Fix,FLP,37.4225295,-122.15801,-10.0,1.4358987,8.579,28.611612,1678224886056,,,1659698064942889,1.051981,Walk
Fix,GPS,37.422526202,-122.1579943108,-9.519029539458042,0.9995978,4.2710533,57.594517,1678224884999,0.21581846,10.0,1659698515305000,3.8462005,Walk
Fix,FLP,37.4225313,-122.1580084,-10.0,1.4192894,8.521,28.575554,1678224886599,,,1659698607536882,1.0616592,Walk
Fix,FLP,37.4225402,-122.1579993,-10.0,1.3811897,8.118,28.82596,1678224887141,,,1659699150117876,1.0616592,Walk
Fix,GPS,37.4225402691,-122.1579801737,-9.34086583667868,1.5256385,3.9154496,32.7529,1678224885999,0.03359938,10.0,1659699515318000,3.7144907,Walk
Fix,FLP,37.4225447,-122.157992,-10.0,1.369318,7.577,29.511194,1678224887684,,,1659699692719867,1.0754299,Walk
Fix,FLP,37.4225501,-122.1579854,-10.0,1.3757077,7.165,29.901892,1678224888227,,,1659700235298846,1.0754299,Walk
Fix,GPS,37.4225453988,-122.1579669265,-9.947457278852482,1.2397866,3.948709,52.284225,1678224886999,0.04380461,10.0,1659700515342000,3.5894186,Walk
Fix,FLP,37.4225549,-122.1579772,-10.0,1.3748324,6.702,30.500547,1678224888769,,,1659700777899309,1.0802174,Walk
Fix,FLP,37.4225595,-122.1579712,-10.0,1.3694818,6.361,30.78149,1678224889312,,,1659701320489885,1.0802174,Walk
Fix,GPS,37.4225493932,-122.1579547361,-10.204046535110386,1.4421902,3.9150357,44.78758,1678224887999,0.033876467,10.0,1659701515351000,3.4827244,Walk
Fix,FLP,37.4225644,-122.1579625,-10.0,1.3662108,6.028,31.47761,1678224889855,,,1659701863075640,1.0884309,Walk
Fix,FLP,37.4225686,-122.1579565,-10.0,1.3694161,5.671,31.877848,1678224890396,,,1659702405654925,1.0884309,Walk
Fix,GPS,37.4225520821,-122.1579400808,-10.260352848918444,1.3337184,3.9149957,42.197407,1678224888999,0.039677076,10.0,1659702515377000,3.3866377,Walk
Fix,NLP,37.4225716,-122.1580866,-10.200000762939451,,34.794,,1678224890926,,,1659702934000000,1.0612507,Walk
Fix,FLP,37.4225718,-122.157949,-10.200000762939451,1.3708786,5.517,32.578632,1678224890940,,,1659702948252886,0.95117414,Walk
Fix,GPS,37.4225621067,-122.1579297199,-10.019189018460548,1.4681026,3.9149566,38.43094,1678224889999,0.033967502,10.0,1659703515383000,3.2991893,Walk
Fix,FLP,37.4225764,-122.1579413,-10.200000762939451,1.3691226,4.933,32.9548,1678224891482,,,1659703490841448,0.97216195,Walk
Fix,FLP,37.4225823,-122.1579339,-10.200000762939451,1.3727642,4.727,33.427696,1678224892025,,,1659704033415362,0.97216195,Walk
Fix,GPS,37.42257204,-122.1579192653,-9.916351812792984,1.3179137,3.914917,38.866207,1678224890999,0.066469565,10.0,1659704515387000,3.2857387,Walk
Fix,FLP,37.4225865,-122.157929,-10.200000762939451,1.3784432,4.632,33.735477,1678224892567,,,1659704576013994,0.99633026,Walk
Fix,FLP,37.4225935,-122.1579209,-10.200000762939451,1.3787509,4.698,34.295776,1678224893110,,,1659705118598955,0.99633026,Walk
Fix,GPS,37.4225799188,-122.157911038,-9.873715913560106,1.0414006,3.6942682,58.71372,1678224891999,0.26415834,15.149993,1659705515402000,3.3043509,Walk
Fix,FLP,37.4225973,-122.1579157,-10.200000762939451,1.3587378,4.751,34.80633,1678224893653,,,1659705661186602,0.98618764,Walk
Fix,FLP,37.4226027,-122.1579097,-10.200000762939451,1.3432302,4.847,35.081913,1678224894195,,,1659706203775896,0.98618764,Walk
Fix,GPS,37.4225842928,-122.1579027681,-9.87619433494338,1.3197132,3.91484,47.63887,1678224892999,0.27675766,11.667662,1659706515414000,3.3343787,Walk
Fix,FLP,37.4226065,-122.1579041,-10.200000762939451,1.328206,5.009,35.649666,1678224894738,,,1659706746357561,0.9907451,Walk
Fix,FLP,37.4226115,-122.157898,-10.200000762939451,1.3287508,5.149,35.930096,1678224895268,,,1659707276000000,0.9907451,Walk
Fix,GPS,37.4225914001,-122.1578921532,-9.828519391776968,3.738215,3.7286372,40.875397,1678224893999,0.30052036,14.102741,1659707515428000,3.4114358,Walk
Fix,NLP,37.4227102,-122.1578928,-10.800000190734863,,59.363,,1678224895707,,,1659707715000000,1.0,Walk
Fix,FLP,37.4226179,-122.1578896,-10.800000190734863,1.3631586,5.524,36.3742,1678224895829,,,1659707837000000,0.9437148,Walk
Fix,FLP,37.4226263,-122.1578805,-10.800000190734863,1.4007825,5.846,36.530293,1678224896348,,,1659708357490741,0.9437148,Walk
Fix,GPS,37.4225980874,-122.1578834033,-9.949651858093445,3.4759462,3.9754996,49.942387,1678224894999,0.34373066,15.188973,1659708515463000,3.498305,Walk
Fix,FLP,37.4226242,-122.1578733,-10.800000190734863,1.4565264,6.19,37.591778,1678224896908,,,1659708916712053,0.9513483,Walk
Fix,FLP,37.4226239,-122.1578665,-10.800000190734863,1.4836861,6.309,38.43211,1678224897425,,,1659709433000000,0.9513483,Walk
Fix,GPS,37.4226041501,-122.1578729181,-10.099072746760108,3.243002,4.2076974,43.123898,1678224895999,0.3269754,17.605886,1659709515495000,3.5894408,Walk
Fix,FLP,37.4226233,-122.1578606,-10.800000190734863,1.5415651,6.57,39.08143,1678224897927,,,1659709935000000,0.9680537,Walk
Fix,FLP,37.422628,-122.1578541,-10.800000190734863,1.5770166,6.715,38.693913,1678224898427,,,1659710435961321,0.9680537,Walk
Fix,GPS,37.4226083525,-122.1578666902,-9.784492808613308,3.0014317,4.363123,26.696198,1678224896999,0.24467978,12.525571,1659710515502000,3.6149828,Walk
Fix,FLP,37.4226294,-122.1578514,-10.800000190734863,1.6410469,6.985,37.498337,1678224898966,,,1659710975000000,0.9648004,Walk
Fix,FLP,37.4226349,-122.1578475,-10.800000190734863,1.6771221,7.171,36.433887,1678224899513,,,1659711521138079,0.9648004,Walk
Fix,GPS,37.42261376,-122.1578606585,-9.945150865364711,2.7936344,4.434317,32.63811,1678224897999,0.23954318,9.428366,1659711515645000,3.6476214,Walk
Fix,FLP,37.4226373,-122.1578452,-10.800000190734863,1.7367194,7.311,35.180687,1678224900025,,,1659712033000000,0.97889704,Walk
Fix,GPS,37.4226214731,-122.1578526948,-9.631940023800375,2.6306925,4.3858867,27.692974,1678224898999,0.21046221,8.2311325,1659712515673000,3.6395664,Walk
Fix,FLP,37.4226391,-122.1578426,-10.800000190734863,1.7866064,7.477,34.531715,1678224900597,,,1659712606315509,0.98888355,Walk
Fix,NLP,37.4227569,-122.1580139,-10.800000190734863,,20.947,,1678224900740,,,1659712748000000,1.0,Walk
Fix,FLP,37.4226477,-122.1578388,-10.800000190734863,1.8277943,7.45,33.78747,1678224901140,,,1659713148907183,0.92702514,Walk
Fix,GPS,37.4226312679,-122.1578477481,-9.588644685583494,2.4865513,3.9852033,28.68273,1678224899999,0.044093583,1.7080194,1659713515520000,3.4475856,Walk
Fix,FLP,37.4226475,-122.1578392,-10.800000190734863,1.8344634,7.403,33.474384,1678224901683,,,1659713691495501,0.94011945,Walk
Fix,FLP,37.4226527,-122.1578343,-10.800000190734863,1.8510827,7.458,33.10054,1678224902226,,,1659714234068804,0.94011945,Walk
Fix,GPS,37.4226400372,-122.1578423891,-9.513282632137486,2.3487103,4.127837,29.220846,1678224900999,0.20490259,10.177518,1659714515528000,3.4297717,Walk
Fix,FLP,37.4226544,-122.1578315,-10.800000190734863,1.8763437,7.375,32.566475,1678224902768,,,1659714776670306,0.96135306,Walk
Fix,FLP,37.4226595,-122.1578274,-10.800000190734863,1.8882574,7.335,32.19883,1678224903311,,,1659715319257525,0.96135306,Walk
Fix,GPS,37.4226478116,-122.1578340121,-9.461328347214698,2.2303252,4.2288976,40.938896,1678224901999,0.18680874,7.6526465,1659715515539000,3.4185574,Walk
Fix,FLP,37.422663,-122.1578245,-10.800000190734863,1.9046137,7.287,32.281895,1678224903853,,,1659715861848284,0.9657917,Walk
Fix,FLP,37.4226686,-122.1578191,-10.800000190734863,1.9111669,7.215,32.81109,1678224904396,,,1659716404420367,0.9657917,Walk
Fix,GPS,37.4226562338,-122.1578229708,-9.328201169065547,2.1381135,4.341091,25.925804,1678224902999,0.19605781,9.010268,1659716515565000,3.422264,Walk
Fix,FLP,37.4226741,-122.1578134,-10.800000190734863,1.9210768,7.153,33.02434,1678224904939,,,1659716947018145,0.9591075,Walk
Fix,GPS,37.4226635261,-122.1578161327,-9.295170053857117,2.0311615,4.452871,25.618292,1678224903999,0.17963278,6.872257,1659717515569000,3.4319997,Walk
Fix,FLP,37.4226784,-122.1578098,-10.800000190734863,1.9276063,7.116,32.772217,1678224905480,,,1659717489605609,0.97254336,Walk
Fix,FLP,37.4226843,-122.157804,-10.800000190734863,1.9300699,6.975,32.358425,1678224906024,,,1659718032189532,0.97254336,Walk
Fix,GPS,37.4226722734,-122.1578082993,-9.25264325927474,1.9469873,4.531081,29.209793,1678224904999,0.2527018,12.331644,1659718515597000,3.4547684,Walk
Fix,FLP,37.4226873,-122.157801,-10.800000190734863,1.9314839,7.04,32.291946,1678224906566,,,1659718574772600,0.9821434,Walk
Fix,FLP,37.4226931,-122.1577949,-10.800000190734863,1.9287089,7.215,32.189053,1678224907109,,,1659719117358538,0.9821434,Walk
Fix,GPS,37.4226785445,-122.1577999182,-9.314844952818987,1.8537896,4.6066194,32.381832,1678224905999,0.27280268,19.243294,1659719515597000,3.482969,Walk
Fix,FLP,37.4226935,-122.157792,-10.800000190734863,1.9143918,7.395,32.209526,1678224907651,,,1659719659941546,0.99168867,Walk
Fix,GPS,37.4226833568,-122.1577916971,-9.33878840877166,1.7599874,4.6216125,32.898724,1678224906999,0.20430425,12.5943365,1659720515608000,3.5138166,Walk
Fix,FLP,37.4226978,-122.1577859,-10.800000190734863,1.897074,7.488,32.329235,1678224908194,,,1659720202530780,0.99764764,Walk
Fix,FLP,37.4226984,-122.1577847,-10.800000190734863,1.886386,7.531,32.338074,1678224908736,,,1659720745109453,0.99764764,Walk
Fix,FLP,37.4227035,-122.1577799,-10.800000190734863,1.8779523,7.615,32.34476,1678224909249,,,1659721257000000,0.99764764,Walk
Fix,GPS,37.422689012,-122.1577811315,-9.37737184141976,1.6956184,4.646943,23.375193,1678224907999,0.18208022,7.518462,1659721515632000,3.5625196,Walk
Fix,FLP,37.4227055,-122.1577769,-10.800000190734863,1.8547935,7.724,31.993736,1678224909791,,,1659721799000000,1.0191172,Walk
Fix,GPS,37.4226998889,-122.1577727951,-9.263076665455731,1.660436,4.5967436,30.656113,1678224908999,0.20402364,8.799222,1659722515647000,3.5933046,Walk
Fix,FLP,37.4227093,-122.1577734,-10.800000190734863,1.8276473,7.796,31.216541,1678224910349,,,1659722357490741,1.0287073,Walk
Fix,FLP,37.4227146,-122.1577676,-10.800000190734863,1.8056608,7.86,30.818468,1678224910907,,,1659722915436846,1.0287073,Walk
Fix,GPS,37.4227101857,-122.1577674851,-9.420733923338828,1.6210445,4.497987,29.573315,1678224909999,0.18118328,5.7867165,1659723515652000,3.6017637,Walk
Fix,FLP,37.4227169,-122.1577648,-10.800000190734863,1.798581,7.89,30.818455,1678224911450,,,1659723458025042,1.0300747,Walk
Fix,FLP,37.4227237,-122.1577579,-10.800000190734863,1.779904,7.907,30.725582,1678224911992,,,1659724000606279,1.0300747,Walk
Fix,GPS,37.4227239223,-122.1577593334,-9.58056273678764,1.6209018,4.4329658,37.0373,1678224910999,0.17757614,6.353883,1659724515668000,3.6180744,Walk
Fix,FLP,37.4227263,-122.1577557,-10.800000190734863,1.7726463,7.9,30.592262,1678224912535,,,1659724543185869,1.0396748,Walk
Fix,FLP,37.4227347,-122.1577487,-10.800000190734863,1.7568362,7.912,30.715603,1678224913077,,,1659725085765642,1.0396748,Walk
Fix,GPS,37.4227349599,-122.1577496495,-9.604773322668429,1.6065278,4.3160143,41.622505,1678224911999,0.17357121,6.4862676,1659725515684000,3.62606,Walk
Fix,FLP,37.42274,-122.157744,-10.800000190734863,1.7405018,7.881,31.35401,1678224913620,,,1659725628352984,1.0500647,Walk
Fix,FLP,37.422746,-122.1577381,-10.800000190734863,1.7324065,7.866,31.863617,1678224914162,,,1659726170932146,1.0500647,Walk
Fix,GPS,37.422745896,-122.157739167,-9.818376777650965,1.5950526,4.3146114,39.647865,1678224912999,0.19272538,7.568601,1659726515696000,3.6507177,Walk
Fix,FLP,37.4227507,-122.1577334,-10.800000190734863,1.7178702,7.829,32.57841,1678224914705,,,1659726713514055,1.0651109,Walk
Fix,FLP,37.4227565,-122.1577283,-10.800000190734863,1.7128881,7.818,32.718094,1678224915248,,,1659727256093279,1.0651109,Walk
Fix,GPS,37.4227546736,-122.1577304728,-10.092322747487264,1.5620114,4.296895,38.576305,1678224913999,0.22729771,9.201554,1659727515708000,3.6724117,Walk
Fix,FLP,37.422761,-122.1577237,-10.800000190734863,1.6987978,7.774,33.044052,1678224915790,,,1659727798677874,1.0774719,Walk
Fix,FLP,37.4227667,-122.1577182,-10.800000190734863,1.691104,7.744,33.329502,1678224916333,,,1659728341242511,1.0774719,Walk
Fix,GPS,37.4227637449,-122.1577217258,-10.30622171305057,1.5329866,4.3394165,34.87916,1678224914999,0.21917376,9.789466,1659728515727000,3.7076864,Walk
Fix,FLP,37.4227709,-122.1577141,-10.800000190734863,1.6769325,7.656,33.676846,1678224916875,,,1659728883837786,1.097566,Walk
Fix,FLP,37.4227767,-122.1577091,-10.800000190734863,1.6700598,7.616,33.835106,1678224917414,,,1659729422000000,1.097566,Walk
Fix,GPS,37.4227730824,-122.1577151054,-10.435560081097757,1.5000467,4.3365946,40.11675,1678224915999,0.17528127,7.70295,1659729515736000,3.718605,Walk
Fix,FLP,37.4227848,-122.1577026,-10.800000190734863,1.6446126,7.498,34.2607,1678224917959,,,1659729968982928,1.107946,Walk
Fix,GPS,37.4227835969,-122.1577067745,-10.934415890374392,1.4841056,4.328581,35.660465,1678224916999,0.18591276,7.8168936,1659730515748000,3.728661,Walk
Fix,FLP,37.4227856,-122.1577021,-10.800000190734863,1.6388397,7.483,34.329857,1678224918503,,,1659730511573076,1.1034197,Walk
Fix,FLP,37.4227951,-122.1576943,-10.800000190734863,1.622257,7.435,34.37786,1678224919046,,,1659731054151689,1.1034197,Walk
Fix,GPS,37.422793097,-122.1576986646,-11.109279697234976,1.4618702,4.3682976,25.97888,1678224917999,0.18053019,7.42226,1659731515759000,3.7459211,Walk
Fix,FLP,37.4227955,-122.1576941,-10.800000190734863,1.6173276,7.467,34.335854,1678224919588,,,1659731596730547,1.1138297,Walk
Fix,FLP,37.4228058,-122.1576871,-10.800000190734863,1.5980842,7.511,33.787537,1678224920131,,,1659732139305437,1.1138297,Walk
Fix,GPS,37.4228032109,-122.1576926593,-11.396753917051427,1.4385813,4.4235,20.445295,1678224918999,0.19607516,8.351486,1659732515800000,3.7638144,Walk
Fix,FLP,37.4228102,-122.1576869,-10.800000190734863,1.5765636,7.387,32.749645,1678224920673,,,1659732681874956,1.1242197,Walk
Fix,FLP,37.4228165,-122.157684,-10.800000190734863,1.5673714,7.253,32.20231,1678224921216,,,1659733224463701,1.1242197,Walk
Fix,GPS,37.4228132644,-122.157689599,-11.648559510015906,1.4111931,4.4432907,30.440538,1678224919999,0.21739227,9.611297,1659733515787000,3.781019,Walk
Fix,NLP,37.4228386,-122.1577149,-11.800000190734863,,27.049,,1678224921751,,,1659733759000000,1.0,Walk
Fix,FLP,37.4228204,-122.1576832,-11.800000190734863,1.5529191,6.997,31.294878,1678224921759,,,1659733767043474,0.9241237,Walk
Fix,FLP,37.4228295,-122.1576785,-11.800000190734863,1.5440657,6.635,30.836998,1678224922301,,,1659734309622393,0.9241237,Walk
Fix,GPS,37.4228215096,-122.1576817975,-11.825668737336375,1.3860769,4.5736127,35.33369,1678224920999,0.21837473,9.457517,1659734515819000,3.827878,Walk
Fix,FLP,37.4228374,-122.1576742,-11.800000190734863,1.5362841,6.385,30.609667,1678224922844,,,1659734852201495,0.9314337,Walk
Fix,FLP,37.422843,-122.1576708,-11.800000190734863,1.5299344,6.177,30.63286,1678224923348,,,1659735357490741,0.94170815,Walk
Fix,GPS,37.4228286081,-122.157677712,-11.723604811041046,1.344959,4.5786133,42.1411,1678224921999,0.19285524,7.4275756,1659735515817000,3.8385007,Walk
Fix,FLP,37.4228505,-122.1576657,-11.800000190734863,1.5157984,6.002,30.688341,1678224923929,,,1659735937351336,0.9604305,Walk
Fix,GPS,37.4228377894,-122.1576679081,-11.295836841676012,1.3445015,4.4915237,33.803444,1678224922999,0.19022068,6.7633624,1659736515839000,3.842728,Walk
Fix,FLP,37.4228553,-122.1576623,-11.800000190734863,1.5088328,5.871,30.472527,1678224924471,,,1659736479916949,0.96093154,Walk
Fix,FLP,37.4228635,-122.1576567,-11.800000190734863,1.4932517,5.625,29.930126,1678224925014,,,1659737022503374,0.96093154,Walk
Fix,GPS,37.4228480147,-122.1576612463,-11.094291608821262,1.3398802,4.5550156,33.778393,1678224923999,0.2018003,7.403603,1659737515846000,3.86327,Walk
Fix,FLP,37.422868,-122.1576541,-11.800000190734863,1.4874018,5.549,29.61627,1678224925557,,,1659737565082903,0.96754473,Walk
Fix,FLP,37.4228764,-122.157649,-11.800000190734863,1.4749459,5.54,29.204935,1678224926099,,,1659738107656817,0.96754473,Walk
Fix,NLP,37.4228038,-122.1575428,-11.90000057220459,,20.794,,1678224926439,,,1659738447000000,1.0,Walk
Fix,GPS,37.4228579523,-122.157653665,-11.05821444925153,1.3352913,4.6141095,34.987625,1678224924999,0.2114977,7.8498836,1659738515863000,3.885575,Walk
Fix,FLP,37.4228807,-122.1576439,-11.90000057220459,1.4571502,5.698,29.231588,1678224926642,,,1659738650228899,0.91014135,Walk
Fix,FLP,37.4228863,-122.1576375,-11.90000057220459,1.4527171,5.895,29.380089,1678224927183,,,1659739192802019,0.91014135,Walk
Fix,GPS,37.4228697523,-122.1576472582,-11.002932450717916,1.3415874,4.5706596,29.667862,1678224925999,0.20473048,7.639927,1659739515918000,3.8983638,Walk
Fix,FLP,37.4228906,-122.1576314,-11.90000057220459,1.4437807,6.154,29.507359,1678224927688,,,1659739696000000,0.9193205,Walk
Fix,FLP,37.4228973,-122.1576257,-11.90000057220459,1.4402201,6.318,29.388544,1678224928248,,,1659740256000000,0.9193205,Walk
Fix,GPS,37.4228812307,-122.1576409085,-10.88454144788478,1.3450643,4.5291176,21.76304,1678224926999,0.20941345,7.2287264,1659740515930000,3.9044473,Walk
Fix,FLP,37.4229067,-122.1576176,-11.90000057220459,1.4259292,6.756,28.94823,1678224928812,,,1659740820522661,0.9363548,Walk
Fix,GPS,37.4228945449,-122.1576347586,-11.026538078904988,1.3650215,4.5048914,34.520645,1678224927999,0.1936934,6.2926617,1659741515943000,3.9093864,Walk
Fix,FLP,37.4229103,-122.1576153,-11.90000057220459,1.4227611,6.905,28.75411,1678224929349,,,1659741357490741,0.95543253,Walk
Fix,FLP,37.4229187,-122.1576098,-11.90000057220459,1.4163053,7.206,28.588654,1678224929897,,,1659741905667986,0.95543253,Walk
Fix,GPS,37.4229063533,-122.157623537,-10.99132989412784,1.3842207,4.4530177,32.53356,1678224928999,0.18543035,7.909417,1659742516162000,3.9017134,Walk
Fix,FLP,37.4229218,-122.1576077,-11.90000057220459,1.4154028,7.355,28.719027,1678224930440,,,1659742448231341,0.9565647,Walk
Fix,FLP,37.4229313,-122.1576012,-11.90000057220459,1.4121287,7.643,28.996721,1678224930982,,,1659742990808368,0.9565647,Walk
Fix,NLP,37.4228666,-122.1575615,-11.40000057220459,,26.197,,1678224931450,,,1659743459000000,1.0,Walk
Fix,GPS,37.4229158734,-122.1576147091,-10.983354992487255,1.3734472,4.5138717,32.228615,1678224929999,0.21005425,10.313775,1659743515929000,3.9039412,Walk
Fix,FLP,37.4229329,-122.1575985,-11.40000057220459,1.4119275,7.918,29.18892,1678224931525,,,1659743533381243,0.91235197,Walk
Fix,FLP,37.4229419,-122.1575891,-11.40000057220459,1.4103729,8.164,29.413797,1678224932066,,,1659744075952959,0.91235197,Walk
Fix,GPS,37.422925431,-122.1576081964,-10.933513417842,1.355289,4.5326533,31.63042,1678224930999,0.21277282,9.19245,1659744515945000,3.9024584,Walk
Fix,FLP,37.4229462,-122.157584,-11.40000057220459,1.4070876,8.363,29.74149,1678224932610,,,1659744618521929,0.9264848,Walk
Fix,FLP,37.4229532,-122.1575781,-11.40000057220459,1.4053392,8.449,29.920708,1678224933153,,,1659745161092608,0.9264848,Walk
Fix,GPS,37.4229378739,-122.1576021599,-11.02463597806776,1.3618112,4.6206336,33.343704,1678224931999,0.21538988,8.166545,1659745515958000,3.8938386,Walk
Fix,FLP,37.4229582,-122.1575731,-11.40000057220459,1.4024662,8.609,30.228762,1678224933695,,,1659745703663348,0.92907554,Walk
Fix,FLP,37.4229645,-122.1575677,-11.40000057220459,1.4014846,8.701,30.314886,1678224934237,,,1659746246214556,0.92907554,Walk
Fix,GPS,37.4229517662,-122.1575920888,-11.11660378658772,1.3895761,4.6809525,41.032543,1678224932999,0.23052473,10.522499,1659746515973000,3.8957467,Walk
Fix,FLP,37.4229703,-122.1575625,-11.40000057220459,1.4005796,8.814,30.386963,1678224934780,,,1659746788798662,0.9393328,Walk
Fix,FLP,37.4229763,-122.1575578,-11.40000057220459,1.4010776,8.875,30.400133,1678224935323,,,1659747331367632,0.9393328,Walk
Fix,GPS,37.4229625968,-122.1575834138,-10.95243036285667,1.3825858,4.785124,41.416138,1678224933999,0.25455382,18.386515,1659747515995000,3.9070508,Walk
Fix,FLP,37.4229823,-122.157553,-11.40000057220459,1.4013567,8.94,30.460863,1678224935865,,,1659747873935015,0.9462248,Walk
Fix,NLP,37.422957,-122.1577841,-11.5,,26.188,,1678224936469,,,1659748478000000,1.0,Walk
Fix,FLP,37.422989,-122.1575478,-11.40000057220459,1.4013954,9.019,30.488913,1678224936407,,,1659748416503008,0.9462248,Walk
Fix,GPS,37.4229675941,-122.157566985,-11.36102536346616,1.3796837,4.8168807,14.689157,1678224934999,0.24182543,23.915676,1659748515998000,3.8975391,Walk
Fix,FLP,37.4229966,-122.1575463,-11.5,1.3986955,9.104,30.190722,1678224936951,,,1659748959068743,0.89949155,Walk
Fix,GPS,37.4229732493,-122.1575567624,-11.877383175246774,1.344877,4.824155,20.23141,1678224935999,0.21099311,10.786558,1659749516018000,3.885273,Walk
Fix,FLP,37.4230021,-122.1575426,-11.5,1.3985076,9.168,30.167572,1678224937493,,,1659749501636614,0.9098816,Walk
Fix,FLP,37.4230084,-122.1575346,-11.5,1.3962018,9.19,30.35692,1678224938036,,,1659750044201617,0.9098816,Walk
Fix,GPS,37.4229836082,-122.1575648369,-12.796820475276606,1.3328786,4.7415795,43.14293,1678224936999,0.21724345,14.099222,1659750516051000,3.8579438,Walk
Fix,FLP,37.4230121,-122.157529,-11.5,1.395231,9.205,30.529005,1678224938577,,,1659750586769304,0.9281885,Walk
Fix,FLP,37.4230172,-122.1575173,-11.5,1.3911229,9.191,31.033096,1678224939121,,,1659751129320208,0.9281885,Walk
Fix,GPS,37.4229942253,-122.1575646511,-12.850359194068377,1.3107321,4.729423,26.133244,1678224937999,0.20717594,9.947784,1659751516077000,3.8425543,Walk
Fix,FLP,37.4230202,-122.1575082,-11.5,1.3847219,9.107,31.552061,1678224939663,,,1659751671901751,0.9300627,Walk
Fix,FLP,37.4230243,-122.1574997,-11.5,1.3820376,9.085,31.921745,1678224940206,,,1659752214469195,0.9300627,Walk
Fix,GPS,37.4230016184,-122.157564917,-13.12069940772227,1.2648813,4.8014493,41.72723,1678224938999,0.2051648,11.064068,1659752516057000,3.8528266,Walk
Fix,FLP,37.4230274,-122.157489,-11.5,1.3747289,8.984,32.5121,1678224940749,,,1659752757033648,0.9408106,Walk
Fix,FLP,37.4230325,-122.1574813,-11.5,1.3712353,8.957,32.752846,1678224941291,,,1659753299598162,0.9408106,Walk
Fix,NLP,37.4233522,-122.1577432,-11.700000762939451,,40.733,,1678224941480,,,1659753488000000,1.0,Walk
Fix,GPS,37.4230157287,-122.1575588323,-13.16613885155256,1.2866166,4.786272,45.450577,1678224939999,0.20879538,11.937149,1659753516076000,3.8685246,Walk
Fix,FLP,37.4230365,-122.157471,-11.700000762939451,1.3606138,8.811,33.286304,1678224941833,,,1659753842164263,0.8848043,Walk
Fix,FLP,37.4230418,-122.1574642,-11.700000762939451,1.3581958,8.774,33.5116,1678224942349,,,1659754357490741,0.8848043,Walk
Fix,GPS,37.4230287807,-122.1575504181,-13.12027936379323,1.3030846,4.7579803,31.045147,1678224940999,0.24407257,14.028698,1659754516247000,3.870209,Walk
Fix,FLP,37.4230463,-122.1574565,-11.700000762939451,1.353831,8.693,33.88991,1678224942918,,,1659754927294634,0.89894253,Walk
Fix,FLP,37.423051,-122.1574504,-11.700000762939451,1.3524175,8.689,34.096096,1678224943449,,,1659755458000000,0.89894253,Walk
Fix,GPS,37.4230405372,-122.1575437487,-13.066506555982356,1.3025264,4.703463,35.478886,1678224941999,0.22191967,13.214268,1659755516092000,3.854034,Walk
Fix,FLP,37.4230555,-122.1574434,-11.700000762939451,1.3492054,8.624,34.369484,1678224943964,,,1659755972000000,0.9021974,Walk
Fix,FLP,37.4230613,-122.1574369,-11.700000762939451,1.3476467,8.612,34.438377,1678224944546,,,1659756554987505,0.9021974,Walk
Fix,GPS,37.4230494425,-122.1575350561,-12.980599971311982,1.2890985,4.679722,41.41386,1678224942999,0.20553473,11.7655735,1659756516108000,3.8297887,Walk
Fix,FLP,37.4230667,-122.1574301,-11.700000762939451,1.3430612,8.59,34.457325,1678224945089,,,1659757097549517,0.916871,Walk
Fix,GPS,37.423063571,-122.1575241668,-13.113874302294288,1.3261513,4.6565595,32.92547,1678224943999,0.19620724,7.532744,1659757516120000,3.835633,Walk
Fix,FLP,37.4230711,-122.157427,-11.700000762939451,1.3377172,8.523,34.12333,1678224945632,,,1659757640120806,0.93097055,Walk
Fix,NLP,37.4234152,-122.157783,-11.700000762939451,,37.285,,1678224946453,,,1659758461000000,1.0,Walk
Fix,FLP,37.4230782,-122.1574218,-11.700000762939451,1.3310971,8.46,33.3103,1678224946173,,,1659758182686114,0.8854583,Walk
Fix,GPS,37.4230757613,-122.1575128711,-13.797010989756313,1.3479129,4.7583723,15.146182,1678224944999,0.22661397,8.838477,1659758516143000,3.8753252,Walk
Fix,FLP,37.4230864,-122.1574201,-11.700000762939451,1.3278764,8.361,32.25402,1678224946716,,,1659758725257769,0.88626826,Walk
Fix,FLP,37.4230931,-122.1574183,-11.700000762939451,1.3251616,8.276,32.839714,1678224947259,,,1659759267820940,0.8978071,Walk
Fix,GPS,37.4230882572,-122.1575113641,-14.005576807005465,1.3495483,5.0407295,1.1082293,1678224945999,0.34749702,11.990699,1659759516154000,3.991566,Walk
Fix,FLP,37.4231002,-122.1574149,-11.700000762939451,1.3053552,8.198,34.787518,1678224947802,,,1659759810387286,0.8995602,Walk
Fix,FLP,37.4231043,-122.1574106,-11.700000762939451,1.2991849,8.105,35.78009,1678224948344,,,1659760352970232,0.8995602,Walk
Fix,GPS,37.4231017653,-122.1575111151,-13.832012277131168,1.359091,5.39721,10.21141,1678224946999,0.5252893,20.120556,1659760516226000,4.144521,Walk
Fix,FLP,37.4231094,-122.1574039,-11.700000762939451,1.2904966,8.073,37.58404,1678224948886,,,1659760895540240,0.90863955,Walk
Fix,FLP,37.4231132,-122.1573985,-11.700000762939451,1.2907965,8.014,38.28597,1678224949430,,,1659761438112810,0.90863955,Walk
Fix,GPS,37.4231169958,-122.1575041635,-14.06959662808583,1.3954222,5.7792015,24.185106,1678224947999,0.43478557,13.366943,1659761516289000,4.3278346,Walk
Fix,FLP,37.4231199,-122.1573894,-11.700000762939451,1.2945925,8.044,39.11355,1678224949972,,,1659761980683306,0.91845024,Walk
Fix,FLP,37.4231221,-122.1573866,-20.343979838775283,1.299451,8.075,39.061768,1678224950515,,,1659762523253923,0.92850953,Walk
Fix,GPS,37.4231297924,-122.157491281,-14.289880572942144,1.4265838,6.106328,28.225887,1678224948999,0.38973477,16.168247,1659762516302000,4.5026665,Walk
Fix,FLP,37.4231281,-122.15738,-20.343979838775283,1.3085952,8.196,38.990566,1678224951056,,,1659763065828142,0.93520856,Walk
Fix,FLP,37.4231326,-122.1573756,-17.818830516660228,1.3142009,8.266,39.040707,1678224951589,,,1659763597000000,0.94521856,Walk
Fix,GPS,37.4231425459,-122.1574747141,-14.728204278402588,1.4718336,6.3298254,29.468761,1678224949999,0.4172813,14.893139,1659763516278000,4.685115,Walk
Fix,NLP,37.4233067,-122.1576859,-11.700000762939451,,52.618,,1678224951622,,,1659763630000000,1.0,Walk
Fix,FLP,37.4231388,-122.1573693,-17.818830516660228,1.3291516,8.469,39.251354,1678224952133,,,1659764141000000,0.87602246,Walk
Fix,GPS,37.4231685053,-122.1574419638,-14.820448335999163,1.2121539,6.2908945,32.3006,1678224950999,0.40193495,12.684443,1659764516249000,4.794764,Walk
Fix,FLP,37.423148,-122.1573615,-18.69045879264135,1.3312794,8.684,39.357048,1678224952684,,,1659764693546648,0.88495123,Walk
Fix,FLP,37.423152,-122.1573581,-18.69045879264135,1.3237184,8.8,38.957455,1678224953228,,,1659765236116900,0.88495123,Walk
Fix,GPS,37.4231819766,-122.1574258795,-14.676976207181882,1.5350554,6.3595104,34.482967,1678224951999,0.40548205,17.314367,1659765516287000,4.884269,Walk
Fix,FLP,37.4231578,-122.1573539,-14.560551540057864,1.3231765,8.823,38.07651,1678224953770,,,1659765778688799,0.8948465,Walk
Fix,FLP,37.423163,-122.1573501,-11.700000762939451,1.3298225,8.979,37.557438,1678224954313,,,1659766321258135,0.90174156,Walk
Fix,GPS,37.4231907167,-122.157415953,-14.421060938331138,1.4380023,6.369175,24.360552,1678224952999,0.42410356,17.64117,1659766516305000,4.991853,Walk
Fix,FLP,37.4231697,-122.1573458,-11.700000762939451,1.3390962,9.001,36.785385,1678224954855,,,1659766863828020,0.90360856,Walk
Fix,FLP,37.4231752,-122.157342,-11.700000762939451,1.3436583,9.082,36.585117,1678224955398,,,1659767406395525,0.90360856,Walk
Fix,GPS,37.4231973661,-122.1574058066,-14.036569949407005,1.3493118,6.360792,12.947002,1678224953999,0.4283981,22.6197,1659767516324000,5.095035,Walk
Fix,FLP,37.423181,-122.1573379,-5.88608452749596,1.3467593,9.118,36.36668,1678224955940,,,1659767948974077,0.90880656,Walk
Fix,NLP,37.4233046,-122.1574201,-11.700000762939451,,46.853,,1678224956532,,,1659768540000000,1.0,Walk
Fix,FLP,37.4231866,-122.1573333,-5.613170871124112,1.3467848,9.121,36.196808,1678224956483,,,1659768491523394,0.91881657,Walk
Fix,GPS,37.4232033704,-122.1574010702,-13.814382877557936,1.2102678,6.41975,12.947002,1678224954999,0.4980306,82.179146,1659768516287000,5.198642,Walk
Fix,FLP,37.4231938,-122.1573333,-5.613170871124112,1.3365675,9.028,35.20381,1678224957026,,,1659769034096331,0.87236816,Walk
Fix,GPS,37.4232100104,-122.1574019196,-13.704153603741448,1.107842,6.516416,12.947002,1678224955999,0.4740568,72.13071,1659769516391000,5.328234,Walk
Fix,FLP,37.4232,-122.157333,-2.5664715087382035,1.3260252,8.94,34.22349,1678224957568,,,1659769576660052,0.88852984,Walk
Fix,FLP,37.4232069,-122.1573357,-2.5664715087382035,1.3061711,8.817,32.880375,1678224958074,,,1659770082000000,0.88852984,Walk
Fix,GPS,37.4232154723,-122.1574032443,-13.98006494763546,1.0170105,6.630645,358.7129,1678224956999,0.4693164,29.411482,1659770516428000,5.46476,Walk
Fix,FLP,37.4232133,-122.1573405,-1.1349134365956104,1.2727578,8.599,30.471066,1678224958653,,,1659770661786211,0.8989477,Walk
Fix,FLP,37.4232244,-122.1573419,-1.1349134365956104,1.2357177,8.336,27.743284,1678224959196,,,1659771204349200,0.8989477,Walk
