Fix,Provider,LatitudeDegrees,LongitudeDegrees,AltitudeMeters,SpeedMps,AccuracyMeters,BearingDegrees,UnixTimeMillis,SpeedAccuracyMps,BearingAccuracyDegrees,elapsedRealtimeNanos,VerticalAccuracyMeters,TransitType
Fix,GPS,37.3878132557,-122.0836365071,39.75613684027819,0.40519696,11.38762,102.309296,1678505334000,0.6025826,177.39243,1940151635698000,12.761867,Walk
Fix,FLP,37.3878175,-122.0836461,-3.812039239247511,0.13915685,11.558,90.2781,1678505336758,0.6025826,177.39243,1940151635698000,6.4971194,Walk
Fix,NLP,37.3878701,-122.0834188,-1.8000000715255735,,12.589,,1678505336658,,,1940151535000000,1.2680873,Walk
Fix,GPS,37.3878009855,-122.0836167493,41.328927698481856,0.8387192,11.416914,102.309296,1678505335000,0.4648543,67.67868,1940152635811000,12.439973,Walk
Fix,FLP,37.3878121,-122.0836336,-4.81578560044926,0.70163035,11.496,96.955734,1678505337758,0.4648543,67.67868,1940152635811000,0.99518424,Walk
Fix,GPS,37.387785342,-122.0835889723,43.33086476133232,0.42639178,11.27904,102.309296,1678505336000,0.48972133,113.74753,1940153635701000,12.1620455,Walk
Fix,FLP,37.3878029,-122.0836147,-4.853641183914647,0.60545504,11.449,101.89259,1678505338758,0.48972133,113.74753,1940153635701000,1.0051523,Walk
Fix,FLP,37.3878003,-122.0836043,-4.853641183914647,0.26204893,12.541,135.16208,1678505339344,,,1940154221378019,1.0051523,Walk
Fix,GPS,37.3877730925,-122.0835677864,45.393105961132186,0.3625292,11.179077,102.309296,1678505337000,0.5057069,123.18249,1940154635928000,11.943793,Walk
Fix,FLP,37.387801,-122.0836021,-5.23321077071008,0.24695075,13.465,166.44737,1678505339886,,,1940154763907193,1.0110505,Walk
Fix,FLP,37.3878014,-122.0835971,-5.23321077071008,0.31143618,14.789,166.29256,1678505340429,,,1940155306438627,1.0110505,Walk
Fix,GPS,37.3877672724,-122.0835479713,47.80656354544661,0.5971631,11.103472,102.309296,1678505338000,0.48810098,51.29222,1940155635755000,11.724687,Walk
Fix,FLP,37.3878022,-122.0835922,-5.45316917320077,0.4009175,15.899,164.96478,1678505340971,,,1940155848982389,1.0214404,Walk
Fix,FLP,37.3878015,-122.0835892,-5.45316917320077,0.46669224,16.58,154.49411,1678505341514,,,1940156391515592,1.0214404,Walk
Fix,NLP,37.3878588,-122.0833258,-1.8000000715255735,,13.355,,1678505341732,,,1940156610000000,1.2903146,Walk
Fix,GPS,37.3877568527,-122.0835319032,49.6251830733194,0.740873,11.098794,102.309296,1678505339000,0.5020117,162.30766,1940156635748000,11.541221,Walk
Fix,FLP,37.3878094,-122.0835517,-5.728876389803617,0.5290179,17.559,133.04967,1678505342057,,,1940156934050077,0.99195224,Walk
Fix,FLP,37.3878133,-122.0835255,-5.728876389803617,0.6034577,17.281,123.61815,1678505342599,,,1940157476585722,0.99195224,Walk
Fix,GPS,37.3877471277,-122.0835119062,51.22335576589066,0.42912036,11.159055,102.309296,1678505340000,0.5146413,180.0,1940157635755000,11.38488,Walk
Fix,FLP,37.3878186,-122.083491,-5.487952768555957,0.59332323,17.512,118.70804,1678505343107,,,1940157984348661,1.0036787,Walk
Fix,GPS,37.3877426536,-122.0834933911,51.401764767113086,0.42172712,11.268778,102.309296,1678505341000,0.61399734,141.8063,1940158635781000,11.271493,Walk
Fix,FLP,37.3878194,-122.0834754,-5.45316917320077,0.5472481,18.11,113.91236,1678505343684,,,1940158561656278,1.012409,Walk
Fix,FLP,37.3878183,-122.0834602,-5.45316917320077,0.4528712,18.087,126.60161,1678505344748,,,1940159625000000,1.012409,Walk
Fix,GPS,37.3877418565,-122.0834724572,51.61030692215354,0.0,11.36632,102.309296,1678505342000,0.61508,132.32431,1940159635930000,11.235028,Walk
Fix,GPS,37.3877418565,-122.0834724572,44.12154901755338,0.0,11.225707,102.309296,1678505343000,0.662607,180.0,1940160635843000,10.220544,Walk
Fix,FLP,37.3878173,-122.0834372,-5.042405009056402,0.23161191,16.339,148.63504,1678505345854,,,1940160731813871,1.0340971,Walk
Fix,GPS,37.3877418565,-122.0834724572,43.63187542840403,0.0,11.1155815,102.309296,1678505344000,0.65612996,180.0,1940161636124000,9.990021,Walk
Fix,NLP,37.3877595,-122.0831577,-1.8000000715255735,,12.179,,1678505346784,,,1940161661000000,1.2046971,Walk
Fix,FLP,37.3878156,-122.0834276,-7.325141604707525,0.085914284,14.936,,1678505346939,,,1940161816876737,1.0440371,Walk
Fix,FLP,37.3878059,-122.083386,-7.325141604707525,0.08562982,15.757,,1678505347482,,,1940162359434110,0.9948874,Walk
Fix,GPS,37.3877418565,-122.0834724572,43.946158225694965,0.0,11.045796,102.309296,1678505345000,0.66251254,180.0,1940162635869000,9.787879,Walk
Fix,FLP,37.3877957,-122.0833481,-9.934981706427877,0.16680579,15.151,150.81474,1678505348024,,,1940162901974333,1.0051254,Walk
Fix,FLP,37.3877905,-122.0833336,-11.722645750824404,0.26532328,14.967,140.49763,1678505348567,,,1940163444514738,1.0151354,Walk
Fix,GPS,37.3877418565,-122.0834724572,44.39954741691147,0.0,11.00445,102.309296,1678505346000,0.6689957,179.82982,1940163636093000,9.601262,Walk
Fix,FLP,37.3877826,-122.083313,-11.722645750824404,0.44948775,14.587,133.06218,1678505349106,,,1940163984348661,1.0151354,Walk
Fix,FLP,37.3877777,-122.0833016,-11.722645750824404,0.59335786,14.37,129.53091,1678505349652,,,1940164529594266,1.0151354,Walk
Fix,GPS,37.3877418565,-122.0834724572,44.73795158552888,0.0,10.992683,102.309296,1678505347000,0.68567646,73.32444,1940164635906000,9.426125,Walk
Fix,FLP,37.3877705,-122.0832832,-10.530059698406994,0.832987,14.198,125.39946,1678505350195,,,1940165072123563,1.0251354,Walk
Fix,FLP,37.3877654,-122.0832718,-10.530059698406994,0.9753919,14.065,123.980034,1678505350737,,,1940165614672208,1.0251354,Walk
Fix,GPS,37.3877418565,-122.0834724572,45.45397626426462,0.0,10.992426,102.309296,1678505348000,0.67317295,68.80533,1940165636190000,9.249914,Walk
Fix,FLP,37.387758,-122.0832536,-4.334902623615541,1.1916264,14.032,122.02986,1678505351279,,,1940166157211515,1.0364103,Walk
Fix,GPS,37.3877419625,-122.0834394031,45.76600996529168,0.42750004,10.983974,102.309296,1678505349000,0.66991884,81.246605,1940166635932000,9.094238,Walk
Fix,FLP,37.3877547,-122.0832459,-4.162494298698348,1.2961601,14.176,121.62195,1678505351822,,,1940166699748746,1.0464203,Walk
Fix,NLP,37.3877758,-122.0831162,-1.600000023841858,,13.582,,1678505351843,,,1940166720000000,1.2332776,Walk
Fix,FLP,37.3877536,-122.0832143,-4.162494298698348,1.6555614,13.46,110.62497,1678505352365,,,1940167242286405,1.0211468,Walk
Fix,GPS,37.3877380705,-122.0834298237,46.56661758388984,0.0,11.227246,102.309296,1678505350000,0.6399355,144.56264,1940167635956000,9.01741,Walk
Fix,FLP,37.3877551,-122.0831991,-4.334902623615541,1.8403627,13.551,105.87675,1678505352907,,,1940167784823759,1.028332,Walk
Fix,FLP,37.3877592,-122.0831899,-4.334902623615541,0.71763605,13.686,93.906364,1678505353450,,,1940168327349821,1.028332,Walk
Fix,GPS,37.3877380705,-122.0834298237,47.44794632633307,0.0,11.190726,102.309296,1678505351000,0.7252505,58.961834,1940168635964000,8.891196,Walk
Fix,FLP,37.3877585,-122.0831816,-4.162494298698348,0.30995092,13.734,92.033325,1678505353992,,,1940168869897062,1.0411568,Walk
Fix,FLP,37.3877575,-122.0831751,-4.162494298698348,0.21931665,13.753,91.40192,1678505354535,,,1940169412432279,1.0411568,Walk
Fix,GPS,37.3877380705,-122.0834298237,48.041102218533,0.0,11.136216,102.309296,1678505352000,0.64768386,77.453835,1940169636145000,8.779931,Walk
Fix,FLP,37.3877555,-122.0831655,-8.032905144376898,0.12736522,13.744,90.98764,1678505355084,,,1940169961000000,1.0511467,Walk
Fix,FLP,37.3877541,-122.0831597,-8.032905144376898,0.09863967,13.736,,1678505355591,,,1940170468000000,1.0511467,Walk
Fix,GPS,37.3877380705,-122.0834298237,48.57360009131723,0.0,11.017662,102.309296,1678505353000,0.5865616,180.0,1940170636269000,8.590956,Walk
Fix,FLP,37.3877515,-122.0831507,0.1754739777322029,0.06643553,13.66,,1678505356108,,,1940170985000000,1.0611567,Walk
Fix,NLP,37.3877085,-122.0830256,-0.5000001192092896,,11.116,,1678505356816,,,1940171693000000,1.5024879,Walk
Fix,GPS,37.3877380705,-122.0834298237,48.97721776636641,0.0,10.953323,102.309296,1678505354000,0.6161328,180.0,1940171635965000,8.4601345,Walk
Fix,FLP,37.3877486,-122.0831417,2.0311890948951614,0.048977308,13.498,,1678505356705,,,1940171582570524,1.0711367,Walk
Fix,FLP,37.3877409,-122.08312,2.0311890948951614,0.08594391,13.169,,1678505357248,,,1940172125093412,1.0858071,Walk
Fix,GPS,37.3877380705,-122.0834298237,49.14696768483323,0.0,10.903028,102.309296,1678505355000,0.62940824,138.28712,1940172636068000,8.342285,Walk
Fix,FLP,37.3877369,-122.0831095,2.0311890948951614,0.12974726,13.033,97.32321,1678505357790,,,1940172667636442,1.0669688,Walk
Fix,FLP,37.3877301,-122.0830906,2.0311890948951614,0.280326,12.784,102.97947,1678505358333,,,1940173210171659,1.0669688,Walk
Fix,GPS,37.3877380705,-122.0834298237,49.0436248009455,0.0,10.883049,102.309296,1678505356000,0.63586533,41.221325,1940173636350000,8.242872,Walk
Fix,FLP,37.3877272,-122.083083,2.6312481457515773,0.36374146,12.698,104.48378,1678505358874,,,1940173752700651,1.0769788,Walk
Fix,FLP,37.3877207,-122.0830649,2.6312481457515773,0.5923365,12.44,107.81621,1678505359418,,,1940174295232389,1.0769788,Walk
Fix,GPS,37.3877109927,-122.0833366809,49.18391063970513,0.48189107,11.189971,102.309296,1678505357000,0.74370307,25.0,1940174636076000,8.245251,Walk
Fix,FLP,37.3877182,-122.0830583,3.034212728518362,0.70630646,12.377,108.728676,1678505359960,,,1940174837766202,1.0869588,Walk
Fix,FLP,37.3877114,-122.0830428,3.034212728518362,0.6506698,11.926,112.1576,1678505360503,,,1940175380280301,1.0869588,Walk
Fix,GPS,37.3876915079,-122.0833219403,48.84183400793543,0.36310282,11.28619,102.309296,1678505358000,0.56181765,110.86493,1940175636039000,8.215768,Walk
Fix,FLP,37.3877059,-122.0830348,2.6312481457515773,0.55429214,11.722,114.009056,1678505361045,,,1940175922824674,1.0969688,Walk
Fix,GPS,37.3876829853,-122.0833082668,49.15456004054401,0.42359763,11.345337,102.309296,1678505359000,0.5519359,180.0,1940176636235000,8.200135,Walk
Fix,FLP,37.3877023,-122.0830291,2.6312481457515773,0.5306049,11.346,114.04404,1678505361588,,,1940176465354948,1.1069788,Walk
Fix,NLP,37.3876637,-122.08302,-1.100000023841858,,11.169,,1678505361869,,,1940176746000000,1.4926424,Walk
Fix,FLP,37.3876905,-122.0830212,2.6312481457515773,0.5281566,10.727,115.244415,1678505362107,,,1940176984348661,1.0870013,Walk
Fix,FLP,37.3876829,-122.083015,2.6312481457515773,0.5468245,10.719,115.840965,1678505362673,,,1940177550411283,1.0870013,Walk
Fix,GPS,37.3876824401,-122.0832871049,49.1050207423738,0.52544045,11.453365,102.309296,1678505360000,0.583494,61.890774,1940177636149000,8.21191,Walk
Fix,FLP,37.3876732,-122.0830073,6.569552682453328,0.56391716,10.497,117.33845,1678505363215,,,1940178092942716,1.0738425,Walk
Fix,FLP,37.3876682,-122.0830014,6.569552682453328,0.57137626,10.413,117.69064,1678505363758,,,1940178635460783,1.0738425,Walk
Fix,GPS,37.387685184,-122.0832396128,48.31347975625,0.3617981,11.392014,102.309296,1678505361000,0.50507003,62.46826,1940178636324000,8.220152,Walk
Fix,FLP,37.3876613,-122.0829936,4.935112824238246,0.55756074,10.241,117.34683,1678505364300,,,1940179177995694,1.0946223,Walk
Fix,FLP,37.3876576,-122.0829879,4.935112824238246,0.54460555,10.082,115.88241,1678505364843,,,1940179720527738,1.0946223,Walk
Fix,GPS,37.3876883055,-122.0832028409,47.80287442297983,0.33950135,11.49645,102.309296,1678505362000,0.53159976,152.49348,1940179636107000,8.255401,Walk
Fix,FLP,37.3876523,-122.0829795,4.935112824238246,0.52007985,9.97,113.23089,1678505365385,,,1940180263055387,1.1046523,Walk
Fix,FLP,37.3876495,-122.0829737,4.935112824238246,0.50854117,9.796,110.77193,1678505365923,,,1940180800000000,1.1046523,Walk
Fix,GPS,37.3876901711,-122.0831722487,47.27660884797218,0.54074097,11.539479,102.309296,1678505363000,0.52404004,43.292587,1940180636132000,8.286335,Walk
Fix,FLP,37.3876451,-122.0829646,3.580575312263541,0.5050161,9.776,107.90481,1678505366471,,,1940181348109770,1.1142333,Walk
Fix,GPS,37.3876919012,-122.0831489164,46.64595445143384,0.0,11.62628,102.309296,1678505364000,0.66987115,180.0,1940181636149000,8.348363,Walk
Fix,FLP,37.3876429,-122.0829585,3.22878954377466,0.51010364,9.585,106.022194,1678505366980,,,1940181857000000,1.1242632,Walk
Fix,NLP,37.3877632,-122.0827012,-2.1999998092651367,,20.748,,1678505366881,,,1940181758000000,1.3011702,Walk
Fix,FLP,37.387645,-122.0829401,3.22878954377466,0.5329576,9.945,102.96949,1678505367562,,,1940182439000000,1.0841519,Walk
Fix,GPS,37.3876957687,-122.0831226294,46.01937662854856,0.47438687,11.355404,102.309296,1678505365000,0.55955964,101.690155,1940182636157000,8.337099,Walk
Fix,FLP,37.3876543,-122.0829165,3.22878954377466,0.5511394,10.355,99.49031,1678505368097,,,1940182975688688,1.134589,Walk
Fix,GPS,37.3877058928,-122.0831143357,45.62291724379313,0.47438687,16.69614,102.309296,1678505366000,1.0269051,180.0,1940183636709000,8.420899,Walk
Fix,FLP,37.3876573,-122.0829104,2.9092762925114144,0.5453911,10.491,97.57072,1678505368641,,,1940183518214018,1.1436535,Walk
Fix,FLP,37.387663,-122.0828973,2.9092762925114144,0.52975947,10.763,93.93345,1678505369182,,,1940184060739652,1.1436535,Walk
Fix,GPS,37.3877167776,-122.0831011409,44.22385038028836,1.1001616,11.7022915,11.597009,1678505367000,0.7550384,34.43556,1940184636185000,8.51285,Walk
Fix,FLP,37.3876662,-122.0828923,-0.5000001192092896,0.5179457,10.897,92.28915,1678505369726,,,1940184603264066,1.1141465,Walk
Fix,FLP,37.387673,-122.0828807,-0.5000001192092896,0.5231133,11.153,87.46195,1678505370268,,,1940185145777799,1.1141465,Walk
Fix,GPS,37.3877299817,-122.0830887634,43.69791880215552,0.8237488,11.926222,11.597009,1678505368000,0.7838036,102.90624,1940185636210000,8.630589,Walk
Fix,FLP,37.3876769,-122.0828767,-0.5000001192092896,0.53506213,11.269,84.562485,1678505370811,,,1940185688313627,1.1147416,Walk
Fix,FLP,37.3876851,-122.0828669,-0.5000001192092896,0.5427178,11.482,79.25394,1678505371353,,,1940186230839323,1.1147416,Walk
Fix,GPS,37.3877458428,-122.083081173,43.70760259903738,0.7318746,12.106667,11.597009,1678505369000,0.83776116,130.79823,1940186636543000,8.7723055,Walk
Fix,FLP,37.3876893,-122.0828643,3.099753892377109,0.5382114,11.572,76.79368,1678505371896,,,1940186773361418,1.1248074,Walk
Fix,NLP,37.3877556,-122.082845,-2.1999998092651367,,18.859,,1678505371925,,,1940186802000000,1.0872077,Walk
Fix,FLP,37.3877031,-122.0828551,3.099753892377109,0.536584,11.773,71.61276,1678505372438,,,1940187315885160,1.0831367,Walk
Fix,GPS,37.3877564599,-122.0830726942,43.48396996849258,0.69945097,12.246771,11.597009,1678505370000,0.76806086,180.0,1940187636290000,8.923979,Walk
Fix,FLP,37.387714,-122.0828514,3.099753892377109,0.5166515,11.829,67.934456,1678505372981,,,1940187858408598,1.099564,Walk
Fix,FLP,37.3877208,-122.0828483,3.099753892377109,0.50179,11.85,64.60045,1678505373523,,,1940188400932035,1.099564,Walk
Fix,GPS,37.3877668629,-122.0830653798,43.994430895343946,0.5055355,12.417446,11.597009,1678505371000,0.7402811,112.18248,1940188636294000,9.089651,Walk
Fix,FLP,37.3877309,-122.0828462,1.7721323959851745,0.469546,11.887,58.331825,1678505374066,,,1940188943454618,1.109564,Walk
Fix,FLP,37.3877377,-122.0828437,1.7721323959851745,0.45375657,11.912,54.9535,1678505374608,,,1940189485966398,1.109564,Walk
Fix,GPS,37.3877759876,-122.0830598743,43.84067996593599,0.7963076,12.591542,11.597009,1678505372000,0.7217598,110.18566,1940189636276000,9.253235,Walk
Fix,FLP,37.3877478,-122.0828418,1.7721323959851745,0.4508008,11.92,49.359917,1678505375151,,,1940190028499906,1.1486771,Walk
Fix,FLP,37.3877547,-122.0828394,1.7721323959851745,0.46043783,11.926,46.677845,1678505375693,,,1940190571023099,1.1486771,Walk
Fix,GPS,37.3877833433,-122.0830555948,42.80820339390724,0.5451923,12.713039,11.597009,1678505373000,0.69674957,180.0,1940190636281000,9.391093,Walk
Fix,FLP,37.387765,-122.0828381,5.778428582600874,0.46498147,11.973,41.70112,1678505376236,,,1940191113543852,1.1259456,Walk
Fix,FLP,37.3877717,-122.0828365,5.778428582600874,0.46627855,11.975,39.580036,1678505376778,,,1940191656065580,1.1259456,Walk
Fix,GPS,37.3877873237,-122.0830477189,41.79000851455572,0.50446415,12.744167,11.597009,1678505374000,0.65463454,180.0,1940191636379000,9.517305,Walk
Fix,NLP,37.3878571,-122.082769,-2.1999998092651367,,19.64,,1678505376911,,,1940191788000000,1.7448369,Walk
Fix,FLP,37.3877864,-122.082834,8.163832938208138,0.4758917,12.004,35.93335,1678505377326,,,1940192203000000,1.1159736,Walk
Fix,FLP,37.3877946,-122.0828307,8.163832938208138,0.48313773,12.15,35.433033,1678505377864,,,1940192741105314,1.1159736,Walk
Fix,GPS,37.3877933754,-122.0830387416,41.32711427819092,0.49676844,12.81254,11.597009,1678505375000,0.6663997,180.0,1940192636409000,9.635979,Walk
Fix,FLP,37.3878127,-122.0828249,6.200738894393297,0.49267957,12.365,32.323025,1678505378913,,,1940193790000000,1.1426324,Walk
Fix,GPS,37.3877964023,-122.0830396725,48.02671735321479,0.0,12.78818,11.597009,1678505376000,0.694877,115.89767,1940193636341000,8.370432,Walk
Fix,FLP,37.3878289,-122.0828209,2.44436511992172,0.4960897,12.591,27.782425,1678505379491,,,1940194368670500,1.1237475,Walk
Fix,GPS,37.3877964023,-122.0830396725,47.6985812514263,0.0,12.55036,11.597009,1678505377000,0.63766676,180.0,1940194636327000,8.219216,Walk
Fix,FLP,37.387838,-122.0828185,1.9543928028965356,0.5013132,12.729,26.096796,1678505380034,,,1940194911191007,1.1501467,Walk
Fix,GPS,37.3877964023,-122.0830396725,47.62080449278882,0.0,12.333798,11.597009,1678505378000,0.6526075,81.897705,1940195636346000,8.095332,Walk
Fix,FLP,37.3878432,-122.0828167,1.9543928028965356,0.5047588,12.819,25.290567,1678505380576,,,1940195453710722,1.1585432,Walk
Fix,FLP,37.3878523,-122.0828136,1.9543928028965356,0.5097213,13.019,23.842072,1678505381107,,,1940195984348661,1.1585432,Walk
Fix,GPS,37.3877982906,-122.0830081288,47.2038194888453,0.4830475,12.016468,11.597009,1678505379000,0.65218747,121.84963,1940196636631000,7.958115,Walk
Fix,FLP,37.3878573,-122.0828118,2.060371868784628,0.5127372,13.128,23.14738,1678505381661,,,1940196538742521,1.1685333,Walk
Fix,NLP,37.387935,-122.0828082,-2.5,,14.975,,1678505381930,,,1940196807000000,1.0409164,Walk
Fix,FLP,37.3878736,-122.0828096,2.060371868784628,0.52656233,13.327,21.612963,1678505382204,,,1940197081267667,1.1013507,Walk
Fix,GPS,37.387805364,-122.0829857926,46.94159114063204,0.0,11.9925785,11.597009,1678505380000,0.6219293,180.0,1940197636421000,7.9321423,Walk
Fix,FLP,37.3878818,-122.0828092,1.3814854714303664,0.53592837,13.302,21.204773,1678505382746,,,1940197623789640,1.1225708,Walk
Fix,FLP,37.3878955,-122.0828088,1.3814854714303664,0.51830727,13.257,17.629557,1678505383289,,,1940198166309965,1.1225708,Walk
Fix,GPS,37.3878183051,-122.0829720026,47.18928904228636,0.5162714,12.137947,11.597009,1678505381000,0.7356882,110.81866,1940198636404000,7.955206,Walk
Fix,FLP,37.3879016,-122.0828085,1.605220613296332,0.4979088,13.219,14.963173,1678505383831,,,1940198708828947,1.133384,Walk
Fix,FLP,37.3879134,-122.0828076,1.605220613296332,0.48795378,13.163,12.993169,1678505384373,,,1940199251348051,1.133384,Walk
Fix,GPS,37.3878385747,-122.0829563826,47.48173272396939,0.5099329,12.191315,11.597009,1678505382000,0.77596337,81.53865,1940199636415000,7.9914856,Walk
Fix,FLP,37.3879187,-122.0828069,-0.5479203906463539,0.49567953,13.156,13.022195,1678505384916,,,1940199793866850,1.143384,Walk
Fix,FLP,37.3879299,-122.0828057,-0.5479203906463539,0.50818145,13.123,12.949151,1678505385459,,,1940200336386076,1.143384,Walk
Fix,GPS,37.3878574056,-122.082950124,47.605889433715774,0.6981724,12.283697,11.597009,1678505383000,0.7994657,40.061527,1940200636422000,8.043347,Walk
Fix,FLP,37.3879387,-122.0828057,0.0249869408198151,0.5246906,13.069,12.813621,1678505386001,,,1940200878904386,1.18445,Walk
Fix,FLP,37.3879453,-122.0828051,0.0249869408198151,0.537596,13.035,12.940943,1678505386544,,,1940201421420194,1.18445,Walk
Fix,GPS,37.3878758441,-122.0829465997,47.727693881359066,0.6593631,12.305046,11.597009,1678505384000,0.7898164,46.524925,1940201636545000,8.118805,Walk
Fix,NLP,37.3879526,-122.0827842,-2.5999999046325684,,17.802,,1678505386989,,,1940201866000000,1.0,Walk
Fix,FLP,37.3879528,-122.0828053,-0.5479203906463539,0.5569908,12.934,13.267248,1678505387086,,,1940201963938322,1.070667,Walk
Fix,FLP,37.3879617,-122.0828037,-0.5479203906463539,0.5692578,12.963,13.38527,1678505387629,,,1940202506459867,1.070667,Walk
Fix,GPS,37.387887356,-122.0829426078,47.392979532875806,0.0,12.385803,11.597009,1678505385000,0.7827823,180.0,1940202636635000,8.221427,Walk
Fix,FLP,37.3879697,-122.0828016,0.3852448090010512,0.54952264,13.058,11.439285,1678505388171,,,1940203048979032,1.1045655,Walk
Fix,GPS,37.3878953026,-122.0829285241,46.74916369814494,0.64837587,12.187429,11.597009,1678505386000,0.7766904,75.872925,1940203636518000,8.283605,Walk
Fix,FLP,37.3879766,-122.0828002,0.3852448090010512,0.50837064,13.158,8.689479,1678505388714,,,1940203591490201,1.1145855,Walk
Fix,FLP,37.387982,-122.082799,0.3852448090010512,0.51882756,13.222,9.356238,1678505389262,,,1940204139000000,1.1145855,Walk
Fix,GPS,37.3879059,-122.0829161535,46.51003594863642,0.568886,12.249798,11.597009,1678505387000,0.7918941,61.577442,1940204636515000,8.438077,Walk
Fix,FLP,37.3879895,-122.0827972,0.1661355730371809,0.53694683,13.31,10.5768585,1678505389799,,,1940204676530607,1.151133,Walk
Fix,FLP,37.3879951,-122.0827962,0.1661355730371809,0.54299664,13.358,11.1028385,1678505390301,,,1940205178000000,1.151133,Walk
Fix,GPS,37.3879149982,-122.0828992096,45.99100246721835,0.388347,12.322595,11.597009,1678505388000,0.75961876,40.222134,1940205636524000,8.596107,Walk
Fix,FLP,37.3880024,-122.0827948,0.0427637311388124,0.5528976,13.461,12.077118,1678505390884,,,1940205761562650,1.1611229,Walk
Fix,FLP,37.3880122,-122.0827927,0.0427637311388124,0.5537466,13.53,12.60296,1678505391427,,,1940206304071867,1.1611229,Walk
Fix,GPS,37.3879208678,-122.0828883007,45.440506137198746,0.0,12.469698,11.597009,1678505389000,0.68422437,180.0,1940206636474000,8.768182,Walk
Fix,NLP,37.3879907,-122.0827467,-2.6999998092651367,,17.972,,1678505392006,,,1940206883000000,1.0,Walk
Fix,FLP,37.3880171,-122.0827924,2.4321976025381886,0.5287189,13.62,11.077551,1678505391969,,,1940206846591947,1.1039065,Walk
Fix,FLP,37.3880243,-122.0827883,2.4321976025381886,0.5115488,13.732,9.823485,1678505392511,,,1940207389116483,1.1039065,Walk
Fix,GPS,37.3879208678,-122.0828883007,45.3019053632331,0.0,12.328875,11.597009,1678505390000,0.62778693,180.0,1940207636517000,8.87217,Walk
Fix,FLP,37.3880304,-122.0827825,5.029349595883225,0.51642996,13.677,9.924593,1678505393053,,,1940207931633451,1.079861,Walk
Fix,FLP,37.3880351,-122.082779,5.029349595883225,0.5204922,13.755,9.991229,1678505393597,,,1940208474150480,1.079861,Walk
Fix,GPS,37.3879287233,-122.0828717767,45.123552559876906,0.3984559,12.149795,11.597009,1678505391000,0.6204961,180.0,1940208636546000,8.99942,Walk
Fix,FLP,37.3880423,-122.0827735,5.753573758826455,0.52126074,13.731,10.916939,1678505394107,,,1940208984348661,1.090051,Walk
Fix,FLP,37.388047,-122.0827702,5.753573758826455,0.5199393,13.749,11.758333,1678505394682,,,1940209559185392,1.090051,Walk
Fix,GPS,37.3879410569,-122.0828658574,44.20603224906655,0.5020357,12.261982,11.597009,1678505392000,0.7081229,86.52529,1940209636814000,9.156127,Walk
Fix,FLP,37.3880546,-122.082765,5.418844225493729,0.5208342,13.731,13.391807,1678505395224,,,1940210101691496,1.108906,Walk
Fix,GPS,37.3879475492,-122.0828561535,44.09662638624983,0.6830792,12.355768,11.597009,1678505393000,0.6946224,28.666195,1940210636592000,9.312525,Walk
Fix,FLP,37.3880583,-122.0827625,5.418844225493729,0.52428824,13.718,14.216757,1678505395767,,,1940210644210477,1.1097811,Walk
Fix,FLP,37.3880663,-122.0827579,5.418844225493729,0.5378503,13.742,15.791155,1678505396309,,,1940211186739347,1.1097811,Walk
Fix,GPS,37.3879569846,-122.0828490296,44.323241953385065,0.36117077,12.43363,11.597009,1678505394000,0.5871501,180.0,1940211636897000,9.487051,Walk
Fix,FLP,37.3880696,-122.0827561,5.418844225493729,0.54857266,13.773,16.467175,1678505396851,,,1940211729254239,1.1406379,Walk
Fix,NLP,37.3880466,-122.0825478,-2.6999998092651367,,23.752,,1678505396991,,,1940211868000000,1.0547158,Walk
Fix,FLP,37.3880779,-122.0827439,2.457538709232246,0.5679481,13.755,17.92558,1678505397394,,,1940212271774748,1.1734157,Walk
Fix,GPS,37.3879701385,-122.0828400298,44.7009029411441,0.43621576,12.486683,11.597009,1678505395000,0.69505477,32.38581,1940212636608000,9.663314,Walk
Fix,FLP,37.3880799,-122.0827366,1.3824624701543442,0.57063496,13.856,18.205526,1678505397937,,,1940212814291838,1.1823556,Walk
Fix,FLP,37.3880863,-122.0827229,1.3824624701543442,0.5675974,14.035,19.401188,1678505398479,,,1940213356809904,1.1823556,Walk
Fix,GPS,37.3879851479,-122.0828302667,44.46526660293216,0.92956656,12.609481,11.597009,1678505396000,0.8363504,68.59377,1940213636625000,9.851189,Walk
Fix,FLP,37.3880909,-122.0827135,2.6281088691080043,0.5820926,14.168,21.14853,1678505399022,,,1940213899327848,1.1924876,Walk
Fix,FLP,37.3880953,-122.0827084,2.6281088691080043,0.60202783,14.265,22.015604,1678505399563,,,1940214441845365,1.1924876,Walk
Fix,GPS,37.388008262,-122.0828228881,45.74990005145001,1.0576003,12.651304,329.09665,1678505397000,0.6485125,32.305336,1940214636941000,9.991136,Walk
Fix,FLP,37.3881013,-122.0827015,2.6281088691080043,0.64202464,14.445,23.268667,1678505400107,,,1940214984348661,1.2023757,Walk
Fix,FLP,37.3881069,-122.082697,2.6281088691080043,0.6644573,14.594,23.709028,1678505400649,,,1940215526880705,1.2023757,Walk
Fix,GPS,37.3880248476,-122.0828197268,46.1847605481779,0.83223057,12.710283,329.09665,1678505398000,0.75998265,126.8647,1940215636714000,10.105475,Walk
Fix,FLP,37.3881135,-122.0826921,2.6281088691080043,0.6941448,14.756,24.240543,1678505401192,,,1940216069398100,1.2123756,Walk
Fix,FLP,37.3881189,-122.0826888,2.6281088691080043,0.70427865,14.861,24.478516,1678505401734,,,1940216611915678,1.2123756,Walk
Fix,GPS,37.3880403457,-122.0828164675,44.845830594859,0.86146116,12.754397,329.09665,1678505399000,0.6248606,28.745506,1940216637008000,10.208685,Walk
Fix,NLP,37.3880916,-122.0825702,-2.6999998092651367,,25.338,,1678505402023,,,1940216900000000,1.0,Walk
Fix,FLP,37.3881259,-122.0826808,-0.9635484657609724,0.7224254,15.009,25.001575,1678505402262,,,1940217139000000,1.1245513,Walk
Fix,FLP,37.3881307,-122.0826745,-0.9635484657609724,0.7251777,15.168,25.146088,1678505402819,,,1940217696939848,1.1245513,Walk
Fix,GPS,37.388056225,-122.0828111935,44.32540036148782,0.49072802,12.819521,329.09665,1678505400000,0.74084336,136.01424,1940217636711000,10.371357,Walk
Fix,FLP,37.3881395,-122.0826622,0.20811312481041,0.7172554,15.364,25.284199,1678505403362,,,1940218239471342,1.074261,Walk
Fix,GPS,37.3880667902,-122.0828037811,44.14394811993697,0.0,12.845228,329.09665,1678505401000,0.7514594,180.0,1940218636748000,10.4760685,Walk
Fix,FLP,37.388141,-122.0826602,0.20811312481041,0.70746666,15.378,25.124464,1678505403904,,,1940218781984830,1.0938118,Walk
Fix,FLP,37.3881496,-122.0826538,0.20811312481041,0.6577929,15.517,23.649158,1678505404447,,,1940219324501554,1.0938118,Walk
Fix,GPS,37.38807493,-122.0827971186,43.7442610391651,0.4012172,12.633621,329.09665,1678505402000,0.7864682,129.81186,1940219636742000,10.509028,Walk
Fix,FLP,37.3881553,-122.0826507,1.9856953945133784,0.6138445,15.537,22.570208,1678505404990,,,1940219867018888,1.0949011,Walk
Fix,GPS,37.3880757338,-122.0827987741,47.80945583996952,0.0,12.603473,329.09665,1678505403000,0.5559057,70.26519,1940220636797000,9.0414715,Walk
Fix,FLP,37.3881591,-122.0826487,1.9856953945133784,0.6059027,15.547,22.666819,1678505405532,,,1940220409535612,1.1153628,Walk
Fix,FLP,37.3881661,-122.0826449,1.9856953945133784,0.590885,15.591,22.795244,1678505406075,,,1940220952055020,1.1153628,Walk
Fix,GPS,37.3880778173,-122.0827821341,48.13296762296959,0.4146921,12.314984,329.09665,1678505404000,0.5590681,57.923645,1940221636815000,8.874096,Walk
Fix,FLP,37.3881699,-122.0826427,1.9856953945133784,0.5848137,15.639,22.856216,1678505406617,,,1940221494557402,1.1253428,Walk
Fix,NLP,37.3882382,-122.0824815,-2.799999713897705,,21.485,,1678505407060,,,1940221937000000,1.0,Walk
Fix,FLP,37.3881753,-122.0826401,3.980498620535528,0.5738238,15.618,22.88733,1678505407160,,,1940222037085783,1.1587915,Walk
Fix,GPS,37.3880797897,-122.08276879,48.14209342839423,0.0,12.27838,329.09665,1678505405000,0.6818395,69.53562,1940222636794000,8.79774,Walk
Fix,FLP,37.3881838,-122.0826307,-0.6331290438858659,0.5743355,15.627,23.022264,1678505407702,,,1940222579602079,1.1529284,Walk
Fix,FLP,37.3881926,-122.0826184,-0.6331290438858659,0.5517224,15.483,22.561377,1678505408245,,,1940223122118681,1.1529284,Walk
Fix,GPS,37.3880797897,-122.08276879,47.96820578960436,0.0,12.205143,329.09665,1678505406000,0.6655583,45.174423,1940223636896000,8.730974,Walk
Fix,FLP,37.3881962,-122.0826139,0.7074725618364681,0.5271216,15.418,21.82803,1678505408787,,,1940223664634855,1.1710364,Walk
Fix,FLP,37.3882044,-122.0826052,0.7074725618364681,0.48190752,15.342,20.305628,1678505409330,,,1940224207151579,1.1710364,Walk
Fix,GPS,37.3880840994,-122.0827378511,47.754351873598,0.8941949,11.873751,329.09665,1678505407000,0.658896,65.90193,1940224636928000,8.603669,Walk
Fix,FLP,37.3882079,-122.0826015,0.7074725618364681,0.4622159,15.334,19.626328,1678505409872,,,1940224749659207,1.1810464,Walk
Fix,FLP,37.3882168,-122.0825939,0.7074725618364681,0.46685717,15.307,20.03343,1678505410415,,,1940225292183500,1.1810464,Walk
Fix,GPS,37.3880921306,-122.082717265,47.610604554292415,0.89527893,11.768312,329.09665,1678505408000,0.5251082,25.0,1940225636930000,8.598439,Walk
Fix,FLP,37.3882205,-122.0825909,0.2577746479622789,0.48903266,15.302,20.859066,1678505410957,,,1940225834699003,1.1410348,Walk
Fix,FLP,37.3882301,-122.0825844,0.2577746479622789,0.5307569,15.257,22.1362,1678505411500,,,1940226377217496,1.1410348,Walk
Fix,GPS,37.3880998367,-122.0826975015,47.54238670146832,0.7745512,11.753432,329.09665,1678505409000,0.5269017,39.899376,1940226637167000,8.635595,Walk
Fix,FLP,37.3882373,-122.0825801,0.2577746479622789,0.5622379,15.096,23.025972,1678505412042,,,1940226919730436,1.1510148,Walk
Fix,FLP,37.3882422,-122.0825773,0.2577746479622789,0.57568336,15.082,23.594564,1678505412585,,,1940227462246488,1.1510148,Walk
Fix,GPS,37.3881060486,-122.0826807517,47.73322422026953,0.32096624,11.687386,329.09665,1678505410000,0.49468747,143.77252,1940227636877000,8.6653805,Walk
Fix,FLP,37.388249,-122.0825737,-0.5784609071790285,0.5766786,15.333,23.868279,1678505413107,,,1940227984348661,1.1610043,Walk
Fix,FLP,37.3882535,-122.0825716,-0.5784609071790285,0.5666186,15.475,23.23637,1678505413670,,,1940228547277311,1.1610043,Walk
Fix,GPS,37.3881159346,-122.0826642843,47.25637294083929,0.28439716,11.554196,329.09665,1678505411000,0.5071563,164.59476,1940228636858000,8.700361,Walk
Fix,FLP,37.3882599,-122.0825688,-0.5784609071790285,0.54654723,15.698,22.239567,1678505414212,,,1940229089792265,1.1710043,Walk
Fix,FLP,37.3882647,-122.0825666,-0.5784609071790285,0.5367678,15.849,21.984034,1678505414755,,,1940229632312284,1.1710043,Walk
Fix,GPS,37.3881278775,-122.0826473336,46.51457292541811,0.55819434,11.399004,329.09665,1678505412000,0.4848482,94.12636,1940229636904000,8.729919,Walk
Fix,FLP,37.3882714,-122.0825632,-0.5784609071790285,0.5316578,15.991,22.207813,1678505415297,,,1940230174822294,1.1810243,Walk
Fix,FLP,37.3882754,-122.0825609,-0.5784609071790285,0.5360027,16.151,22.45211,1678505415840,,,1940230717337736,1.1810243,Walk
Fix,GPS,37.3881411398,-122.0826336268,45.87297745818789,0.6526326,11.312583,329.09665,1678505413000,0.50252855,40.258244,1940230636989000,8.769726,Walk
Fix,FLP,37.388282,-122.0825569,-2.799999713897705,0.54716605,16.297,23.035774,1678505416382,,,1940231259852018,1.1910143,Walk
Fix,FLP,37.3882861,-122.0825543,-2.799999713897705,0.5549437,16.479,23.417751,1678505416901,,,1940231778000000,1.1910143,Walk
Fix,GPS,37.3881481699,-122.0826230297,45.715881736382826,0.75429493,11.271948,329.09665,1678505414000,0.5460494,25.0,1940231637046000,8.833402,Walk
Fix,FLP,37.3882925,-122.0825497,-0.5928338175229158,0.5725765,16.653,24.28258,1678505417465,,,1940232342000000,1.2251414,Walk
Fix,GPS,37.3881599785,-122.0826156424,45.74256770998027,0.88488907,11.239973,329.09665,1678505415000,0.52830184,164.35403,1940232637223000,8.9003935,Walk
Fix,FLP,37.3882965,-122.082544,1.441777857948246,0.6009834,16.728,26.078033,1678505418010,,,1940232887399199,1.2351314,Walk
Fix,FLP,37.3882968,-122.0825416,1.441777857948246,0.61211896,16.643,26.839603,1678505418552,,,1940233429910490,1.2351314,Walk
Fix,GPS,37.3881718951,-122.0826077425,45.19402016284318,0.5262071,11.200838,329.09665,1678505416000,0.5009634,128.88443,1940233637258000,8.944311,Walk
Fix,FLP,37.3882932,-122.0825391,0.9357677651273306,0.6115281,16.321,28.032253,1678505419095,,,1940233972424894,1.2451214,Walk
Fix,GPS,37.3881825254,-122.0825945279,45.11199678179918,0.44762927,11.126805,329.09665,1678505417000,0.54331064,40.92067,1940234637012000,9.001007,Walk
Fix,FLP,37.388292,-122.0825376,1.2722508597440625,0.60358876,16.099,28.429846,1678505419637,,,1940234514927702,1.2551314,Walk
Fix,FLP,37.3882873,-122.0825369,1.5248420352464933,0.58300024,15.76,29.066517,1678505420180,,,1940235057451200,1.2844368,Walk
Fix,GPS,37.3881891433,-122.0825874469,45.57130190191257,0.5910506,11.09424,329.09665,1678505418000,0.5205716,25.756857,1940235637562000,9.058164,Walk
Fix,FLP,37.3882853,-122.0825364,1.5248420352464933,0.5713723,15.439,29.256075,1678505420722,,,1940235599966764,1.2844368,Walk
Fix,FLP,37.3882792,-122.0825376,1.5248420352464933,0.5550724,15.066,29.728216,1678505421265,,,1940236142481290,1.2944368,Walk
Fix,GPS,37.388203263,-122.0825793065,44.67547421597124,0.42893964,11.083622,329.09665,1678505419000,0.5344092,143.96515,1940236637212000,9.139415,Walk
Fix,FLP,37.3882758,-122.0825389,1.5248420352464933,0.55177444,14.779,29.752434,1678505421807,,,1940236684994902,1.3044168,Walk
Fix,FLP,37.3882702,-122.0825421,1.5248420352464933,0.5339606,13.833,29.635622,1678505422350,,,1940237227509306,1.3044168,Walk
Fix,GPS,37.3882103279,-122.0825709105,44.43633807881518,0.5073609,11.023501,329.09665,1678505420000,0.52621436,112.303734,1940237637014000,9.196284,Walk
Fix,FLP,37.3882672,-122.0825441,-0.6249365552162374,0.52513266,13.659,29.778896,1678505422893,,,1940237770022734,1.3144268,Walk
Fix,FLP,37.3882643,-122.0825467,-0.6249365552162374,0.5115164,12.923,30.183407,1678505423435,,,1940238312533170,1.3144268,Walk
Fix,GPS,37.3882267917,-122.0825577338,43.94705256905163,0.5099339,10.913951,329.09665,1678505421000,0.4565306,46.363407,1940238637018000,9.220415,Walk
Fix,FLP,37.388261,-122.08255,-0.6249365552162374,0.5044508,12.115,30.679373,1678505423978,,,1940238855050443,1.3244368,Walk
Fix,FLP,37.3882628,-122.0825488,-0.6249365552162374,0.50348276,11.596,31.077839,1678505424520,,,1940239397566678,1.3244368,Walk
Fix,GPS,37.3882388243,-122.0825463693,43.09115726037581,0.62803197,10.920787,329.09665,1678505422000,0.46874678,25.0,1940239637352000,9.253681,Walk
Fix,FLP,37.3882638,-122.0825476,-2.799999713897705,0.5087699,10.914,31.973093,1678505425063,,,1940239940076872,1.334375,Walk
Fix,FLP,37.3882669,-122.0825443,-2.799999713897705,0.51583284,10.503,32.547253,1678505425605,,,1940240482590665,1.334375,Walk
Fix,GPS,37.388247297,-122.0825268492,43.33216440442656,0.0,10.838238,329.09665,1678505423000,0.47837615,180.0,1940240637186000,9.279883,Walk
Fix,FLP,37.3882699,-122.0825397,-2.799999713897705,0.49453032,9.595,33.204468,1678505426106,,,1940240984348661,1.3443949,Walk
Fix,FLP,37.3882734,-122.0825353,-2.799999713897705,0.46987525,8.972,33.116394,1678505426690,,,1940241567617277,1.3443949,Walk
Fix,GPS,37.388247297,-122.0825268492,43.56767980338676,0.0,10.539518,329.09665,1678505424000,0.5141002,180.0,1940241637076000,9.248749,Walk
Fix,FLP,37.388278,-122.0825296,-2.799999713897705,0.42547265,8.514,32.732906,1678505427233,,,1940242110123014,1.354385,Walk
Fix,GPS,37.3882605397,-122.0824983823,43.6480385099597,0.31690723,10.1967745,329.09665,1678505425000,0.46122935,94.38369,1940242637180000,9.183581,Walk
Fix,FLP,37.3882811,-122.0825259,-0.3289775777531147,0.40552744,8.311,32.766125,1678505427775,,,1940242652643400,1.364385,Walk
Fix,FLP,37.3882865,-122.082518,-0.3289775777531147,0.38432246,7.698,33.298206,1678505428318,,,1940243195156034,1.364385,Walk
Fix,GPS,37.3882691449,-122.0824868962,45.13108610064481,0.0,10.092337,329.09665,1678505426000,0.43110776,180.0,1940243637068000,9.178188,Walk
Fix,FLP,37.3882881,-122.0825152,-10.969818560631772,0.38375732,7.733,33.33927,1678505428860,,,1940243737672209,1.374395,Walk
Fix,FLP,37.3882914,-122.0825098,-10.969818560631772,0.36607072,7.736,33.033455,1678505429407,,,1940244285000000,1.374395,Walk
Fix,GPS,37.3882691449,-122.0824868962,47.81139760329037,0.0,9.663517,329.09665,1678505427000,0.04017134,52.156628,1940244637124000,8.182482,Walk
Fix,FLP,37.3882941,-122.0825055,-14.9404537505324,0.3495192,7.781,33.03423,1678505429945,,,1940244822694914,1.3837429,Walk
Fix,GPS,37.3882691449,-122.0824868962,47.56917726715611,0.0,9.410875,329.09665,1678505428000,0.4332411,63.520916,1940245637634000,8.039983,Walk
Fix,FLP,37.3882971,-122.0824995,-15.74294378144139,0.33081982,7.869,33.499302,1678505430488,,,1940245365209134,1.3937529,Walk
Fix,GPS,37.3882691449,-122.0824868962,48.40684128076231,0.0,9.163479,329.09665,1678505429000,0.045237713,118.869,1940246637359000,7.883005,Walk
Fix,FLP,37.3882991,-122.0824936,-14.9404537505324,0.3110477,8.042,34.077988,1678505431573,,,1940246450230497,1.4037529,Walk
Fix,GPS,37.3882691449,-122.0824868962,48.74760397648722,0.0,8.956795,329.09665,1678505430000,0.045144115,32.217907,1940247637370000,7.7474327,Walk
Fix,FLP,37.3882989,-122.0824891,-11.711834019916472,0.28888637,8.148,34.78416,1678505432658,,,1940247535258329,1.413754,Walk
Fix,GPS,37.3882691449,-122.0824868962,48.60835439462765,0.0,8.842989,329.09665,1678505431000,0.43674895,180.0,1940248637475000,7.636591,Walk
Fix,FLP,37.3882965,-122.0824865,-11.037835094394374,0.26442307,8.046,35.35743,1678505433743,,,1940248620283354,1.4237541,Walk
Fix,GPS,37.3882691449,-122.0824868962,48.90555200451416,0.0,8.805946,329.09665,1678505432000,0.52650446,80.140175,1940249637269000,7.5423875,Walk
Fix,FLP,37.3882934,-122.0824851,-10.862422919375753,0.23728791,7.842,37.354664,1678505434828,,,1940249705308744,1.433734,Walk
Fix,GPS,37.3882942698,-122.082452783,48.98839131690374,0.58077914,8.794138,329.09665,1678505433000,0.5037741,52.66062,1940250637759000,7.4514084,Walk
Fix,FLP,37.38829,-122.0824837,-11.08744079269998,0.16793866,7.553,55.355145,1678505435913,,,1940250790330839,1.4437641,Walk
Fix,GPS,37.3882996262,-122.0824561707,48.80127003915637,0.39875582,9.292881,329.09665,1678505434000,0.63133156,180.0,1940251637213000,7.4551797,Walk
Fix,FLP,37.3882891,-122.0824809,-10.150612021196116,0.1909341,7.374,55.62455,1678505436455,,,1940251332846281,1.4010248,Walk
Fix,GPS,37.3883030184,-122.0824524234,48.79269748478728,0.0,9.345988,329.09665,1678505435000,0.4448623,63.878094,1940252637491000,7.4669585,Walk
Fix,FLP,37.3882898,-122.0824777,-9.061088078820354,0.2032579,6.809,55.173214,1678505437540,,,1940252417870634,1.4110148,Walk
Fix,GPS,37.3883030184,-122.0824524234,48.74402614111457,0.0,9.179859,329.09665,1678505436000,0.4379883,149.7989,1940253637258000,7.401637,Walk
Fix,FLP,37.3882917,-122.0824748,-10.204317316283884,0.18519892,6.739,52.75232,1678505438625,,,1940253502894865,1.4210148,Walk
Fix,GPS,37.3883030184,-122.0824524234,48.46726294669966,0.0,8.967707,329.09665,1678505437000,0.45220447,168.38315,1940254637374000,7.2574506,Walk
Fix,FLP,37.388294,-122.0824716,-10.162376067399109,0.17210472,6.455,51.070354,1678505439710,,,1940254587918913,1.4310048,Walk
Fix,GPS,37.3883030184,-122.0824524234,48.30748313042761,0.0,8.775861,329.09665,1678505438000,0.44385016,180.0,1940255637883000,7.1621633,Walk
Fix,FLP,37.3882962,-122.0824689,-10.437547782285982,0.16052662,6.369,49.72254,1678505440794,,,1940255672942228,1.4410448,Walk
Fix,GPS,37.3883190362,-122.0824388774,48.33448168602207,0.3329449,8.683138,329.09665,1678505439000,0.48544726,93.37121,1940256637500000,7.093178,Walk
Fix,FLP,37.3882981,-122.0824665,-10.857960131171168,0.14972816,6.352,48.589077,1678505441880,,,1940256757965849,1.4510348,Walk
Fix,GPS,37.3883261576,-122.0824301838,48.37865759988369,0.0,8.920122,329.09665,1678505440000,0.47799337,105.858116,1940257637599000,7.131833,Walk
Fix,FLP,37.3883002,-122.0824635,-11.246643944611089,0.16504866,6.418,48.0228,1678505442965,,,1940257842992093,1.4610448,Walk
Fix,GPS,37.3883261576,-122.0824301838,48.2391924840098,0.0,8.795228,329.09665,1678505441000,0.46463102,180.0,1940258637387000,7.096339,Walk
Fix,FLP,37.388302,-122.0824606,-11.0425871709353,0.15360497,6.405,46.91219,1678505443508,,,1940258385500578,1.4710048,Walk
Fix,GPS,37.3883261576,-122.0824301838,48.02266213061446,0.0,8.69222,329.09665,1678505442000,0.4736605,107.53922,1940259637417000,7.082688,Walk
Fix,FLP,37.3883041,-122.0824577,-10.9858186212687,0.14396082,6.374,46.112022,1678505444592,,,1940259470523649,1.4810148,Walk
Fix,GPS,37.3883261576,-122.0824301838,48.17836765783152,0.0,8.619867,329.09665,1678505443000,0.5566595,67.949265,1940260637911000,6.8975673,Walk
Fix,FLP,37.3883061,-122.0824546,-11.156123126585236,0.13551964,6.306,45.81013,1678505445678,,,1940260555546659,1.4910249,Walk
Fix,GPS,37.3883261576,-122.0824301838,48.040742580456765,0.0,8.551787,329.09665,1678505444000,0.4812083,180.0,1940261637498000,6.8219795,Walk
Fix,FLP,37.388308,-122.0824518,-11.195502358631437,0.12720464,6.221,45.016853,1678505446763,,,1940261640569303,1.5010248,Walk
Fix,GPS,37.3883261576,-122.0824301838,47.95751402129373,0.0,8.474355,329.09665,1678505445000,0.48406225,180.0,1940262637380000,6.7530894,Walk
Fix,FLP,37.3883101,-122.0824493,-11.516973634430244,0.119790755,6.131,44.37269,1678505447848,,,1940262725582731,1.5362853,Walk
Fix,GPS,37.3883261576,-122.0824301838,47.23680516801781,0.0,8.395756,329.09665,1678505446000,0.48629797,27.884094,1940263637607000,6.6796737,Walk
Fix,FLP,37.3883118,-122.082447,-11.855504882129374,0.1125781,5.925,44.545162,1678505448933,,,1940263810613798,1.5463053,Walk
Fix,FLP,37.3883134,-122.082445,-11.855504882129374,0.09825307,5.889,,1678505449476,,,1940264353125272,1.5463053,Walk
Fix,GPS,37.3883287705,-122.0824241926,47.10118798584639,0.90442014,8.316195,329.09665,1678505447000,0.4964233,51.08163,1940264637675000,6.6106315,Walk
Fix,FLP,37.3883191,-122.0824404,-11.033699344588996,0.21576725,6.166,359.3168,1678505449760,0.4964233,51.08163,1940264637675000,1.5562853,Walk
Fix,GPS,37.3883410591,-122.0824168735,46.98922259104168,0.56153923,8.618462,329.09665,1678505448000,0.4749024,76.82305,1940265637708000,6.6640577,Walk
Fix,FLP,37.3883233,-122.0824367,-11.033699344588996,0.2720161,6.473,352.1678,1678505450760,0.4749024,76.82305,1940265637708000,1.5662652,Walk
Fix,FLP,37.3883233,-122.082437,-11.033699344588996,0.27548715,6.385,357.5966,1678505451102,,,1940265980657926,1.5662652,Walk
Fix,FLP,37.3883238,-122.0824367,-11.033699344588996,0.2821264,6.4,2.737275,1678505451646,,,1940266523162016,1.5662652,Walk
Fix,GPS,37.3883499977,-122.0824123192,46.87662380342737,0.4870482,8.882749,329.09665,1678505449000,0.47823155,65.45052,1940266637431000,6.7372837,Walk
Fix,FLP,37.3883249,-122.0824355,0.6249041150097341,0.29826027,6.324,10.313942,1678505452188,,,1940267065669279,1.5762752,Walk
Fix,FLP,37.3883267,-122.0824342,0.6249041150097341,0.30679864,6.365,13.301631,1678505452731,,,1940267608193632,1.5762752,Walk
Fix,GPS,37.3883616644,-122.0824130294,46.76857958780637,0.7185178,9.05931,329.09665,1678505450000,0.4618974,75.47774,1940267637458000,6.82,Walk
Fix,FLP,37.3883297,-122.0824321,-2.799999713897705,0.33359545,6.368,18.250336,1678505453273,,,1940268150701200,1.5862852,Walk
Fix,FLP,37.3883325,-122.0824302,-2.799999713897705,0.35244977,6.441,20.444391,1678505453816,,,1940268693214505,1.5962952,Walk
Fix,GPS,37.3883743923,-122.0824205095,46.14624438875269,0.5147456,9.169962,329.09665,1678505451000,0.4429243,32.929054,1940268637617000,6.906829,Walk
Fix,FLP,37.3883372,-122.0824278,-2.799999713897705,0.37928545,6.558,22.842323,1678505454358,,,1940269235722441,1.5962952,Walk
Fix,GPS,37.388391693,-122.0824293134,46.18770390470028,0.7118654,9.222471,329.09665,1678505452000,0.43586656,67.4987,1940269637582000,7.0044503,Walk
Fix,FLP,37.3883411,-122.082426,-2.799999713897705,0.3888276,6.757,23.516098,1678505454901,,,1940269778220914,1.5962952,Walk
Fix,FLP,37.3883481,-122.0824238,-2.799999713897705,0.4153346,6.874,24.526995,1678505455421,,,1940270298000000,1.6062653,Walk
Fix,GPS,37.3884100024,-122.0824320498,45.96692291709131,0.8119529,9.265991,329.09665,1678505453000,0.45642152,67.501755,1940270637506000,7.117395,Walk
Fix,FLP,37.3883567,-122.0824223,-2.799999713897705,0.45246172,6.773,25.012888,1678505455986,,,1940270863254972,1.6163052,Walk
Fix,GPS,37.3884183182,-122.0824299432,45.90136875118676,0.7786254,9.3299465,329.09665,1678505454000,0.45427963,25.0,1940271637658000,7.2381287,Walk
Fix,FLP,37.3883659,-122.0824204,-2.799999713897705,0.48836118,7.061,24.688734,1678505456528,,,1940271405754606,1.6262853,Walk
Fix,FLP,37.3883753,-122.0824189,-2.799999713897705,0.51776016,7.344,23.48493,1678505457071,,,1940271948266630,1.6262853,Walk
Fix,FLP,37.3883826,-122.0824176,-2.799999713897705,0.5321544,7.566,22.375675,1678505457613,,,1940272490784880,1.6262853,Walk
Fix,GPS,37.3884306847,-122.0824306797,46.01360272607191,1.2189391,9.355897,7.558885,1678505455000,0.4699945,25.0,1940272637515000,7.349552,Walk
Fix,FLP,37.3883951,-122.0824162,-2.799999713897705,0.5745155,7.716,20.361769,1678505458155,,,1940273033295927,1.6362853,Walk
Fix,FLP,37.388403,-122.0824153,-2.799999713897705,0.6037862,7.826,19.249704,1678505458698,,,1940273575798002,1.6362853,Walk
Fix,GPS,37.3884446695,-122.0824324851,45.81875428777982,1.1892993,9.461358,13.487278,1678505456000,0.5265372,25.0,1940273637503000,7.4846883,Walk
Fix,FLP,37.3884162,-122.0824144,-2.799999713897705,0.6552538,7.993,17.244621,1678505459241,,,1940274118316496,1.6462853,Walk
Fix,FLP,37.3884242,-122.0824138,-2.799999713897705,0.68060595,8.053,16.198282,1678505459783,,,1940274660826444,1.6462853,Walk
Fix,GPS,37.3884538902,-122.0824278048,45.62582224732331,0.8163812,9.554235,13.487278,1678505457000,0.4775837,73.162125,1940274637783000,7.616571,Walk
Fix,FLP,37.3884367,-122.0824138,-2.799999713897705,0.7097533,8.135,13.84401,1678505460326,,,1940275203337064,1.6564769,Walk
Fix,GPS,37.3884614557,-122.0824148879,45.76318925750206,0.5982391,9.630844,13.487278,1678505458000,0.49316913,47.31032,1940275637874000,7.75816,Walk
Fix,FLP,37.3884432,-122.082414,-2.799999713897705,0.7180825,8.19,12.773395,1678505460868,,,1940275745837248,1.6664668,Walk
Fix,FLP,37.3884551,-122.082414,-2.799999713897705,0.72427386,8.267,10.9301,1678505461411,,,1940276288357450,1.6664668,Walk
Fix,GPS,37.3884672444,-122.0824060295,45.79711868254069,0.69233036,9.82202,13.487278,1678505459000,0.5624727,45.28595,1940276637596000,7.8948965,Walk
Fix,FLP,37.388461,-122.0824138,-2.799999713897705,0.7248695,8.289,10.413694,1678505461953,,,1940276830867216,1.6765769,Walk
Fix,FLP,37.3884722,-122.0824125,-2.799999713897705,0.7283609,8.34,10.060577,1678505462498,,,1940277376000000,1.6765769,Walk
Fix,GPS,37.3884708862,-122.0823990649,45.56282533767604,1.0355109,9.92346,355.4324,1678505460000,0.495337,25.0,1940277637609000,8.024365,Walk
Fix,FLP,37.3884812,-122.0824102,0.0349603842853198,0.74636066,8.32,10.490657,1678505463038,,,1940277915887480,1.6865069,Walk
Fix,FLP,37.3884874,-122.082408,0.0349603842853198,0.7622891,8.354,10.931739,1678505463539,,,1940278416000000,1.6865069,Walk
Fix,GPS,37.3884777695,-122.0823979311,45.33813994223056,1.090683,9.995374,359.25916,1678505461000,0.4946791,25.0,1940278637639000,8.166756,Walk
Fix,FLP,37.3884953,-122.0824044,0.8399980086939678,0.79082775,8.356,11.874064,1678505464102,,,1940278979000000,1.6964709,Walk
Fix,GPS,37.3884835973,-122.0823970793,44.85955361160213,1.6622685,10.0676155,1.0841426,1678505462000,0.49973273,25.0,1940279637621000,8.300221,Walk
Fix,FLP,37.3885033,-122.0824003,0.8399980086939678,0.81836605,8.411,12.97809,1678505464666,,,1940279543417692,1.7064608,Walk
Fix,FLP,37.3885121,-122.0823953,0.8399980086939678,0.86220604,8.455,13.882328,1678505465208,,,1940280085916410,1.7064608,Walk
Fix,GPS,37.3884946553,-122.0823930963,45.13310245646441,1.0035518,10.115414,30.139791,1678505463000,0.49515513,25.672907,1940280637862000,8.428518,Walk
Fix,FLP,37.3885158,-122.0823929,0.0349603842853198,0.89275247,8.488,14.248014,1678505465751,,,1940280628437589,1.7164809,Walk
Fix,FLP,37.3885246,-122.0823873,0.0349603842853198,0.9265389,8.55,15.173345,1678505466293,,,1940281170947233,1.7164809,Walk
Fix,GPS,37.3885047774,-122.0823858169,44.72441075529967,0.7655134,10.150459,30.139791,1678505464000,0.50716525,58.854218,1940281637870000,8.544327,Walk
Fix,FLP,37.3885275,-122.0823851,-2.799999713897705,0.9326175,8.582,15.624142,1678505466836,,,1940281713457853,1.7264608,Walk
Fix,FLP,37.3885361,-122.0823798,-2.799999713897705,0.93191075,8.638,16.274303,1678505467378,,,1940282255967253,1.7264608,Walk
Fix,GPS,37.3885110749,-122.0823752657,44.01537969374457,1.0287329,10.202533,56.57581,1678505465000,0.49070856,25.615488,1940282637970000,8.666392,Walk
Fix,FLP,37.3885388,-122.0823779,-2.799999713897705,0.9279352,8.695,16.315825,1678505467921,,,1940282798477323,1.7364608,Walk
Fix,FLP,37.3885474,-122.0823725,-2.799999713897705,0.9287621,8.782,16.64765,1678505468463,,,1940283340990018,1.7364608,Walk
Fix,GPS,37.3885167932,-122.082363461,43.66601652372098,0.8846265,10.213945,56.57581,1678505466000,0.4758259,27.352308,1940283637905000,8.781236,Walk
Fix,FLP,37.3885523,-122.0823679,-2.799999713897705,0.93255323,8.806,17.231228,1678505469006,,,1940283883497221,1.7464608,Walk
Fix,GPS,37.3885274621,-122.0823535149,43.65129047427197,1.0221565,10.259749,29.691303,1678505467000,0.48657653,25.0,1940284637692000,8.89138,Walk
Fix,FLP,37.3885577,-122.0823641,-2.799999713897705,0.93241745,8.835,17.63783,1678505469548,,,1940284425995512,1.7564508,Walk
Fix,FLP,37.3885617,-122.0823601,-2.799999713897705,0.93759495,8.821,18.204018,1678505470091,,,1940284968516630,1.7564508,Walk
Fix,FLP,37.388567,-122.0823558,-2.799999713897705,0.94375783,8.849,18.74099,1678505470634,,,1940285511025907,1.7564508,Walk
Fix,GPS,37.3885430897,-122.0823390862,43.62260601351557,0.97614455,10.29757,29.691303,1678505468000,0.49911115,43.693436,1940285637917000,8.993056,Walk
Fix,FLP,37.3885727,-122.0823492,-2.799999713897705,0.95146745,8.802,19.763676,1678505471176,,,1940286053535917,1.7664608,Walk
Fix,FLP,37.3885778,-122.0823445,-2.799999713897705,0.95501494,8.825,20.25834,1678505471719,,,1940286596045378,1.7664608,Walk
Fix,GPS,37.388551227,-122.0823230928,44.1573763038037,0.8574224,10.3477,29.691303,1678505469000,0.5011154,77.14811,1940286637733000,9.089185,Walk
Fix,FLP,37.3885834,-122.0823371,-2.799999713897705,0.9551022,8.764,21.18503,1678505472268,,,1940287145000000,1.803753,Walk
Fix,GPS,37.3885625136,-122.0823120085,44.62942439534892,0.8233109,10.353037,29.691303,1678505470000,0.506235,51.06434,1940287637761000,9.165249,Walk
Fix,FLP,37.3885879,-122.0823306,-2.799999713897705,0.94914687,8.729,22.065596,1678505472804,,,1940287681063321,1.813773,Walk
Fix,FLP,37.3885935,-122.0823243,-2.799999713897705,0.9458254,8.682,22.483446,1678505473346,,,1940288223574003,1.813773,Walk
Fix,GPS,37.3885773114,-122.0823030714,43.45959478689847,1.1556664,10.366945,12.727692,1678505471000,0.50873286,25.0,1940288638064000,9.234897,Walk
Fix,FLP,37.3885977,-122.0823177,1.607812528013163,0.9381907,8.671,23.183508,1678505473889,,,1940288766064665,1.823743,Walk
Fix,FLP,37.3886067,-122.0823083,1.607812528013163,0.94451386,8.679,24.060307,1678505474431,,,1940289308593046,1.823743,Walk
Fix,GPS,37.3885960734,-122.0822901329,43.40269237311509,1.2489778,10.358194,17.338375,1678505472000,0.4705222,25.0,1940289637771000,9.3069515,Walk
Fix,FLP,37.3886123,-122.0823003,1.607812528013163,0.9668539,8.645,25.106592,1678505474974,,,1940289851102079,1.833763,Walk
Fix,FLP,37.3886172,-122.0822948,1.607812528013163,0.98058075,8.603,25.71185,1678505475516,,,1940290393611540,1.833763,Walk
Fix,GPS,37.3886153983,-122.0822753162,43.518279192526,1.2607706,10.324005,7.9252615,1678505473000,0.4785911,25.0,1940290638099000,9.364487,Walk
Fix,FLP,37.3886237,-122.0822858,-6.154084499708354,1.0048702,8.566,26.887573,1678505476059,,,1940290936120634,1.843823,Walk
Fix,FLP,37.3886287,-122.0822797,-6.154084499708354,1.0182488,8.497,27.424953,1678505476601,,,1940291478630155,1.843823,Walk
Fix,GPS,37.3886276404,-122.0822672266,44.10151090065311,1.181895,10.349376,3.7758243,1678505474000,0.47737506,25.0,1940291637817000,9.412113,Walk
Fix,FLP,37.3886358,-122.0822705,-5.376270811546867,1.0384206,8.452,28.301437,1678505477107,,,1940291984348661,1.853743,Walk
Fix,FLP,37.3886411,-122.082265,-5.376270811546867,1.0479013,8.425,28.643929,1678505477686,,,1940292563644193,1.853743,Walk
Fix,GPS,37.388633739,-122.0822614858,45.05994290558027,0.6561849,10.398155,3.7758243,1678505475000,0.48786417,175.76903,1940292637835000,9.456588,Walk
Fix,FLP,37.3886487,-122.0822569,-5.670006233072087,1.0367776,8.399,28.987354,1678505478229,,,1940293106157499,1.8639129,Walk
Fix,FLP,37.3886539,-122.0822518,-5.670006233072087,1.0194405,8.371,29.03576,1678505478770,,,1940293648667021,1.8639129,Walk
Fix,GPS,37.3886388415,-122.0822497238,45.24965189250876,0.80161786,10.36046,3.7758243,1678505476000,0.48927262,43.489758,1940293638135000,9.493525,Walk
Fix,FLP,37.3886613,-122.0822442,-5.376270811546867,0.9946028,8.336,29.385403,1678505479314,,,1940294191175749,1.8737429,Walk
Fix,GPS,37.3886414897,-122.0822377226,45.11544456153908,0.9384014,10.388505,3.7758243,1678505477000,0.5292538,45.483402,1940294637843000,9.531486,Walk
Fix,FLP,37.3886659,-122.0822395,-5.376270811546867,0.98701984,8.332,29.731354,1678505479856,,,1940294733683072,1.8737429,Walk
Fix,FLP,37.3886727,-122.0822316,-2.799999713897705,0.97851616,8.352,30.459877,1678505480399,,,1940295276193815,1.8310044,Walk
Fix,GPS,37.3886444792,-122.0822283895,45.33978896484959,0.34672862,10.386745,3.7758243,1678505478000,0.4817998,78.36453,1940295638146000,9.553574,Walk
Fix,FLP,37.3886755,-122.0822282,-2.799999713897705,0.979089,8.367,30.759693,1678505480941,,,1940295818703153,1.8410244,Walk
Fix,FLP,37.3886825,-122.0822201,-2.799999713897705,0.9435809,8.428,30.987225,1678505481484,,,1940296361208952,1.8410244,Walk
Fix,GPS,37.3886501181,-122.0822196892,45.406352385405256,0.0,10.400576,3.7758243,1678505479000,0.5046829,138.50687,1940296637878000,9.59901,Walk
Fix,FLP,37.388685,-122.082215,-2.799999713897705,0.86086,8.475,30.800316,1678505482026,,,1940296903721403,1.8510044,Walk
Fix,FLP,37.3886889,-122.0822101,-2.799999713897705,0.8132726,8.544,30.642756,1678505482568,,,1940297446218534,1.8510044,Walk
Fix,GPS,37.3886559175,-122.0822072791,45.29947547245912,0.4268961,10.121322,3.7758243,1678505480000,0.49525282,101.3521,1940297637906000,9.5751915,Walk
Fix,FLP,37.3886919,-122.082204,-2.799999713897705,0.7523143,8.603,30.91079,1678505483108,,,1940297985000000,1.8610444,Walk
Fix,FLP,37.3886958,-122.0821984,-2.799999713897705,0.7364038,8.673,31.35722,1678505483654,,,1940298531247831,1.8610444,Walk
Fix,GPS,37.3886651946,-122.0821957672,44.96140380056993,0.5295828,10.198417,3.7758243,1678505481000,0.5129912,69.39085,1940298637922000,9.623016,Walk
Fix,FLP,37.3886993,-122.0821907,-2.799999713897705,0.7123928,8.72,32.367653,1678505484197,,,1940299074000000,1.8710144,Walk
Fix,FLP,37.3887027,-122.0821849,-2.799999713897705,0.70434743,8.785,32.985195,1678505484704,,,1940299581000000,1.8710144,Walk
Fix,GPS,37.3886721491,-122.0821909712,45.31292694972281,0.7403755,10.2922325,3.7758243,1678505482000,0.4973799,65.29346,1940299638037000,9.6335535,Walk
Fix,FLP,37.3887083,-122.0821736,-2.799999713897705,0.6911901,8.898,34.65649,1678505485281,,,1940300158774503,1.8810244,Walk
Fix,GPS,37.3886846885,-122.0821836713,45.48361798011982,0.7184372,10.333359,3.7758243,1678505483000,0.5050645,58.26699,1940300638201000,9.653461,Walk
Fix,FLP,37.3887093,-122.0821708,-0.8646976744688573,0.6950072,8.935,35.179996,1678505485824,,,1940300701279874,1.8910444,Walk
Fix,FLP,37.3887149,-122.0821618,-0.8646976744688573,0.70053214,9.019,36.038273,1678505486366,,,1940301243791898,1.8910444,Walk
Fix,GPS,37.3887003211,-122.0821725654,45.3928534038556,1.0530026,10.365469,357.80197,1678505484000,0.49249616,25.0,1940301638077000,9.648074,Walk
Fix,FLP,37.3887161,-122.0821594,-2.799999713897705,0.7034749,9.052,36.10608,1678505486909,,,1940301786289762,1.9010044,Walk
Fix,FLP,37.3887232,-122.0821505,-2.799999713897705,0.7224705,9.125,36.302467,1678505487451,,,1940302328809843,1.9010044,Walk
Fix,GPS,37.3887144289,-122.0821668463,45.09168725350621,0.8362148,10.418634,357.80197,1678505485000,0.5014709,37.884453,1940302638033000,9.658229,Walk
Fix,FLP,37.3887274,-122.0821453,-2.799999713897705,0.7429166,9.129,36.355877,1678505487994,,,1940302871318144,1.9110444,Walk
Fix,FLP,37.3887317,-122.0821411,-2.799999713897705,0.7490729,9.138,36.222466,1678505488536,,,1940303413827177,1.9110444,Walk
Fix,GPS,37.3887261664,-122.0821608136,45.61631899948223,0.8552942,10.487661,357.80197,1678505486000,0.4871679,38.35486,1940303638210000,9.649951,Walk
Fix,FLP,37.3887369,-122.0821364,-8.413956919584926,0.7599871,9.163,35.979034,1678505489079,,,1940303956335478,1.9210144,Walk
Fix,FLP,37.3887419,-122.0821324,-8.413956919584926,0.7668859,9.177,35.903877,1678505489621,,,1940304498844694,1.9210144,Walk
Fix,GPS,37.3887382685,-122.082154342,45.93406494476061,0.72962147,10.529711,357.80197,1678505487000,0.47886848,78.442604,1940304638002000,9.642318,Walk
Fix,FLP,37.3887482,-122.0821278,-6.523436316483824,0.77248067,9.175,35.79753,1678505490164,,,1940305041346342,1.9310144,Walk
Fix,FLP,37.3887532,-122.0821238,-6.523436316483824,0.7729891,9.21,35.86385,1678505490706,,,1940305583862760,1.9310144,Walk
Fix,GPS,37.3887532409,-122.0821497598,45.7457396133368,0.29935735,10.491721,357.80197,1678505488000,0.45719934,180.0,1940305638312000,9.6139345,Walk
Fix,FLP,37.3887598,-122.0821194,-1.004484201146326,0.7483171,9.209,35.32104,1678505491249,,,1940306126370817,1.9410344,Walk
Fix,FLP,37.3887651,-122.082116,-1.004484201146326,0.7245609,9.22,34.40869,1678505491791,,,1940306668879667,1.9410344,Walk
Fix,GPS,37.3887702541,-122.0821463813,45.22743069435789,0.52229536,10.415512,357.80197,1678505489000,0.47034547,50.091152,1940306638154000,9.599492,Walk
Fix,FLP,37.3887727,-122.082113,-6.523436316483824,0.69513166,9.208,32.9014,1678505492334,,,1940307211387968,1.9510244,Walk
Fix,GPS,37.3887863821,-122.0821435111,45.32645691410591,0.7340343,10.312412,357.80197,1678505490000,0.45345742,59.982414,1940307638196000,9.564951,Walk
Fix,FLP,37.3887785,-122.0821103,-6.523436316483824,0.6889216,9.25,32.382004,1678505492876,,,1940307753897001,1.9510244,Walk
Fix,FLP,37.3887875,-122.0821079,-2.799999713897705,0.6880021,9.273,31.636703,1678505493418,,,1940308296405241,1.9610244,Walk
Fix,GPS,37.3888049996,-122.0821336663,46.24107080509613,0.74693644,10.181183,357.80197,1678505491000,0.4333574,80.87207,1940308638244000,9.522019,Walk
Fix,FLP,37.3887923,-122.0821066,-2.799999713897705,0.693626,9.287,31.382807,1678505493961,,,1940308838903775,1.9710344,Walk
Fix,FLP,37.3888019,-122.0821044,-2.799999713897705,0.7033111,9.292,30.833618,1678505494481,,,1940309359000000,1.9710344,Walk
Fix,GPS,37.3888176026,-122.082124008,46.24871963123548,0.46252045,10.091139,357.80197,1678505492000,0.5259895,106.548004,1940309638155000,9.498511,Walk
Fix,FLP,37.3888101,-122.0821039,-2.799999713897705,0.6972094,9.205,29.77996,1678505495022,,,1940309899000000,1.9810148,Walk
Fix,GPS,37.3888342717,-122.0821140488,46.1812596707952,0.0,9.970799,357.80197,1678505493000,0.43678516,164.83495,1940310638386000,9.485833,Walk
Fix,FLP,37.3888188,-122.0821025,-2.799999713897705,0.6776356,9.149,28.332542,1678505495589,,,1940310466439726,2.0162907,Walk
Fix,FLP,37.3888277,-122.0821009,-2.799999713897705,0.63446933,9.088,25.51645,1678505496107,,,1940310984348661,2.0162907,Walk
Fix,GPS,37.388849427,-122.0821110098,45.924896378082,0.50068754,9.608238,357.80197,1678505494000,0.45041397,43.627064,1940311638104000,9.401342,Walk
