Fix,Provider,LatitudeDegrees,LongitudeDegrees,AltitudeMeters,SpeedMps,AccuracyMeters,BearingDegrees,UnixTimeMillis,SpeedAccuracyMps,BearingAccuracyDegrees,elapsedRealtimeNanos,VerticalAccuracyMeters,TransitType
Fix,FLP,37.421724,-122.1589356,-17.613346136146248,0.004613826,9.856,,1678315313764,,,1750125772648029,3.9918132,Walk
Fix,GPS,37.4217212643,-122.1589720984,-9.269345606940732,0.7369509,6.131328,302.223,1678315312000,0.30033952,25.0,1750126851851000,11.457764,Walk
Fix,FLP,37.4217156,-122.1589267,-17.418300305199026,0.024128295,11.271,,1678315314519,,,1750126527859577,4.002213,Walk
Fix,FLP,37.4217148,-122.1589268,-17.418300305199026,0.05781657,11.445,,1678315315026,,,1750127034352679,4.002213,Walk
Fix,FLP,37.421714,-122.1589274,-17.418300305199026,0.121844746,12.599,318.56915,1678315315532,,,1750127540846454,4.002213,Walk
Fix,GPS,37.4217195175,-122.1589815398,-10.069023589042638,0.8508142,5.9295096,303.143,1678315313000,0.34266213,25.0,1750127851869000,11.190331,Walk
Fix,FLP,37.4217125,-122.1589275,-17.74101006137915,0.18167014,12.651,317.63034,1678315316039,,,1750128047343402,4.011823,Walk
Fix,GPS,37.4217202803,-122.1589948964,-10.372087836439546,0.97369576,5.7591286,295.64874,1678315314000,0.39646408,25.0,1750128851876000,10.962067,Walk
Fix,FLP,37.4217117,-122.1589276,-17.777485114466444,0.21196693,12.665,317.23697,1678315316545,,,1750128553840289,4.022213,Walk
Fix,FLP,37.4217117,-122.158931,-17.777485114466444,0.27434877,12.659,316.48666,1678315317052,,,1750129060328570,4.022213,Walk
Fix,FLP,37.4217126,-122.1589341,-17.777485114466444,0.3071784,12.695,316.06616,1678315317558,,,1750129566832476,4.022213,Walk
Fix,GPS,37.4217202135,-122.1590050918,-10.723832320285508,0.9631175,5.659813,318.7265,1678315315000,0.3295321,25.0,1750129851890000,10.777696,Walk
Fix,FLP,37.421715,-122.1589422,-17.825105085798278,0.3671926,13.0,314.92465,1678315318065,,,1750130073337298,4.031813,Walk
Fix,GPS,37.421723224,-122.1590095773,-10.898140468484089,0.8812923,5.692249,317.76257,1678315316000,0.43968374,25.0,1750130851900000,10.61239,Walk
Fix,FLP,37.4217165,-122.1589472,-17.518103539375097,0.3953735,13.0,314.16193,1678315318570,,,1750130579822772,4.042213,Walk
Fix,FLP,37.4217199,-122.1589582,-17.518103539375097,0.4443766,12.928,312.58966,1678315319078,,,1750131086335223,4.042213,Walk
Fix,FLP,37.4217199,-122.1589617,-8.5,0.44661266,12.84,312.3405,1678315319584,,,1750131592841082,1.9287059,Walk
Fix,NLP,37.4216721,-122.1588792,-8.5,,20.735,,1678315319474,,,1750131483000000,1.0,Walk
Fix,GPS,37.4217271282,-122.1590153997,-11.138462029441214,0.8540201,5.7831793,300.6558,1678315317000,0.41049045,25.0,1750131851911000,10.482258,Walk
Fix,FLP,37.4217229,-122.158975,-8.5,0.46919155,12.474,310.76593,1678315320091,,,1750132099330646,1.9500605,Walk
Fix,GPS,37.4217312272,-122.1590290129,-11.697039952347078,0.9232944,5.746401,300.6558,1678315318000,0.37242296,55.776054,1750132851926000,10.354839,Walk
Fix,FLP,37.4217244,-122.1589809,-8.5,0.4880199,12.23,309.6858,1678315320597,,,1750132605847430,1.9604605,Walk
Fix,FLP,37.4217265,-122.1589908,-8.5,0.5244771,12.098,307.7546,1678315321104,,,1750133112351520,1.9604605,Walk
Fix,FLP,37.4217284,-122.1589978,-8.5,0.5445583,11.998,306.7986,1678315321610,,,1750133618862751,1.9604605,Walk
Fix,GPS,37.4217350396,-122.1590388403,-11.50042663354955,0.92915976,5.644245,304.0562,1678315319000,0.34025055,25.0,1750133851936000,10.250837,Walk
Fix,FLP,37.4217311,-122.1590089,-8.5,0.58080703,11.789,305.26633,1678315322117,,,1750134125372149,1.9904996,Walk
Fix,GPS,37.4217372915,-122.1590491753,-11.508345033569974,0.93460596,5.5179305,307.14218,1678315320000,0.33722186,25.0,1750134851956000,10.165518,Walk
Fix,FLP,37.4217327,-122.1590149,-8.5,0.59948564,11.654,304.69278,1678315322623,,,1750134631881916,1.9804605,Walk
Fix,FLP,37.4217356,-122.1590261,-8.5,0.63299537,11.409,303.68872,1678315323129,,,1750135138392962,1.9804605,Walk
Fix,GPS,37.4217416928,-122.1590606196,-11.623224353085703,0.96127117,5.4390483,325.71365,1678315321000,0.5075949,25.0,1750135851966000,10.097147,Walk
Fix,FLP,37.4217373,-122.1590319,-8.5,0.64980876,11.281,303.30225,1678315323727,,,1750135735345334,1.9900604,Walk
Fix,FLP,37.4217405,-122.1590432,-8.5,0.68073183,11.054,302.603,1678315324270,,,1750136278038204,1.9900604,Walk
Fix,NLP,37.4216772,-122.1590288,-8.5,,21.678,,1678315324534,,,1750136542000000,2.1418953,Walk
Fix,GPS,37.4217479452,-122.1590674136,-11.82435883752762,0.96500933,5.49333,314.9713,1678315322000,0.41286713,25.0,1750136852325000,10.033923,Walk
Fix,FLP,37.4217408,-122.1590517,-8.5,0.6973554,10.933,302.06842,1678315324812,,,1750136820728208,2.0322936,Walk
Fix,FLP,37.4217417,-122.1590632,-8.5,0.7137332,10.763,301.3866,1678315325355,,,1750137363417355,2.0322936,Walk
Fix,GPS,37.421754069,-122.1590750663,-12.149421475113757,0.9710523,5.575548,308.8157,1678315323000,0.46380717,25.0,1750137852029000,9.99105,Walk
Fix,FLP,37.4217426,-122.1590683,-8.5,0.72806597,10.673,301.05875,1678315325897,,,1750137906103146,2.042306,Walk
Fix,FLP,37.4217456,-122.1590798,-8.5,0.7530782,10.524,300.37363,1678315326439,,,1750138448792844,2.042306,Walk
Fix,GPS,37.42175614,-122.1590828291,-11.946038701021669,0.9506813,5.6336174,296.08694,1678315324000,0.5246841,28.696203,1750138852143000,9.965915,Walk
Fix,FLP,37.421747,-122.1590846,-8.5,0.76497966,10.461,299.93878,1678315326982,,,1750138991479306,2.0557628,Walk
Fix,FLP,37.421751,-122.1590962,-8.5,0.784627,10.352,299.11346,1678315327526,,,1750139534150571,2.0557628,Walk
Fix,GPS,37.4217580282,-122.1590909075,-12.008050702475582,0.9348408,5.744809,291.20673,1678315325000,0.5892795,31.257685,1750139852013000,9.93787,Walk
Fix,FLP,37.4217546,-122.1591048,-8.5,0.8009061,10.193,298.6306,1678315328068,,,1750140076848995,2.0698125,Walk
Fix,FLP,37.4217578,-122.1591109,-8.5,0.80992085,10.164,298.64304,1678315328611,,,1750140619518002,2.0698125,Walk
Fix,GPS,37.4217621641,-122.1591004786,-12.0847640866867,0.94157493,5.843952,313.93353,1678315326000,0.45509627,25.0,1750140852031000,9.880828,Walk
Fix,FLP,37.4217615,-122.1591179,-8.5,0.8249335,10.037,298.62906,1678315329153,,,1750141162216061,2.0802126,Walk
Fix,NLP,37.4217866,-122.1591469,-8.5,,19.849,,1678315329431,,,1750141439000000,3.3046627,Walk
Fix,FLP,37.4217662,-122.1591264,-8.5,0.83449936,9.901,298.62115,1678315329696,,,1750141704894711,2.806878,Walk
Fix,GPS,37.4217683271,-122.1591078388,-12.132094009671162,0.947918,5.963148,318.51254,1678315327000,0.6300812,25.471075,1750141852042000,9.851236,Walk
Fix,FLP,37.42177,-122.1591331,-8.5,0.84291303,9.811,298.34824,1678315330200,,,1750142208000000,2.8261204,Walk
Fix,GPS,37.4217733267,-122.1591202056,-12.103948316141093,0.9742868,6.159458,281.02032,1678315328000,0.60858667,27.128302,1750142852058000,9.848085,Walk
Fix,FLP,37.4217734,-122.1591408,-8.5,0.8364023,9.794,295.9733,1678315330782,,,1750142790245785,2.8812635,Walk
Fix,FLP,37.4217756,-122.1591477,-8.5,0.8344189,9.769,293.84924,1678315331324,,,1750143332936032,2.8812635,Walk
Fix,GPS,37.4217725639,-122.1591311825,-12.749039473863183,0.9795104,6.4656787,266.06894,1678315329000,0.6160121,26.179716,1750143852160000,9.8489,Walk
Fix,FLP,37.4217783,-122.1591558,-8.5,0.84049886,9.74,291.60596,1678315331866,,,1750143875615293,2.8629196,Walk
Fix,FLP,37.4217822,-122.1591668,-8.5,0.85375804,9.733,291.97995,1678315332410,,,1750144418293576,2.8629196,Walk
Fix,GPS,37.4217730432,-122.1591482217,-13.595787651000354,1.0262048,6.7579393,277.7535,1678315330000,0.94861907,29.935188,1750144852242000,9.843342,Walk
Fix,FLP,37.4217839,-122.1591695,-8.5,0.8525429,9.768,293.12683,1678315332952,,,1750144960971310,2.8557603,Walk
Fix,GPS,37.4217791766,-122.1591693793,-13.296582848424324,1.1099051,7.1518664,293.00668,1678315331000,0.9850809,27.155514,1750145852119000,9.857252,Walk
Fix,FLP,37.4217897,-122.15918,-8.5,0.83859926,9.841,296.05154,1678315333495,,,1750145503647763,2.8667905,Walk
Fix,FLP,37.4217939,-122.1591858,-8.5,0.82442045,9.881,298.2517,1678315334038,,,1750146046325864,2.8667905,Walk
Fix,NLP,37.4217929,-122.1591677,-8.600000381469727,,14.078,,1678315334465,,,1750146473000000,4.5677986,Walk
Fix,FLP,37.4217987,-122.1591892,-11.998306221803697,0.81516355,9.925,300.38806,1678315334561,,,1750146569131955,2.848928,Walk
Fix,GPS,37.4217885592,-122.1591834915,-14.10342647912918,1.1614738,7.5808,308.93127,1678315332000,0.80718094,25.0,1750146852144000,9.875486,Walk
Fix,FLP,37.4218038,-122.1591927,-8.600000381469727,0.8048965,9.94,302.92267,1678315335123,,,1750147131670468,2.853938,Walk
Fix,GPS,37.4217966498,-122.1591933526,-14.807548014622723,1.1756909,7.839736,321.66687,1678315333000,0.7322664,27.5569,1750147852179000,9.899754,Walk
Fix,FLP,37.4218088,-122.1591964,-8.600000381469727,0.8000265,9.952,305.2899,1678315335666,,,1750147674341916,2.864018,Walk
Fix,FLP,37.4218136,-122.1591995,-8.600000381469727,0.7978614,9.96,307.64758,1678315336209,,,1750148217012387,2.864018,Walk
Fix,FLP,37.421819,-122.1592029,-8.600000381469727,0.79973346,10.05,309.87164,1678315336751,,,1750148759669430,2.864018,Walk
Fix,GPS,37.4218030056,-122.1592048712,-15.043340218147776,1.1827186,8.1078415,322.05447,1678315334000,0.7582083,32.923344,1750148852158000,9.931985,Walk
Fix,FLP,37.4218263,-122.1592062,-13.69020509564541,0.80724543,10.136,313.76273,1678315337294,,,1750149302348080,2.873928,Walk
Fix,FLP,37.4218321,-122.1592098,-13.69020509564541,0.8109607,10.217,315.8912,1678315337836,,,1750149845005185,2.873928,Walk
Fix,GPS,37.421809456,-122.1592173838,-15.617204149953972,1.1930798,8.292322,321.35684,1678315335000,0.8142184,34.099766,1750149852213000,9.975412,Walk
Fix,FLP,37.4218393,-122.1592129,-10.670275295244233,0.82064897,10.374,319.6349,1678315338343,,,1750150351000000,2.9382222,Walk
Fix,GPS,37.4218200745,-122.1592274015,-16.045160777835246,1.2132283,8.434567,339.32285,1678315336000,0.7809992,34.76105,1750150852245000,10.01657,Walk
Fix,FLP,37.4218459,-122.1592156,-10.670275295244233,0.8318037,10.557,323.19186,1678315338922,,,1750150930339718,2.9482021,Walk
Fix,NLP,37.4218722,-122.1592296,-8.600000381469727,,18.77,,1678315339506,,,1750151514000000,2.6856382,Walk
Fix,FLP,37.4218534,-122.1592191,-10.39161400300759,0.84490764,10.784,326.49927,1678315339464,,,1750151473002988,2.5983875,Walk
Fix,GPS,37.4218258845,-122.1592434132,-16.14528264835306,1.2344306,8.500471,329.22046,1678315337000,0.7043211,39.493214,1750151852211000,10.02838,Walk
Fix,FLP,37.4218594,-122.159222,-10.267511972188656,0.8552737,11.119,328.06512,1678315340007,,,1750152015660397,2.6033218,Walk
Fix,FLP,37.4218695,-122.1592285,-10.267511972188656,0.87063605,11.222,329.25818,1678315340550,,,1750152558317807,2.6033218,Walk
Fix,GPS,37.4218346332,-122.159247986,-16.349149498881797,1.2109025,8.748149,329.22046,1678315338000,1.1216539,154.57532,1750152852235000,10.06982,Walk
Fix,FLP,37.4218761,-122.1592329,-6.305347956092959,0.8961857,11.385,330.81192,1678315341092,,,1750153100977048,2.8867283,Walk
Fix,FLP,37.4218816,-122.1592367,-6.305347956092959,0.9111346,11.455,331.20276,1678315341635,,,1750153643628537,2.8867283,Walk
Fix,GPS,37.4218396039,-122.1592692672,-16.03145460754989,1.258484,8.870611,329.22046,1678315339000,0.7696553,25.0,1750153852322000,10.075146,Walk
Fix,FLP,37.4218883,-122.1592422,-6.305347956092959,0.939009,11.594,331.85953,1678315342178,,,1750154186281308,2.8967483,Walk
Fix,FLP,37.4218938,-122.1592464,-6.305347956092959,0.9533735,11.634,332.30682,1678315342720,,,1750154728932431,2.8967483,Walk
Fix,GPS,37.4218482778,-122.1592739751,-15.793596698278924,1.2306122,9.062623,329.22046,1678315340000,0.8880847,138.94914,1750154852376000,10.103503,Walk
Fix,FLP,37.4219007,-122.1592521,-6.305347956092959,0.9773693,11.746,333.11603,1678315343263,,,1750155271582150,2.9067283,Walk
Fix,FLP,37.4219063,-122.1592562,-6.305347956092959,0.98963517,11.826,333.38354,1678315343806,,,1750155814229977,2.9067283,Walk
Fix,GPS,37.4218628572,-122.1592890552,-15.999646841902008,1.2864076,9.114191,338.17953,1678315341000,0.66298604,35.448647,1750155852282000,10.100651,Walk
Fix,FLP,37.421913,-122.1592619,-6.305347956092959,1.0140786,11.919,333.54565,1678315344337,,,1750156345000000,2.9167182,Walk
Fix,NLP,37.4218751,-122.1594256,-7.900000095367432,,19.911,,1678315344568,,,1750156576000000,1.2818246,Walk
Fix,FLP,37.4219174,-122.1592753,-0.7409152331742064,1.028517,11.894,333.07306,1678315344882,,,1750156890000000,2.0380757,Walk
Fix,GPS,37.4218786817,-122.1593050287,-16.37432562952722,1.3486712,8.987666,304.48203,1678315342000,0.609205,35.101208,1750156852308000,10.0926075,Walk
Fix,FLP,37.4219229,-122.1592987,-0.6418579234705035,1.0421035,11.842,331.30594,1678315345434,,,1750157442165036,2.7975793,Walk
Fix,GPS,37.4218901027,-122.1593216841,-16.504258898896413,1.3827463,8.932608,303.8649,1678315343000,0.6127144,31.47938,1750157852378000,10.085606,Walk
Fix,FLP,37.4219231,-122.1593034,3.444792292015201,1.055265,11.812,330.41028,1678315345976,,,1750157984806881,2.8111243,Walk
Fix,FLP,37.4219308,-122.1593176,3.444792292015201,1.082672,11.826,329.2627,1678315346519,,,1750158527447445,2.8111243,Walk
Fix,GPS,37.4219017655,-122.1593399512,-16.499911419089155,1.4241552,8.935146,330.72473,1678315344000,0.69770944,33.470062,1750158852470000,10.056974,Walk
Fix,FLP,37.4219356,-122.1593263,2.6903177699679297,1.1058763,11.788,329.93607,1678315347062,,,1750159070086361,2.8211443,Walk
Fix,GPS,37.421911657,-122.1593451428,-16.8845606045259,1.3949466,8.9895935,356.9592,1678315345000,0.6155776,34.899303,1750159852354000,10.023036,Walk
Fix,FLP,37.4219409,-122.1593308,2.6903177699679297,1.1077476,11.761,331.7072,1678315347604,,,1750159612726865,2.8310742,Walk
Fix,FLP,37.4219466,-122.1593345,2.6903177699679297,1.1085615,11.737,333.56845,1678315348146,,,1750160155352108,2.8310742,Walk
Fix,FLP,37.4219528,-122.1593378,2.6903177699679297,1.1146858,11.664,334.976,1678315348689,,,1750160697995297,2.8310742,Walk
Fix,GPS,37.4219250617,-122.1593471648,-17.227959006641562,1.3888412,8.979803,356.9592,1678315346000,0.6904186,82.81547,1750160852461000,10.004562,Walk
Fix,FLP,37.4219603,-122.159341,0.4095454030815872,1.1295536,11.596,337.0514,1678315349232,,,1750161240629330,2.8410943,Walk
Fix,NLP,37.4221632,-122.1594551,-7.999999523162842,,44.538,,1678315349647,,,1750161655000000,2.0888286,Walk
Fix,FLP,37.421967,-122.1593436,-2.90449281053953,1.1477957,11.63,338.2403,1678315349775,,,1750161783261838,2.755409,Walk
Fix,GPS,37.4219321234,-122.1593537847,-17.27103494136607,1.3425691,9.025659,356.9592,1678315347000,0.59862596,25.0,1750161852372000,9.979639,Walk
Fix,FLP,37.4219745,-122.1593466,-2.90449281053953,1.1651491,11.941,338.8533,1678315350317,,,1750162325893185,2.7712421,Walk
Fix,FLP,37.4219808,-122.1593491,-2.90449281053953,1.1739347,12.013,339.00073,1678315350841,,,1750162850000000,2.7712421,Walk
Fix,GPS,37.4219431681,-122.1593626854,-17.594293018584107,1.3381538,8.991906,315.83722,1678315348000,0.7107884,38.48708,1750162852616000,9.964059,Walk
Fix,FLP,37.4219929,-122.159354,-3.560046819038412,1.1951592,12.359,339.05783,1678315351403,,,1750163411155332,2.781232,Walk
Fix,GPS,37.4219515637,-122.1593749576,-17.73719223901362,1.3353679,8.91641,312.6411,1678315349000,0.7291844,31.729706,1750163852376000,9.944224,Walk
Fix,FLP,37.4219945,-122.1593551,-2.90449281053953,1.2026272,12.422,338.7293,1678315351944,,,1750163953771786,2.7912621,Walk
Fix,FLP,37.4220053,-122.1593617,-2.90449281053953,1.2151151,12.713,338.01508,1678315352488,,,1750164496406857,2.7912621,Walk
Fix,GPS,37.4219592518,-122.1593868409,-17.800030720906282,1.3317938,9.034288,309.19278,1678315350000,0.72979313,26.393572,1750164852451000,9.923106,Walk
Fix,FLP,37.4220114,-122.1593669,-2.076485356336974,1.2260405,12.837,337.30002,1678315353031,,,1750165039032589,2.7963703,Walk
Fix,FLP,37.422017,-122.1593711,-2.076485356336974,1.2319744,12.945,337.0319,1678315353561,,,1750165569131955,2.7963703,Walk
Fix,GPS,37.4219658008,-122.1593982666,-17.72471619582536,1.3176041,9.116459,302.79785,1678315351000,0.7682032,38.768494,1750165852365000,9.9024935,Walk
Fix,FLP,37.4220235,-122.1593771,1.1678745095564906,1.2416701,13.133,336.62402,1678315354116,,,1750166124280270,2.8059647,Walk
Fix,NLP,37.4221661,-122.1593358,-8.100000381469727,,46.581,,1678315354423,,,1750166431000000,1.92663,Walk
Fix,FLP,37.4220296,-122.1593829,-4.016808252734258,1.2500091,13.326,336.2855,1678315354658,,,1750166666902646,2.529207,Walk
Fix,GPS,37.4219728761,-122.159405113,-17.73981673359636,1.2867891,9.289163,327.1259,1678315352000,0.9353412,36.766388,1750166852376000,9.884269,Walk
Fix,FLP,37.4220339,-122.159391,-4.016808252734258,1.2543818,13.38,335.62347,1678315355201,,,1750167209512937,2.535097,Walk
Fix,FLP,37.4220381,-122.1593974,-4.016808252734258,1.2559233,13.357,335.15445,1678315355743,,,1750167752144833,2.535097,Walk
Fix,GPS,37.4219817086,-122.1594133974,-17.604035915252002,1.2764342,9.464531,330.2243,1678315353000,0.8587954,35.24036,1750167852439000,9.859578,Walk
Fix,FLP,37.4220406,-122.159407,-4.016808252734258,1.2569408,13.203,334.30316,1678315356286,,,1750168294762448,2.545107,Walk
Fix,GPS,37.4219907676,-122.1594246929,-17.598653382757107,1.2805622,9.640837,330.2243,1678315354000,0.91920185,22.794085,1750168852494000,9.84017,Walk
Fix,FLP,37.4220428,-122.1594157,3.5673140780462376,1.2568853,12.975,333.5806,1678315356829,,,1750168837384396,2.555377,Walk
Fix,FLP,37.4220507,-122.1594282,3.5673140780462376,1.2578315,12.661,332.7609,1678315357879,,,1750169888000000,2.555377,Walk
Fix,GPS,37.4219988847,-122.1594353869,-17.49305734838719,1.2755488,9.812944,330.2243,1678315355000,0.92569625,10.0,1750169852567000,9.8196745,Walk
Fix,FLP,37.4220559,-122.159442,-8.100000381469727,1.2569242,12.229,331.29547,1678315358457,,,1750170465238949,2.565097,Walk
Fix,GPS,37.4220053075,-122.1594408854,-17.326517894962553,1.0783497,10.093005,330.2243,1678315356000,1.1040266,180.0,1750170852457000,9.8045845,Walk
Fix,FLP,37.4220559,-122.1594451,-8.100000381469727,1.2568394,12.061,330.67133,1678315358998,,,1750171007855893,2.575117,Walk
Fix,NLP,37.4221059,-122.1594771,-7.900000095367432,,20.941,,1678315359480,,,1750171488000000,1.0665408,Walk
Fix,FLP,37.4220627,-122.1594574,-7.900000095367432,1.2552519,11.426,329.4221,1678315359541,,,1750171550472165,1.1929151,Walk
Fix,GPS,37.4220095536,-122.1594475658,-17.25899344636904,0.77788836,10.317259,330.2243,1678315357000,0.9089491,39.44186,1750171852557000,9.78632,Walk
Fix,FLP,37.422067,-122.1594642,-7.900000095367432,1.2307398,11.049,329.05014,1678315360085,,,1750172093087582,1.9750775,Walk
Fix,FLP,37.4220718,-122.1594699,-7.900000095367432,1.2082094,10.835,328.7932,1678315360627,,,1750172635702878,1.9750775,Walk
Fix,GPS,37.4220106699,-122.1594564613,-17.29696893868912,0.76780623,10.600255,330.2243,1678315358000,1.0471716,22.525547,1750172852473000,9.769093,Walk
Fix,FLP,37.4220774,-122.1594772,1.8901044365480464,1.1670207,10.631,328.35913,1678315361170,,,1750173178317624,1.9840776,Walk
Fix,FLP,37.4220814,-122.1594818,1.8901044365480464,1.1486886,10.604,328.20007,1678315361712,,,1750173720932431,1.9840776,Walk
Fix,GPS,37.4220141143,-122.159466196,-17.21057186657704,0.8140708,10.936091,330.2243,1678315359000,1.3773161,21.98667,1750173852514000,9.754813,Walk
Fix,FLP,37.4220868,-122.1594882,-7.900000095367432,1.1180985,10.591,327.92972,1678315362255,,,1750174263536801,1.9950975,Walk
Fix,GPS,37.4220173013,-122.159488789,-17.476080104769814,1.1185031,10.987008,330.2243,1678315360000,1.0685749,47.11289,1750174852785000,9.752537,Walk
Fix,FLP,37.4220927,-122.1594939,-4.572540515458982,1.1055956,10.556,327.92978,1678315362797,,,1750174806160641,2.4874074,Walk
Fix,FLP,37.422102,-122.1595034,-4.572540515458982,1.0952225,10.632,327.86386,1678315363340,,,1750175348774167,2.4874074,Walk
Fix,GPS,37.4220230536,-122.1594972524,-17.57090047465224,1.0566009,11.227167,330.2243,1678315361000,0.9229839,74.07663,1750175852825000,9.761134,Walk
Fix,FLP,37.4221035,-122.1595054,-2.511685603506784,1.0984068,10.716,327.91284,1678315363883,,,1750175891387448,2.4974475,Walk
Fix,FLP,37.4221128,-122.1595145,-2.511685603506784,1.1002532,10.911,327.93668,1678315364426,,,1750176434000180,2.4974475,Walk
Fix,NLP,37.4220751,-122.1595518,-7.900000095367432,,17.251,,1678315364689,,,1750176697000000,1.3154129,Walk
Fix,GPS,37.42202544,-122.1595087644,-17.41425780743844,1.0468717,11.485742,330.2243,1678315362000,1.048653,26.436062,1750176852568000,9.78108,Walk
Fix,FLP,37.422115,-122.1595209,-5.993194498720584,1.1016687,11.237,327.7838,1678315364968,,,1750176976601803,1.442395,Walk
Fix,FLP,37.4221222,-122.1595337,-5.993194498720584,1.1016252,11.341,327.32367,1678315365511,,,1750177519217770,1.442395,Walk
Fix,GPS,37.4220310174,-122.1595295866,-17.456722154068633,1.2011001,11.4984045,289.97998,1678315363000,1.0187007,37.964775,1750177852575000,9.810782,Walk
Fix,FLP,37.4221265,-122.1595425,-4.771294278050078,1.1061292,11.55,326.79306,1678315366053,,,1750178061835751,1.452385,Walk
Fix,FLP,37.4221311,-122.1595488,-4.771294278050078,1.1125032,11.662,326.4961,1678315366560,,,1750178569131955,1.452385,Walk
Fix,GPS,37.4220335849,-122.1595528343,-17.56981039779789,1.3314269,11.579242,285.36728,1678315364000,1.0103631,39.230816,1750178852578000,9.874839,Walk
Fix,FLP,37.4221368,-122.1595577,-4.4943259629898265,1.1281905,11.898,325.86343,1678315367139,,,1750179147056088,1.462475,Walk
Fix,FLP,37.4221413,-122.1595635,-4.4943259629898265,1.1388192,11.962,325.52356,1678315367681,,,1750179689664975,1.462475,Walk
Fix,GPS,37.4220393528,-122.1595791853,-17.54663985689823,1.4714162,11.528733,296.3494,1678315365000,1.1256998,39.26766,1750179852852000,9.929686,Walk
Fix,FLP,37.4221471,-122.1595721,-4.4943259629898265,1.1624618,12.169,324.98636,1678315368224,,,1750180232273923,1.472415,Walk
Fix,FLP,37.4221521,-122.1595781,-4.4943259629898265,1.1768814,12.26,324.9065,1678315368737,,,1750180746000000,1.472415,Walk
Fix,GPS,37.4220566256,-122.1595907154,-18.03935709424898,1.5471454,11.626097,312.818,1678315366000,0.94772345,32.34923,1750180852888000,10.057126,Walk
Fix,FLP,37.4221582,-122.1595866,-7.900000095367432,1.2046609,12.471,324.97083,1678315369280,,,1750181288000000,1.4823949,Walk
Fix,NLP,37.4221851,-122.159635,-7.700000286102295,,16.266,,1678315369466,,,1750181474000000,1.1482148,Walk
Fix,GPS,37.4220771726,-122.1595993739,-18.21792804273737,1.6374469,11.725315,337.81583,1678315367000,0.94277984,23.939882,1750181852670000,10.206768,Walk
Fix,FLP,37.422165,-122.1595979,-7.700000286102295,1.2340332,12.654,325.14108,1678315369852,,,1750181860096860,1.5560015,Walk
Fix,FLP,37.4221688,-122.1596074,-7.700000286102295,1.2364678,13.066,326.212,1678315370393,,,1750182402704892,1.5560015,Walk
Fix,GPS,37.4220975213,-122.1596008321,-18.72093396606336,1.6965251,11.845747,354.70197,1678315368000,0.8650723,22.103893,1750182852682000,10.381086,Walk
Fix,FLP,37.4221655,-122.1596073,-7.700000286102295,1.2274083,13.675,328.13007,1678315370936,,,1750182945309018,1.5660115,Walk
Fix,FLP,37.422166,-122.1596114,-7.700000286102295,1.218045,14.709,331.7548,1678315371479,,,1750183487914487,1.5660115,Walk
Fix,GPS,37.4221071616,-122.1595980796,-19.00531704546831,1.6212568,11.803211,4.83866,1678315369000,0.8875669,33.83998,1750183852649000,10.559247,Walk
Fix,FLP,37.4221626,-122.159611,-5.684875860751738,1.2163249,15.553,334.94485,1678315372022,,,1750184030518918,1.5984628,Walk
Fix,FLP,37.4221636,-122.1596119,-5.684875860751738,1.2161013,16.03,336.46283,1678315372561,,,1750184569131955,1.5984628,Walk
Fix,GPS,37.4221147792,-122.1596002011,-18.23561975241067,1.5328202,11.813,4.83866,1678315370000,0.8424839,180.0,1750184852724000,10.71874,Walk
Fix,FLP,37.4221619,-122.1596111,-5.684875860751738,1.2151694,17.067,339.20572,1678315373107,,,1750185115727292,1.613032,Walk
Fix,FLP,37.422163,-122.1596115,-5.684875860751738,1.2196193,17.42,339.7909,1678315373650,,,1750185658330502,1.613032,Walk
Fix,GPS,37.4221230283,-122.1596057492,-18.479834703194225,1.4733224,11.947121,4.83866,1678315371000,0.9651221,71.70308,1750185852869000,10.876401,Walk
Fix,FLP,37.422163,-122.159611,-7.700000286102295,1.2269917,18.216,341.08762,1678315374192,,,1750186200929746,1.623032,Walk
Fix,NLP,37.422294,-122.1596811,-8.100000381469727,,18.467,,1678315374510,,,1750186518000000,1.1506505,Walk
Fix,FLP,37.4221691,-122.1596142,-7.700000286102295,1.2347637,19.387,341.76468,1678315374735,,,1750186743536252,1.5477668,Walk
Fix,GPS,37.4221286399,-122.159613601,-18.42415874511452,1.4178051,12.132221,4.83866,1678315372000,1.2990907,180.0,1750186852771000,11.013016,Walk
Fix,FLP,37.4221741,-122.1596176,-5.595202431682537,1.2364405,19.855,342.76135,1678315375278,,,1750187286119992,1.5625219,Walk
Fix,FLP,37.4221763,-122.159619,-5.595202431682537,1.2365358,19.909,343.48358,1678315375820,,,1750187828728695,1.5625219,Walk
Fix,GPS,37.4221364498,-122.1596167668,-18.302642750104383,1.3668883,12.269976,338.69562,1678315373000,1.0780044,38.180565,1750187852717000,11.114094,Walk
Fix,FLP,37.4221771,-122.1596198,-3.63151830056718,1.2366009,19.927,344.77692,1678315376363,,,1750188371331845,1.5789908,Walk
Fix,GPS,37.4221426118,-122.1596232958,-18.05648697590995,1.3219391,12.453177,338.69562,1678315374000,1.0859237,56.99117,1750188852946000,11.196271,Walk
Fix,FLP,37.4221775,-122.1596202,-3.926784886745473,1.236487,19.706,345.88992,1678315376905,,,1750188913941464,1.582662,Walk
Fix,FLP,37.4221843,-122.1596222,-3.926784886745473,1.2363523,19.412,346.7269,1678315377448,,,1750189456541623,1.582662,Walk
Fix,GPS,37.4221485099,-122.1596343253,-18.01392764799602,1.3024843,12.592,299.65152,1678315375000,0.91356075,46.609264,1750189852767000,11.2433605,Walk
Fix,FLP,37.4221834,-122.159622,-8.100000381469727,1.2377331,19.335,346.9659,1678315377991,,,1750189999141293,1.4173759,Walk
Fix,FLP,37.4221921,-122.1596244,-8.100000381469727,1.2378204,19.14,347.56345,1678315378533,,,1750190541740903,1.4173759,Walk
Fix,GPS,37.4221550101,-122.1596399254,-18.436411918299736,1.261141,12.744312,299.65152,1678315376000,0.9088947,19.631413,1750190852796000,11.278231,Walk
Fix,FLP,37.4221965,-122.1596257,-8.100000381469727,1.236268,18.804,348.25793,1678315379076,,,1750191084339413,1.427406,Walk
Fix,FLP,37.4222014,-122.1596274,-8.100000381469727,1.2356703,18.734,348.41965,1678315379617,,,1750191626937619,1.427406,Walk
Fix,GPS,37.4221621339,-122.1596453009,-18.586998024085,1.2287731,12.913738,299.65152,1678315377000,1.004739,60.373642,1750191852854000,11.312544,Walk
Fix,FLP,37.4222066,-122.1596296,-3.916536187281821,1.2340037,18.422,348.6221,1678315380161,,,1750192169535458,1.5819972,Walk
Fix,GPS,37.4221679165,-122.1596530282,-18.96756445686669,1.2001469,13.186732,299.65152,1678315378000,1.1529049,157.85292,1750192852820000,11.337545,Walk
Fix,FLP,37.4222119,-122.1596316,-3.916536187281821,1.2327595,18.061,348.61618,1678315380704,,,1750192712132870,1.5819972,Walk
Fix,FLP,37.4222175,-122.1596341,-0.5934310298041439,1.2297142,17.86,348.60202,1678315381246,,,1750193254726254,1.5919971,Walk
Fix,NLP,37.4226126,-122.1623645,,,600.0,,1678315381176,,,1750193184000000,,Walk
Fix,FLP,37.4222252,-122.1596375,-0.5934310298041439,1.225937,17.579,348.42828,1678315381789,,,1750193797326535,1.5919971,Walk
Fix,GPS,37.4221758104,-122.159661715,-19.27598773924049,1.1919141,13.297714,310.9824,1678315379000,0.9352007,39.78531,1750193852886000,11.340757,Walk
Fix,FLP,37.4222305,-122.1596404,-0.5934310298041439,1.2222887,17.408,348.06522,1678315382331,,,1750194339923398,1.6018771,Walk
Fix,GPS,37.4221840523,-122.1596671667,-20.320965269414064,1.1771635,13.39596,328.57913,1678315380000,0.88512176,32.003765,1750194853034000,11.349005,Walk
Fix,FLP,37.4222342,-122.1596425,-8.100000381469727,1.2210625,17.341,347.68524,1678315382873,,,1750194882519345,1.6119272,Walk
Fix,FLP,37.4222403,-122.1596455,-8.100000381469727,1.2192736,17.261,347.36658,1678315383417,,,1750195425104733,1.6119272,Walk
Fix,FLP,37.4222459,-122.1596487,-8.100000381469727,1.2179239,17.187,347.1204,1678315383959,,,1750195967710507,1.6119272,Walk
Fix,GPS,37.4221955057,-122.1596737499,-21.015476186506373,1.1959324,13.522327,326.12253,1678315381000,1.0297182,29.284775,1750195852872000,11.359553,Walk
Fix,FLP,37.4222525,-122.1596531,-9.926672678933537,1.2160089,17.222,346.67126,1678315384483,,,1750196491000000,1.6218671,Walk
Fix,GPS,37.4222113191,-122.1596770239,-21.26427131329685,1.2363853,13.473263,326.12253,1678315382000,1.3084934,30.196798,1750196852963000,11.375162,Walk
Fix,FLP,37.4222621,-122.1596597,-8.100000381469727,1.2140946,17.233,345.9941,1678315385044,,,1750197052899778,1.6318572,Walk
Fix,FLP,37.422267,-122.1596628,-8.100000381469727,1.2152016,17.294,345.60846,1678315385561,,,1750197569131955,1.6318572,Walk
Fix,GPS,37.4222198921,-122.1596770235,-21.4669577625692,1.2095627,13.458624,326.12253,1678315383000,0.99455106,34.94737,1750197853099000,11.393046,Walk
Fix,FLP,37.4222718,-122.1596683,-6.059700122051069,1.2143841,17.264,344.73734,1678315386130,,,1750198138093259,1.6418871,Walk
Fix,FLP,37.4222759,-122.1596724,-6.059700122051069,1.2133871,17.219,344.18408,1678315386672,,,1750198680672055,1.6418871,Walk
Fix,GPS,37.4222317203,-122.1596783192,-21.79694338768538,1.2139273,13.583422,326.12253,1678315384000,1.2891493,36.68348,1750198852907000,11.42283,Walk
Fix,NLP,37.4223148,-122.1596434,-8.300000190734863,,14.162,,1678315386930,,,1750198938000000,1.0,Walk
Fix,FLP,37.4222852,-122.1596747,-3.753278967127379,1.215957,16.724,343.45584,1678315387215,,,1750199223276669,1.5164899,Walk
Fix,FLP,37.4222929,-122.1596745,-3.753278967127379,1.2198112,16.367,343.58325,1678315387757,,,1750199765869443,1.5164899,Walk
Fix,GPS,37.4222476019,-122.1596796367,-22.10031075788033,1.2638057,13.705084,326.12253,1678315385000,1.3367159,10.0,1750199853029000,11.448106,Walk
Fix,FLP,37.4223038,-122.1596745,-5.172676009185359,1.2269523,15.781,343.71854,1678315388300,,,1750200308462277,1.5200921,Walk
Fix,FLP,37.4223111,-122.1596758,-5.172676009185359,1.2315488,15.459,343.70102,1678315388843,,,1750200851056027,1.5200921,Walk
Fix,GPS,37.4222620546,-122.1596807562,-22.06239980563933,1.2107962,13.866305,326.12253,1678315386000,1.3685408,10.0,1750200853233000,11.474256,Walk
Fix,FLP,37.4223211,-122.1596776,-5.172676009185359,1.2361103,14.847,343.6755,1678315389385,,,1750201393646481,1.5300821,Walk
Fix,FLP,37.4223279,-122.1596795,-5.172676009185359,1.2375932,14.384,343.6892,1678315389983,,,1750201991000000,1.5300821,Walk
Fix,GPS,37.4222689079,-122.1596859028,-22.07515707670897,1.0993207,14.086656,326.12253,1678315387000,1.3854984,51.67202,1750201852932000,11.501252,Walk
Fix,FLP,37.4223377,-122.1596822,-5.250791729029139,1.2340896,14.052,343.8045,1678315390523,,,1750202532000000,1.5391521,Walk
Fix,GPS,37.4222745431,-122.1596885426,-22.226489894749733,0.74659383,14.488771,326.12253,1678315388000,0.86655855,28.305933,1750202852950000,11.542285,Walk
Fix,FLP,37.4223506,-122.1596859,-3.416910856047032,1.2022536,13.377,344.39233,1678315391121,,,1750203129926572,1.5482461,Walk
Fix,FLP,37.4223561,-122.1596877,-3.416910856047032,1.1825655,12.841,344.66748,1678315391664,,,1750203672528622,1.5482461,Walk
Fix,GPS,37.4222813684,-122.1596926815,-22.30654604096916,0.81820786,15.029541,326.12253,1678315389000,0.9544644,39.30054,1750203852964000,11.58591,Walk
Fix,NLP,37.4223409,-122.1596725,-8.100000381469727,,18.217,,1678315391940,,,1750203948000000,1.0844967,Walk
Fix,FLP,37.4223635,-122.1596896,-6.21714909461334,1.1479952,12.963,345.03247,1678315392207,,,1750204215116208,1.1607263,Walk
Fix,FLP,37.4223691,-122.1596914,-6.21714909461334,1.1490144,13.197,345.042,1678315392749,,,1750204757709042,1.1607263,Walk
Fix,GPS,37.4222916863,-122.1596901114,-22.389452349076123,0.9329367,15.71986,326.12253,1678315390000,1.0091681,39.360416,1750204853062000,11.630644,Walk
Fix,FLP,37.4223764,-122.1596939,-8.100000381469727,1.1406686,13.209,344.99423,1678315393292,,,1750205300299069,1.1028794,Walk
Fix,FLP,37.4223818,-122.1596961,-8.100000381469727,1.1330166,13.256,344.88782,1678315393834,,,1750205842877927,1.1028794,Walk
Fix,GPS,37.4222878587,-122.1597051966,-22.338791251461053,1.068915,15.73802,326.12253,1678315391000,1.2142235,82.22582,1750205853221000,11.659731,Walk
Fix,FLP,37.4223895,-122.1596993,-8.100000381469727,1.1247811,13.329,344.66364,1678315394376,,,1750206385477902,1.1516031,Walk
Fix,FLP,37.4223955,-122.159702,-8.100000381469727,1.1247113,13.421,344.49545,1678315394919,,,1750206928066891,1.1516031,Walk
Fix,GPS,37.4222860928,-122.1597247519,-22.089712518184378,1.1982443,15.825939,326.12253,1678315392000,1.1056219,22.133472,1750206853019000,11.683923,Walk
Fix,FLP,37.4224035,-122.1597061,-6.21714909461334,1.1290131,13.544,344.12354,1678315395462,,,1750207470000000,1.1906863,Walk
Fix,GPS,37.4222906919,-122.1597307541,-22.030266832421187,1.0965179,16.100597,326.12253,1678315393000,0.7912964,68.59971,1750207853020000,11.712074,Walk
Fix,FLP,37.4224094,-122.1597098,-4.091336143486039,1.1371859,13.683,343.60236,1678315396004,,,1750208013247068,1.1949447,Walk
Fix,FLP,37.4224208,-122.1597161,-4.091336143486039,1.1399735,13.84,343.03488,1678315396546,,,1750208555832272,1.1949447,Walk
Fix,GPS,37.4222925722,-122.1597401567,-21.9841801744619,1.0374316,16.399557,326.12253,1678315394000,0.8467027,40.333897,1750208853055000,11.728811,Walk
Fix,FLP,37.4224273,-122.1597211,-4.091336143486039,1.1359512,14.023,342.51807,1678315397089,,,1750209098420163,1.2049447,Walk
Fix,FLP,37.4224327,-122.1597253,-4.091336143486039,1.1335092,14.376,342.1859,1678315397633,,,1750209641008115,1.2049447,Walk
Fix,GPS,37.4222951975,-122.1597525816,-21.58319624301873,1.0134925,16.82605,326.12253,1678315395000,0.9025305,86.50749,1750209853067000,11.7195215,Walk
Fix,FLP,37.4224394,-122.1597315,-3.6295734015582113,1.1272782,14.74,341.46442,1678315398174,,,1750210183595395,1.2149948,Walk
Fix,FLP,37.4224446,-122.1597358,-3.6295734015582113,1.1218898,15.117,340.72147,1678315398718,,,1750210726182126,1.2149948,Walk
Fix,GPS,37.4222948931,-122.1597656027,-21.24519592636574,1.0586835,17.348785,326.12253,1678315396000,0.9722774,51.855503,1750210853073000,11.706756,Walk
Fix,FLP,37.4224512,-122.1597426,-8.100000381469727,1.1059313,15.51,338.945,1678315399259,,,1750211268769040,1.2249647,Walk
Fix,FLP,37.4224558,-122.1597477,-8.100000381469727,1.0690422,15.881,337.0774,1678315399803,,,1750211811355710,1.2249647,Walk
Fix,GPS,37.4223167767,-122.159759648,-21.992719204546653,1.2078027,16.769438,326.12253,1678315397000,1.3670628,53.618023,1750211853076000,11.674976,Walk
Fix,FLP,37.4224598,-122.1597557,-8.100000381469727,0.99161625,16.267,332.53613,1678315400345,,,1750212353941830,1.2350347,Walk
Fix,FLP,37.4224625,-122.1597622,-8.100000381469727,0.9343296,16.76,328.97037,1678315400888,,,1750212896516416,1.2350347,Walk
Fix,GPS,37.4223234159,-122.1597602849,-21.827282286874382,1.1771084,16.604671,326.12253,1678315398000,1.3525792,29.464617,1750212853162000,11.647773,Walk
Fix,FLP,37.4224637,-122.159772,-8.100000381469727,0.8480464,16.976,321.62564,1678315401420,,,1750213429000000,1.2449448,Walk
Fix,FLP,37.4224649,-122.1597795,-8.100000381469727,0.81878,17.449,317.80734,1678315401936,,,1750213945000000,1.2449448,Walk
Fix,GPS,37.4223285122,-122.1597543682,-21.764579942363653,1.0550464,16.574053,326.12253,1678315399000,1.3876281,63.77542,1750213853065000,11.65266,Walk
Fix,GPS,37.422322052,-122.1597572973,-21.76906414961504,1.0011504,16.324158,326.12253,1678315400000,0.9451422,180.0,1750214853122000,11.677992,Walk
Fix,FLP,37.4224633,-122.1597971,-8.100000381469727,0.7726537,17.769,307.76392,1678315402516,,,1750214524283932,1.2649448,Walk
Fix,FLP,37.4224607,-122.1598062,-8.100000381469727,0.77831244,17.82,306.34814,1678315403058,,,1750215066868893,1.2649448,Walk
Fix,FLP,37.422459,-122.1598142,-8.100000381469727,0.7902361,17.821,306.1687,1678315403561,,,1750215569131955,1.2649448,Walk
Fix,GPS,37.4223239864,-122.1597519338,-21.50844719172611,0.9449736,16.410229,326.12253,1678315401000,1.3030643,74.08925,1750215853104000,11.732356,Walk
Fix,FLP,37.4224549,-122.1598251,-8.100000381469727,0.80354774,17.557,306.57593,1678315404143,,,1750216152037839,1.2739347,Walk
Fix,FLP,37.4224545,-122.1598317,-8.100000381469727,0.8044016,17.411,307.33267,1678315404686,,,1750216694621762,1.2739347,Walk
Fix,GPS,37.4223324442,-122.1597453847,-21.265725923196,0.9692247,16.574146,326.12253,1678315402000,1.4322202,46.763405,1750216853128000,11.800788,Walk
Fix,FLP,37.4224537,-122.1598401,-8.100000381469727,0.80612576,17.198,308.9982,1678315405229,,,1750217237208005,1.2849548,Walk
Fix,FLP,37.4224553,-122.1598458,-8.100000381469727,0.8089204,16.999,309.8583,1678315405770,,,1750217779789243,1.2849548,Walk
Fix,GPS,37.4223437679,-122.1597464832,-21.144397787585586,1.1082547,16.9187,326.12253,1678315403000,0.89588356,22.165642,1750217853113000,11.871664,Walk
Fix,FLP,37.4224568,-122.1598524,-8.100000381469727,0.8215047,16.823,311.3278,1678315406314,,,1750218322372617,1.2939347,Walk
Fix,FLP,37.4224593,-122.1598571,-3.5788287048466607,0.8333238,16.547,311.8571,1678315406856,,,1750218864955563,1.3039547,Walk
Fix,GPS,37.4223560347,-122.1597502323,-21.253624052285865,1.1866586,17.417324,326.12253,1678315404000,0.99190205,10.0,1750218853166000,11.956391,Walk
Fix,FLP,37.4224617,-122.1598617,-3.5788287048466607,0.8570802,16.369,312.83142,1678315407377,,,1750219386000000,1.3039547,Walk
Fix,GPS,37.4223690243,-122.1597553873,-20.87694927250269,1.1735538,18.066008,326.12253,1678315405000,1.0462532,67.77728,1750219853364000,12.0284395,Walk
Fix,FLP,37.422464,-122.1598651,-8.100000381469727,0.8816297,16.146,313.80725,1678315407942,,,1750219950114438,1.3150548,Walk
Fix,FLP,37.4224697,-122.1598721,-8.100000381469727,0.90381706,16.209,314.8693,1678315408484,,,1750220492705075,1.3150548,Walk
Fix,GPS,37.4223938174,-122.1597418533,-19.986714184681837,1.3864993,18.204626,326.12253,1678315406000,1.6183703,43.58915,1750220853197000,12.085134,Walk
Fix,FLP,37.4224735,-122.1598756,-3.656975411123895,0.93066955,16.266,316.00732,1678315409027,,,1750221035288571,1.3250347,Walk
Fix,FLP,37.4224785,-122.1598803,-3.656975411123895,0.9483978,16.375,316.62347,1678315409560,,,1750221569131955,1.3250347,Walk
Fix,GPS,37.4224044744,-122.1597486079,-19.86130365582709,1.2491833,18.75505,326.12253,1678315407000,0.98459333,79.78854,1750221853204000,12.147176,Walk
Fix,FLP,37.4224838,-122.1598839,-3.2230998284980394,0.9764057,16.556,317.63333,1678315410112,,,1750222120455563,1.3339747,Walk
Fix,FLP,37.4224887,-122.1598879,-3.2230998284980394,0.9890788,16.651,317.98013,1678315410654,,,1750222663031308,1.3339747,Walk
Fix,GPS,37.4224007243,-122.1597747086,-19.638848396187505,1.284105,18.762241,326.12253,1678315408000,1.4090558,17.47004,1750222853597000,12.221865,Walk
Fix,FLP,37.422495,-122.1598916,-2.161913777624754,1.0120726,16.768,318.6836,1678315411197,,,1750223205611569,1.3450347,Walk
Fix,FLP,37.4225002,-122.1598953,-2.161913777624754,1.0238285,16.868,319.09082,1678315411739,,,1750223748000000,1.3450347,Walk
Fix,GPS,37.422404145,-122.1597956153,-19.52605242556656,1.3325539,18.830765,326.12253,1678315409000,1.313145,26.549812,1750223853479000,12.311731,Walk
Fix,FLP,37.4225096,-122.1599003,-8.100000381469727,1.0554215,17.084,320.13275,1678315412282,,,1750224290787595,1.3550748,Walk
Fix,GPS,37.4224070889,-122.1598078807,-19.116250057688216,1.3063953,19.140625,326.12253,1678315410000,0.8769863,101.05506,1750224853569000,12.404817,Walk
Fix,FLP,37.4225123,-122.1599016,-10.391623314180052,1.0668087,17.226,320.44424,1678315412825,,,1750224833370236,1.3649547,Walk
Fix,FLP,37.42252,-122.159907,-10.391623314180052,1.086878,17.32,321.0048,1678315413366,,,1750225375953000,1.3649547,Walk
Fix,GPS,37.4224097982,-122.1598170776,-18.54357922961019,1.1718204,19.476362,326.12253,1678315411000,0.9308482,10.658548,1750225853339000,12.479446,Walk
Fix,FLP,37.4225229,-122.1599091,-8.100000381469727,1.0968056,17.459,321.2272,1678315413910,,,1750225918535336,1.3749747,Walk
Fix,FLP,37.4225311,-122.1599158,-8.100000381469727,1.1093825,17.593,321.60077,1678315414453,,,1750226461113766,1.3749747,Walk
Fix,GPS,37.4224161841,-122.1598297291,-18.03007475996139,1.2115585,19.66869,326.12253,1678315412000,1.6313055,96.33717,1750226853397000,12.514974,Walk
Fix,FLP,37.4225339,-122.159918,-8.100000381469727,1.1132936,17.73,321.74435,1678315414994,,,1750227003699643,1.3849947,Walk
Fix,FLP,37.4225417,-122.1599248,-8.100000381469727,1.1214185,17.914,322.0658,1678315415538,,,1750227546281979,1.3849947,Walk
Fix,GPS,37.4224303011,-122.1598255264,-17.77873406947092,1.2234329,19.828485,326.12253,1678315413000,1.5973234,11.04734,1750227853277000,12.52636,Walk
Fix,FLP,37.4225473,-122.1599297,-8.100000381469727,1.130444,18.113,322.42053,1678315416079,,,1750228087000000,1.3950047,Walk
Fix,GPS,37.4224388796,-122.1598296428,-17.64059687356443,1.1579975,19.964054,326.12253,1678315414000,1.5757322,180.0,1750228853608000,12.520672,Walk
Fix,FLP,37.4225566,-122.1599383,-8.100000381469727,1.1391821,18.429,322.7611,1678315416623,,,1750228631445065,1.4051148,Walk
Fix,FLP,37.4225635,-122.1599447,-8.100000381469727,1.1442447,18.675,323.0602,1678315417166,,,1750229174026364,1.4051148,Walk
Fix,GPS,37.4224495253,-122.1598298691,-17.720621789031593,1.21526,20.131487,326.12253,1678315415000,1.528082,88.14256,1750229853266000,12.525148,Walk
Fix,FLP,37.422567,-122.1599482,-8.100000381469727,1.1460207,18.89,323.11084,1678315417708,,,1750229716607663,1.4149648,Walk
Fix,FLP,37.4225737,-122.159955,-8.100000381469727,1.1513472,19.307,323.11206,1678315418250,,,1750230259178769,1.4149648,Walk
Fix,FLP,37.4225787,-122.1599601,-8.100000381469727,1.155586,19.612,323.05136,1678315418793,,,1750230801769528,1.4149648,Walk
Fix,GPS,37.4224563189,-122.1598390953,-18.07304424538436,1.1720412,20.259834,326.12253,1678315416000,1.4538053,149.69688,1750230853376000,12.535235,Walk
Fix,FLP,37.4225852,-122.1599671,-8.100000381469727,1.1607976,19.904,323.01068,1678315419335,,,1750231344350095,1.4250648,Walk
Fix,FLP,37.4225905,-122.1599727,-8.100000381469727,1.162428,20.171,323.1188,1678315419878,,,1750231886930417,1.4250648,Walk
Fix,GPS,37.4224670934,-122.1598400773,-18.677977845435056,1.194119,20.331322,326.12253,1678315417000,1.4253063,85.52828,1750231853432000,12.531406,Walk
Fix,FLP,37.4225974,-122.1599801,-8.100000381469727,1.1655923,20.418,323.39313,1678315420421,,,1750232429510678,1.4349347,Walk
Fix,FLP,37.422602,-122.1599852,-8.100000381469727,1.1680058,20.674,323.4688,1678315420963,,,1750232971000000,1.4349347,Walk
Fix,GPS,37.4224795885,-122.1598394212,-18.994721536097927,1.1276209,20.40184,326.12253,1678315418000,1.4258612,180.0,1750232853397000,12.512697,Walk
Fix,FLP,37.4226123,-122.1599967,-8.100000381469727,1.1696863,21.145,323.63315,1678315421505,,,1750233514660276,1.4450347,Walk
Fix,GPS,37.422489252,-122.1598348421,-18.965834278464424,1.1807721,20.635742,326.12253,1678315419000,0.8666808,40.15983,1750233853382000,12.491308,Walk
Fix,FLP,37.4226175,-122.1600022,-8.100000381469727,1.1689276,21.351,323.7534,1678315422048,,,1750234057255612,1.4550447,Walk
Fix,FLP,37.4226225,-122.1600071,-8.100000381469727,1.1699684,21.551,323.88428,1678315422561,,,1750234569131955,1.4550447,Walk
Fix,GPS,37.4224969698,-122.1598309108,-18.74832428571325,1.0793698,20.96165,326.12253,1678315420000,0.9491136,88.52946,1750234853379000,12.485377,Walk
Fix,FLP,37.4226282,-122.1600125,-8.100000381469727,1.1666073,21.714,324.2093,1678315423134,,,1750235142410641,1.4649547,Walk
Fix,FLP,37.4226333,-122.1600174,-8.100000381469727,1.1632345,21.871,324.32523,1678315423676,,,1750235684989926,1.4649547,Walk
Fix,GPS,37.422504876,-122.1598180767,-18.485039118979,1.1577586,21.452435,326.12253,1678315421000,1.0485141,54.553505,1750235853370000,12.504949,Walk
Fix,FLP,37.4226392,-122.1600227,-10.15128308646502,1.1604915,22.008,324.53217,1678315424219,,,1750236227569211,1.4749647,Walk
Fix,FLP,37.4226444,-122.160027,-10.15128308646502,1.1612678,22.159,324.62195,1678315424762,,,1750236770148373,1.4749647,Walk
Fix,GPS,37.4225284452,-122.1597916146,-18.643796138729435,1.342451,21.266531,326.12253,1678315422000,0.93802845,35.557014,1750236853424000,12.515806,Walk
Fix,FLP,37.4226506,-122.1600312,-12.779442957634764,1.1695945,22.333,324.91788,1678315425304,,,1750237312718259,1.4849547,Walk
Fix,FLP,37.4226564,-122.1600351,-12.779442957634764,1.1773002,22.5,325.17395,1678315425846,,,1750237855306088,1.4849547,Walk
Fix,GPS,37.4225528066,-122.1597854012,-19.22182367218798,1.775536,21.100658,326.12253,1678315423000,0.92489713,65.977295,1750237853733000,12.544718,Walk
Fix,FLP,37.4226636,-122.160038,-12.032244521420688,1.2052276,22.732,325.77084,1678315426362,,,1750238370000000,1.4949547,Walk
Fix,FLP,37.42267,-122.1600415,-12.032244521420688,1.2263637,22.965,326.06415,1678315426903,,,1750238911000000,1.4949547,Walk
Fix,GPS,37.4225661658,-122.1597942992,-19.674095768081187,1.6338867,21.183113,326.12253,1678315424000,0.96615505,180.0,1750238853532000,12.590524,Walk
Fix,FLP,37.4226835,-122.1600433,-8.100000381469727,1.2768193,23.492,327.13138,1678315427475,,,1750239483041440,1.5040047,Walk
Fix,GPS,37.4225774121,-122.1597975363,-20.56452589317016,1.4706631,21.31792,326.12253,1678315425000,2.9040465,50.411842,1750239853484000,12.596427,Walk
Fix,FLP,37.4226852,-122.1600397,-8.100000381469727,1.2892911,23.588,327.55576,1678315428017,,,1750240025619565,1.5150448,Walk
Fix,FLP,37.4226977,-122.1600389,-8.100000381469727,1.3063295,24.04,328.41223,1678315428560,,,1750240568197690,1.5150448,Walk
Fix,GPS,37.4225950032,-122.1597976725,-20.89808554894996,1.6207049,21.607862,326.12253,1678315426000,3.0073087,43.114662,1750240853742000,12.627541,Walk
Fix,FLP,37.422705,-122.1600336,-8.100000381469727,1.3216369,24.261,329.26532,1678315429102,,,1750241110773984,1.5250348,Walk
Fix,FLP,37.422712,-122.1600333,-8.100000381469727,1.3322072,24.405,329.70493,1678315429645,,,1750241653353391,1.5250348,Walk
Fix,GPS,37.4226118977,-122.159806982,-21.049494533266227,1.6939297,22.10482,326.12253,1678315427000,3.1045656,60.319237,1750241853508000,12.673305,Walk
Fix,FLP,37.42272,-122.1600287,-8.100000381469727,1.3541085,24.653,330.5235,1678315430186,,,1750242195930905,1.5349847,Walk
Fix,FLP,37.4227271,-122.1600285,-8.100000381469727,1.3662422,24.759,330.95547,1678315430730,,,1750242738508725,1.5349847,Walk
Fix,GPS,37.4226278584,-122.1598132653,-20.88121662497018,1.6226548,22.744453,326.12253,1678315428000,1.0847794,25.0,1750242853521000,12.753933,Walk
Fix,FLP,37.4227352,-122.160024,-8.100000381469727,1.3855084,24.906,331.817,1678315431273,,,1750243281077207,1.5449648,Walk
Fix,FLP,37.4227424,-122.1600239,-8.100000381469727,1.3938802,24.959,332.23438,1678315431824,,,1750243832000000,1.5449648,Walk
Fix,GPS,37.4226382625,-122.1598159625,-20.6331356467252,1.5022615,23.435743,326.12253,1678315429000,1.1151818,105.27846,1750243853518000,12.846386,Walk
Fix,FLP,37.4227564,-122.1600195,-15.323680382019774,1.4113232,24.993,333.279,1678315432358,,,1750244366229306,1.5549448,Walk
Fix,GPS,37.4226421372,-122.1598350145,-20.860515321313773,1.4511374,24.093918,326.12253,1678315430000,3.2952673,36.114223,1750244853566000,12.891518,Walk
Fix,FLP,37.4227582,-122.1600165,-15.992049217616234,1.4146255,25.002,333.49484,1678315432899,,,1750244908817380,1.5650748,Walk
Fix,FLP,37.422771,-122.1600134,-15.992049217616234,1.4164113,24.856,334.12372,1678315433443,,,1750245451394223,1.5650748,Walk
Fix,GPS,37.4226536582,-122.1598726234,-20.608579743562306,1.2672696,23.6015,326.12253,1678315431000,1.5717527,25.0,1750245853548000,12.895723,Walk
Fix,FLP,37.4227722,-122.1600085,-10.91740711665414,1.4165187,24.743,334.51465,1678315433985,,,1750245993970822,1.5750247,Walk
Fix,FLP,37.4227843,-122.1600048,-10.91740711665414,1.4069798,24.409,335.47034,1678315434528,,,1750246536547604,1.5750247,Walk
Fix,GPS,37.4226662644,-122.1599154406,-20.60494974080635,1.8655993,23.636463,326.12253,1678315432000,0.9536842,31.532316,1750246853735000,12.984385,Walk
Fix,FLP,37.4227903,-122.1599983,-8.300000190734863,1.4137398,23.891,336.30475,1678315435071,,,1750247079126339,1.5850848,Walk
Fix,FLP,37.4227966,-122.1599975,-8.300000190734863,1.4287544,23.584,336.42383,1678315435613,,,1750247621700375,1.5850848,Walk
Fix,GPS,37.4226773541,-122.1599350158,-20.871378582875625,1.9033655,24.064148,326.12253,1678315433000,0.9912055,140.02138,1750247853621000,13.087077,Walk
Fix,FLP,37.4228027,-122.1599945,-8.300000190734863,1.4573123,22.892,336.39395,1678315436156,,,1750248164276242,1.5950347,Walk
Fix,FLP,37.422809,-122.1599959,-8.300000190734863,1.4712347,22.586,336.10486,1678315436698,,,1750248706851926,1.5950347,Walk
Fix,GPS,37.4226848272,-122.1599400106,-20.480123523793445,1.5033132,23.581284,326.12253,1678315434000,1.7146975,25.0,1750248853627000,13.182745,Walk
Fix,FLP,37.4228146,-122.159996,-10.91740711665414,1.4836999,21.878,335.44324,1678315437222,,,1750249231000000,1.6049547,Walk
Fix,FLP,37.4228206,-122.1599985,-10.91740711665414,1.4835303,21.534,335.1075,1678315437739,,,1750249747000000,1.6049547,Walk
Fix,GPS,37.422687126,-122.1599601743,-20.40646275801234,1.609387,23.330462,326.12253,1678315435000,1.6665853,180.0,1750249853627000,13.28603,Walk
Fix,FLP,37.4228306,-122.1600026,-15.345470343422484,1.4860678,20.527,334.16974,1678315438326,,,1750250334578427,1.6149448,Walk
Fix,GPS,37.4226926764,-122.1599635825,-19.983421607595,1.2743889,23.014072,326.12253,1678315436000,1.6016313,180.0,1750250853640000,13.376205,Walk
Fix,FLP,37.4228318,-122.1600034,-18.601171488456075,1.4897503,20.192,333.78,1678315438868,,,1750250877153989,1.6249547,Walk
Fix,FLP,37.4228405,-122.1600093,-18.601171488456075,1.4814218,19.943,332.9787,1678315439411,,,1750251419729123,1.6249547,Walk
Fix,GPS,37.4226937646,-122.1599752135,-19.79702468854365,1.1674224,22.73022,326.12253,1678315437000,1.5404437,25.0,1750251853637000,13.432757,Walk
Fix,FLP,37.4228415,-122.1600108,-14.916248434493191,1.4711443,19.792,332.4892,1678315439954,,,1750251962304135,1.6349847,Walk
Fix,FLP,37.4228494,-122.1600182,-14.916248434493191,1.4452689,19.641,331.50598,1678315440496,,,1750252504878842,1.6349847,Walk
Fix,GPS,37.4227033011,-122.1599869447,-19.49108634273304,1.2970488,22.77306,326.12253,1678315438000,2.3202322,30.543684,1750252853668000,13.31464,Walk
Fix,FLP,37.4228531,-122.1600236,-14.916248434493191,1.4232992,19.576,330.52292,1678315441039,,,1750253047453366,1.6449548,Walk
Fix,FLP,37.4228572,-122.1600281,-14.916248434493191,1.4166821,19.577,330.057,1678315441560,,,1750253569131955,1.6449548,Walk
Fix,GPS,37.4227142301,-122.1600203768,-19.322379899104185,1.3972226,22.320736,326.12253,1678315439000,1.5062582,71.69537,1750253853725000,13.284823,Walk
Fix,FLP,37.4228606,-122.1600341,-13.71461523671632,1.4090197,19.528,329.1865,1678315442124,,,1750254132601926,1.6549448,Walk
Fix,FLP,37.4228656,-122.1600401,-13.71461523671632,1.4082873,19.529,328.81152,1678315442667,,,1750254675173520,1.6549448,Walk
Fix,GPS,37.4227231069,-122.1600344902,-19.04098496548249,1.3674294,22.453157,326.12253,1678315440000,0.85595286,27.878654,1750254853700000,13.274637,Walk
Fix,FLP,37.4228731,-122.1600518,-11.056833208012357,1.4038837,19.447,327.85114,1678315443208,,,1750255217750729,1.6651747,Walk
Fix,GPS,37.4227306343,-122.1600482077,-19.14796608808564,1.3832246,22.61647,326.12253,1678315441000,0.9097625,46.28123,1750255853908000,13.24148,Walk
Fix,FLP,37.4228743,-122.1600549,-8.100000381469727,1.4023194,19.432,327.51694,1678315443752,,,1750255760324887,1.6749448,Walk
Fix,FLP,37.4228809,-122.1600651,-8.100000381469727,1.3987094,19.404,326.77762,1678315444294,,,1750256302898862,1.6749448,Walk
Fix,GPS,37.4227365543,-122.1600861519,-19.21077530974415,1.551171,22.782816,326.12253,1678315442000,0.9361878,91.51524,1750256853744000,13.189731,Walk
Fix,FLP,37.4228821,-122.1600686,-8.100000381469727,1.3980929,19.373,326.39636,1678315444837,,,1750256845470089,1.6851047,Walk
Fix,FLP,37.4228887,-122.1600796,-8.100000381469727,1.4027268,19.332,325.6634,1678315445379,,,1750257388046201,1.6851047,Walk
Fix,GPS,37.422741049,-122.1601242351,-19.198890616829484,2.34502,23.02214,326.12253,1678315443000,0.9569236,92.96856,1750257854062000,13.1297455,Walk
Fix,FLP,37.4228902,-122.1600838,-8.100000381469727,1.4086953,19.31,325.30008,1678315445922,,,1750257930612729,1.6951147,Walk
Fix,FLP,37.4228972,-122.1600962,-8.100000381469727,1.4383249,19.327,324.56537,1678315446465,,,1750258473183896,1.6951147,Walk
Fix,GPS,37.4227439008,-122.1601531576,-19.23942687286125,2.4152975,23.41564,326.12253,1678315444000,1.0342714,73.30189,1750258854013000,13.06148,Walk
Fix,FLP,37.422899,-122.1601008,-8.100000381469727,1.4625013,19.31,324.18225,1678315447007,,,1750259015766782,1.7049447,Walk
Fix,FLP,37.422906,-122.1601141,-8.100000381469727,1.509839,19.349,323.32962,1678315447550,,,1750259558339780,1.7049447,Walk
Fix,GPS,37.42274833,-122.1601656322,-19.31153870757966,2.047671,23.934143,326.12253,1678315445000,1.1135037,32.514786,1750259853889000,12.982632,Walk
Fix,FLP,37.4229087,-122.1601251,-8.100000381469727,1.5483385,19.357,322.30606,1678315448092,,,1750260100913205,1.7149647,Walk
Fix,FLP,37.4229133,-122.1601344,-8.100000381469727,1.5643127,19.388,321.80807,1678315448635,,,1750260643486264,1.7149647,Walk
Fix,GPS,37.4227557728,-122.1601716503,-19.111659987136942,1.7293576,24.575947,326.12253,1678315446000,1.1780086,82.95,1750260854104000,12.891489,Walk
Fix,FLP,37.4229193,-122.160153,-8.100000381469727,1.5975529,19.477,320.5334,1678315449178,,,1750261186059018,1.7249547,Walk
Fix,GPS,37.4227716513,-122.1601873085,-19.202591664355094,1.8422194,25.179249,326.12253,1678315447000,1.2372757,96.71396,1750261853785000,12.789429,Walk
Fix,FLP,37.42292,-122.1601579,-10.731333077774387,1.602516,19.56,320.22577,1678315449720,,,1750261728619138,1.7349447,Walk
Fix,FLP,37.4229247,-122.1601715,-10.731333077774387,1.614832,19.659,319.58173,1678315450262,,,1750262271206967,1.7349447,Walk
Fix,GPS,37.4227822083,-122.1602202007,-19.47707710747873,2.0832126,26.117174,326.12253,1678315448000,1.3078182,71.561485,1750262853804000,12.682536,Walk
Fix,FLP,37.4229263,-122.1601774,-8.100000381469727,1.6230477,19.749,319.23615,1678315450805,,,1750262813776181,1.7449547,Walk
Fix,FLP,37.422931,-122.1601914,-8.100000381469727,1.6445897,19.911,318.4563,1678315451347,,,1750263356348508,1.7449547,Walk
Fix,GPS,37.4228093695,-122.1602570611,-19.84823958469376,2.0048378,25.925697,326.12253,1678315449000,1.112367,180.0,1750263853751000,12.5605955,Walk
Fix,FLP,37.422933,-122.1601977,-8.100000381469727,1.6588336,20.012,318.07043,1678315451890,,,1750263898920590,1.7539347,Walk
Fix,FLP,37.4229365,-122.1602131,-8.100000381469727,1.6824955,20.086,317.1505,1678315452433,,,1750264441484677,1.7539347,Walk
Fix,FLP,37.422939,-122.1602229,-8.100000381469727,1.692641,20.158,316.54074,1678315452976,,,1750264984050045,1.7639548,Walk
Fix,GPS,37.4228498498,-122.1603448348,-19.46965503673876,2.632042,23.334919,326.12253,1678315450000,1.97095,37.240612,1750264853778000,12.362235,Walk
Fix,FLP,37.4229415,-122.1602398,-8.100000381469727,1.7265726,20.171,315.09296,1678315453518,,,1750265526636594,1.7649847,Walk
Fix,GPS,37.4228759046,-122.160356207,-20.114709662604263,1.3618447,22.795025,306.37088,1678315451000,2.4071078,25.0,1750265854002000,12.232255,Walk
Fix,FLP,37.4229415,-122.1602649,-5.225338694064575,1.7454324,20.014,312.5117,1678315454060,,,1750266069208066,1.7749448,Walk
Fix,GPS,37.4228854678,-122.1604342989,-19.529870489822013,1.3618447,19.627783,306.37088,1678315452000,1.3638612,180.0,1750266853838000,12.1848345,Walk
Fix,FLP,37.4229418,-122.1602747,-3.5691871780348485,1.7244192,19.875,311.9195,1678315454602,,,1750266611780148,1.7850047,Walk
Fix,FLP,37.4229411,-122.1602899,-3.5691871780348485,1.7052844,19.592,311.16675,1678315455145,,,1750267154351865,1.7850047,Walk
Fix,FLP,37.4229411,-122.1603029,-3.5691871780348485,1.6886321,19.236,310.62924,1678315455687,,,1750267696924008,1.7850047,Walk
Fix,GPS,37.4228971119,-122.1604851547,-19.38187115143384,1.5365435,18.13361,306.37088,1678315453000,1.2810928,83.41308,1750267853902000,12.177775,Walk
Fix,FLP,37.4229375,-122.1603234,-5.225338694064575,1.6694301,18.632,309.63763,1678315456231,,,1750268239484738,1.7949448,Walk
Fix,FLP,37.4229381,-122.160337,-5.225338694064575,1.6659677,18.257,309.22495,1678315456774,,,1750268782059079,1.7949448,Walk
Fix,GPS,37.4229245254,-122.1605355055,-19.57202909015296,1.6138893,16.999556,320.15836,1678315454000,1.2185339,26.526688,1750268853896000,12.191841,Walk
Fix,FLP,37.4229367,-122.1603579,-6.3252012033719325,1.6642953,17.398,308.5415,1678315457316,,,1750269324640561,1.8049448,Walk
Fix,GPS,37.4229415679,-122.1605995385,-18.892947526360235,1.6463933,15.746866,319.00452,1678315455000,1.036888,25.226946,1750269853925000,12.1699505,Walk
Fix,FLP,37.422936,-122.1603771,-6.3252012033719325,1.6653808,16.62,307.98462,1678315457859,,,1750269867213071,1.8150047,Walk
Fix,FLP,37.4229397,-122.1604037,-6.3252012033719325,1.668665,15.778,307.27515,1678315458401,,,1750270409785580,1.8150047,Walk
Fix,GPS,37.4229613677,-122.1606279476,-18.618850173601103,1.6580784,14.982058,322.60422,1678315456000,1.1179005,27.19595,1750270853926000,12.17378,Walk
Fix,FLP,37.4229388,-122.1604122,-8.100000381469727,1.671936,15.617,306.7971,1678315458944,,,1750270952358029,1.8249547,Walk
Fix,FLP,37.4229433,-122.1604418,-8.100000381469727,1.679143,14.543,305.75946,1678315459485,,,1750271494928036,1.8249547,Walk
Fix,GPS,37.4229799315,-122.1606445906,-18.23677401977164,1.9856327,14.570019,326.2961,1678315457000,1.1378345,28.888569,1750271853958000,12.200244,Walk
Fix,FLP,37.4229452,-122.1604674,-8.100000381469727,1.7010661,13.96,304.8096,1678315460029,,,1750272037500668,1.8349648,Walk
Fix,FLP,37.4229487,-122.1604834,-8.100000381469727,1.7181011,13.673,304.4893,1678315460561,,,1750272569131955,1.8349648,Walk
Fix,GPS,37.4229972104,-122.1606515026,-17.56348257459871,1.9581177,14.271947,323.59503,1678315458000,1.055198,29.909351,1750272853931000,12.211803,Walk
Fix,FLP,37.4229534,-122.1605066,-13.01261212349889,1.7476616,13.039,304.0487,1678315461114,,,1750273122649472,1.8449547,Walk
Fix,FLP,37.4229582,-122.1605214,-13.01261212349889,1.7620285,12.815,303.87152,1678315461656,,,1750273665221982,1.8449547,Walk
Fix,GPS,37.4230083554,-122.1606636229,-16.984731793479583,1.8425927,14.127414,323.59503,1678315459000,1.109538,119.16865,1750273854039000,12.227306,Walk
Fix,FLP,37.4229641,-122.1605415,-2.828279069050666,1.7828414,12.306,303.57367,1678315462179,,,1750274187000000,1.8550248,Walk
Fix,GPS,37.4230152308,-122.1606761657,-16.262583555466026,1.7084466,14.18803,323.59503,1678315460000,2.197998,78.30074,1750274854403000,12.227421,Walk
Fix,FLP,37.4229711,-122.1605614,-11.69005222538005,1.7957273,11.752,303.29025,1678315462742,,,1750274750367551,1.8649448,Walk
Fix,FLP,37.4229793,-122.1605818,-11.69005222538005,1.8010323,11.444,303.05475,1678315463284,,,1750275292938901,1.8649448,Walk
Fix,GPS,37.4230347582,-122.1606843649,-15.58341388846216,1.7984378,14.030188,308.1308,1678315461000,0.9859331,40.01491,1750275854127000,12.185776,Walk
Fix,FLP,37.4229826,-122.1605889,-8.100000381469727,1.8019695,11.167,303.11322,1678315463826,,,1750275835502377,1.8750747,Walk
Fix,FLP,37.4229925,-122.1606088,-8.100000381469727,1.8050864,10.944,303.29413,1678315464370,,,1750276378085629,1.8750747,Walk
Fix,GPS,37.4230435754,-122.1606992316,-15.276586222104797,1.7466574,14.214678,308.1308,1678315462000,2.276963,25.0,1750276854325000,12.183564,Walk
Fix,FLP,37.4229956,-122.1606144,-8.100000381469727,1.8090905,10.759,303.41357,1678315464911,,,1750276920661374,1.8849448,Walk
Fix,FLP,37.4230049,-122.1606314,-8.100000381469727,1.8128868,10.689,303.58286,1678315465454,,,1750277463230466,1.8849448,Walk
Fix,GPS,37.423052467,-122.1607072258,-15.18750278614974,1.6420021,14.098806,308.1308,1678315463000,1.1355568,180.0,1750277854395000,12.166901,Walk
Fix,FLP,37.4230092,-122.1606392,-8.100000381469727,1.8145286,10.572,303.65106,1678315465997,,,1750278005802365,1.8949947,Walk
Fix,FLP,37.423018,-122.160655,-8.100000381469727,1.8114264,10.526,303.8257,1678315466520,,,1750278528000000,1.8949947,Walk
Fix,GPS,37.4230588378,-122.1607149951,-15.79387220323492,1.5333071,13.801247,332.69473,1678315464000,0.8719388,37.017406,1750278854031000,12.100215,Walk
Fix,FLP,37.42303,-122.1606758,-8.100000381469727,1.7898924,10.356,304.21616,1678315467082,,,1750279090946713,1.9049548,Walk
Fix,FLP,37.4230352,-122.1606845,-8.100000381469727,1.7797579,10.293,304.4239,1678315467625,,,1750279633518124,1.9049548,Walk
