Fix,Provider,LatitudeDegrees,LongitudeDegrees,AltitudeMeters,SpeedMps,AccuracyMeters,BearingDegrees,UnixTimeMillis,SpeedAccuracyMps,BearingAccuracyDegrees,elapsedRealtimeNanos,VerticalAccuracyMeters,TransitType
Fix,GPS,37.4230218686,-122.1672525374,8.500538597803994,,1.4362004,,1675903175271,,,4257687794781079,15.347679,Walk
Fix,FLP,37.4229611,-122.167286,0.6000000238418579,0.027798763,9.506,,1675903177050,,,4257687665946477,1.197457,Walk
Fix,NLP,37.4228491,-122.1674541,0.6000000238418579,,22.006,,1675903170931,,,4257681546000000,1.0667307,Walk
Fix,GPS,37.4229651959,-122.1670663772,10.685539248894576,0.0,16.928778,,1675903176271,0.89499784,,4257688887416333,111.90526,Walk
Fix,FLP,37.4229578,-122.1672908,0.6000000238418579,0.019374296,10.263,,1675903178062,,,4257688678734868,1.1929575,Walk
Fix,GPS,37.4230047932,-122.1671133595,10.78419493781177,0.0,10.649386,,1675903177271,0.9617533,,4257689856412875,139.00764,Walk
Fix,FLP,37.4229508,-122.1672974,0.6000000238418579,0.008611848,10.071,,1675903179076,,,4257689691537114,1.1492473,Walk
Fix,FLP,37.4229435,-122.1673026,0.6000000238418579,0.003714578,9.618,,1675903179582,,,4257690197922978,1.1492473,Walk
Fix,GPS,37.4229806502,-122.1671999261,34.53160236733504,0.0,12.692816,,1675903178271,0.63945305,,4257690872460524,31.60061,Walk
Fix,FLP,37.4229393,-122.1673056,0.6000000238418579,0.006031635,9.385,,1675903180089,,,4257690704335027,1.1549785,Walk
Fix,GPS,37.4229765902,-122.1672615438,20.82107879122909,0.0,7.074315,,1675903179271,0.6867618,,4257691877147943,21.878973,Walk
Fix,FLP,37.4229328,-122.1673102,0.6000000238418579,0.010841674,9.027,,1675903181102,,,4257691717136235,1.254203,Walk
Fix,FLP,37.4229264,-122.1673145,0.6000000238418579,0.01469422,8.535,,1675903182114,,,4257692729945623,1.254203,Walk
Fix,GPS,37.4229682373,-122.1672716943,24.15989028819872,0.0,10.469914,,1675903180271,0.75192976,,4257692924670201,43.83863,Walk
Fix,FLP,37.4229204,-122.1673183,0.6000000238418579,0.017584467,7.843,,1675903183127,,,4257693742754644,1.2889717,Walk
Fix,GPS,37.4229652022,-122.1672825608,25.504889261412387,0.0,15.009516,,1675903181271,0.96014076,,4257693912830235,101.28964,Walk
Fix,GPS,37.4229608593,-122.167290071,27.956601862854264,0.0,35.613743,,1675903182271,0.90725416,,4257694941390091,63.499,Walk
Fix,NLP,37.4228815,-122.1674192,0.6000000238418579,,20.157,,1675903184314,,,4257694929000000,1.5815101,Walk
Fix,FLP,37.422916,-122.1673206,-2.6942947176980425,0.019744363,7.374,,1675903184140,,,4257694755562322,1.041914,Walk
Fix,GPS,37.4228955159,-122.1674947211,37.64911241222978,0.0,31.06157,,1675903183271,0.44194967,,4257695932200760,54.36847,Walk
Fix,FLP,37.4229096,-122.1673239,-9.364329326328216,0.022459684,6.906,,1675903185256,,,4257695872358181,1.1548686,Walk
Fix,GPS,37.4229415036,-122.1674586043,18.399576314657835,0.0,18.663542,,1675903184271,20.0,,4257696922819332,25.108454,Walk
Fix,FLP,37.4229028,-122.1673256,-5.59469955703706,0.02836881,6.421,,1675903186342,,,4257696957498135,1.0837345,Walk
Fix,FLP,37.4228978,-122.1673256,-2.867169723983494,0.029583665,6.126,,1675903186885,,,4257697500084562,1.0953246,Walk
Fix,FLP,37.4228944,-122.1673251,-2.867169723983494,0.0022476297,5.664,,1675903187427,,,4257698042659024,1.0953246,Walk
Fix,GPS,37.4229626707,-122.1674217509,12.43547807267516,0.0,12.355602,,1675903185999,20.0,,4257698611428586,15.553469,Walk
Fix,FLP,37.4228934,-122.1673241,-4.885604275266431,0.0013333901,5.627,,1675903187970,,,4257698585225979,1.1107609,Walk
Fix,FLP,37.4228918,-122.1673226,-4.885604275266431,0.00024384026,5.426,,1675903188512,,,4257699127804287,1.1107609,Walk
Fix,GPS,37.4229631968,-122.1674258284,11.086983791579003,0.9345862,11.089471,305.95474,1675903186999,0.4113187,22.403564,4257699635980873,13.575383,Walk
Fix,FLP,37.4228914,-122.1673217,0.6000000238418579,0.00037742613,5.422,,1675903189055,,,4257699670377468,1.1394457,Walk
Fix,NLP,37.4228293,-122.1674659,0.6000000238418579,,22.293,,1675903189253,,,4257699869000000,1.0966063,Walk
Fix,FLP,37.4228904,-122.1673211,7.134280491745216,0.00067411986,5.352,,1675903189597,,,4257700212941678,1.1312648,Walk
Fix,GPS,37.4229646364,-122.1674270732,10.602694571665015,0.7893785,10.092896,296.5284,1675903187999,0.4406672,29.572308,4257700588555000,12.313709,Walk
Fix,FLP,37.4228895,-122.1673207,7.007308949929154,0.019422557,5.448,,1675903190140,,,4257700755519009,1.0262349,Walk
Fix,FLP,37.4228887,-122.1673198,7.007308949929154,0.040596917,5.492,,1675903190683,,,4257701298088711,1.0262349,Walk
Fix,GPS,37.4229648396,-122.1674309177,10.316766486302004,0.6458557,9.005661,278.73502,1675903188999,0.4144273,35.2633,4257701588566000,11.531958,Walk
Fix,FLP,37.4228884,-122.1673181,8.95085658172141,0.081282794,5.648,,1675903191225,,,4257701840657193,1.0363189,Walk
Fix,GPS,37.4229582591,-122.1674395283,9.397493388212991,0.40715462,8.314535,278.73502,1675903189999,0.45332983,47.017998,4257702588615000,10.85805,Walk
Fix,FLP,37.4228886,-122.1673169,7.010551034819713,0.10239875,5.752,67.90832,1675903191768,,,4257702383216093,1.1634942,Walk
Fix,FLP,37.4228889,-122.1673158,7.010551034819713,0.13301028,6.024,65.17832,1675903192310,,,4257702925792203,1.1634942,Walk
Fix,GPS,37.4229506632,-122.167444051,9.044581418728814,0.81059945,7.8698235,201.31052,1675903190999,0.37651187,23.21534,4257703588594000,10.348925,Walk
Fix,FLP,37.4228891,-122.1673154,6.883579493003651,0.1434307,6.217,64.08239,1675903192853,,,4257703468359707,1.194393,Walk
Fix,FLP,37.4228888,-122.1673154,6.883579493003651,0.17670397,6.63,61.148212,1675903193395,,,4257704010926663,1.194393,Walk
Fix,GPS,37.4229441157,-122.1674422302,8.729319726213566,0.71682936,6.947575,202.49063,1675903191999,0.41292652,28.928604,4257704588660000,9.763405,Walk
Fix,FLP,37.4228884,-122.1673157,6.78257719728235,0.19981837,6.803,59.80702,1675903193938,,,4257704553488247,1.2043511,Walk
Fix,NLP,37.4228188,-122.1674293,0.6000000238418579,,13.579,,1675903194295,,,4257704910000000,1.0,Walk
Fix,FLP,37.4228819,-122.1673253,6.923475732305391,0.23270412,7.616,57.567772,1675903194481,,,4257705096051968,1.0610367,Walk
Fix,GPS,37.4229381003,-122.1674380678,8.502395434441784,0.639678,6.473919,152.48315,1675903192999,0.38603866,30.721819,4257705588650000,9.389474,Walk
Fix,FLP,37.4228771,-122.1673313,7.019861278385676,0.22596791,7.829,57.638508,1675903195023,,,4257705638603971,1.0725079,Walk
Fix,FLP,37.4228656,-122.1673427,7.019861278385676,0.21087445,8.183,65.86679,1675903195566,,,4257706181177274,1.0725079,Walk
Fix,GPS,37.422930591,-122.1674295065,7.923003503944284,0.67340696,6.2023387,146.21382,1675903193999,0.40612435,31.136072,4257706588906000,9.028629,Walk
Fix,FLP,37.4228584,-122.1673469,6.913199336622327,0.20922388,8.346,74.400894,1675903196093,,,4257706708180508,1.1203688,Walk
Fix,FLP,37.4228434,-122.167353,6.913199336622327,0.22003987,8.584,90.409225,1675903196650,,,4257707266299466,1.1203688,Walk
Fix,GPS,37.4229192159,-122.1674254973,7.65774668003594,1.0262619,6.1445403,156.27968,1675903194999,0.40043348,20.416538,4257707588697000,8.890804,Walk
Fix,FLP,37.4228308,-122.1673566,7.277462852269124,0.25603592,8.7,103.78564,1675903197174,,,4257707789000000,1.2342472,Walk
Fix,FLP,37.4228204,-122.1673562,7.277462852269124,0.28455317,8.638,110.218346,1675903197733,,,4257708348000000,1.2342472,Walk
Fix,GPS,37.4229050884,-122.1674182867,7.265792910559149,1.0506222,7.1567087,155.74399,1675903195999,0.4829282,22.077148,4257708588703000,8.579439,Walk
Fix,FLP,37.4227969,-122.1673533,8.61313024255368,0.37673718,8.535,121.65035,1675903198828,,,4257709444000000,1.0529811,Walk
Fix,GPS,37.4228919154,-122.1674088982,7.539801736193391,1.0071995,7.518139,153.17697,1675903196999,0.4304396,20.363974,4257709588715000,8.331597,Walk
Fix,NLP,37.4228152,-122.1674152,0.6000000238418579,,17.938,,1675903199377,,,4257709992000000,1.0,Walk
Fix,FLP,37.4227812,-122.1673508,4.3802321725413975,0.46374518,8.102,126.884514,1675903199364,,,4257709979080288,1.051645,Walk
Fix,FLP,37.4227732,-122.167348,4.3802321725413975,0.49103445,7.919,128.29532,1675903199905,,,4257710521647183,1.051645,Walk
Fix,GPS,37.4228796512,-122.1674008999,7.681074951129007,1.0691546,7.518753,139.93842,1675903197999,0.44859517,20.238304,4257710588742000,8.138658,Walk
Fix,FLP,37.422766,-122.1673455,7.6254783422347,0.51945084,7.81,129.84749,1675903200449,,,4257711064202299,1.0568191,Walk
Fix,FLP,37.4227617,-122.1673437,7.6254783422347,0.54611695,7.713,131.00523,1675903200991,,,4257711606756985,1.0568191,Walk
Fix,GPS,37.422864318,-122.1673857318,7.314106495158241,0.9249991,5.976335,139.72334,1675903198999,0.3838435,22.532375,4257711588750000,7.8388186,Walk
Fix,FLP,37.4227543,-122.1673414,7.6254783422347,0.5859295,7.636,132.97853,1675903201534,,,4257712149313810,1.0944711,Walk
Fix,GPS,37.4228514812,-122.1673728839,8.280084596651452,1.0885361,5.8368735,157.41374,1675903199999,0.36157703,18.502995,4257712588798000,7.5671034,Walk
Fix,FLP,37.4227503,-122.1673401,7.6254783422347,0.6026329,7.631,133.93959,1675903202076,,,4257712691854153,1.0944711,Walk
Fix,FLP,37.422744,-122.1673389,7.674469189717215,0.63515055,7.622,135.88673,1675903202619,,,4257713234416654,1.1056893,Walk
Fix,GPS,37.4228370666,-122.1673644266,8.884243542806885,1.0356266,5.701467,163.90701,1675903200999,0.36158353,19.253841,4257713588774000,7.3194094,Walk
Fix,FLP,37.4227393,-122.1673375,7.674469189717215,0.653513,7.641,137.15674,1675903203156,,,4257713772000000,1.1056893,Walk
Fix,GPS,37.4228219402,-122.1673589273,9.174394947798984,1.2062867,5.6008883,165.55952,1675903201999,0.37472302,17.672895,4257714588747000,7.117172,Walk
Fix,FLP,37.4227317,-122.1673352,7.553949405660447,0.7880692,7.707,145.05101,1675903203704,,,4257714319519803,1.0981299,Walk
Fix,NLP,37.4227638,-122.1673933,0.6999999284744263,,18.989,,1675903204310,,,4257714926000000,1.0,Walk
Fix,FLP,37.4227279,-122.1673369,6.539665390002611,0.9521168,7.667,149.31677,1675903204246,,,4257714862070645,1.2088938,Walk
Fix,GPS,37.4228073797,-122.1673493947,9.38252097581974,1.1429858,5.491407,155.15674,1675903202999,0.40826303,20.296846,4257715588811000,6.9400353,Walk
Fix,FLP,37.4227218,-122.1673359,6.539665390002611,1.0233047,7.578,150.62372,1675903204788,,,4257715404620512,1.2088938,Walk
Fix,FLP,37.4227161,-122.1673344,6.659684664805894,1.075,7.399,149.95943,1675903205332,,,4257715947170194,1.1891372,Walk
Fix,GPS,37.422791276,-122.1673358484,9.620724441317424,0.97149193,5.4637876,149.54044,1675903203999,0.3932707,22.73428,4257716588837000,6.8059745,Walk
Fix,FLP,37.4227126,-122.1673326,6.312649811854939,1.1069458,7.267,148.89806,1675903205874,,,4257716489706387,1.2027224,Walk
Fix,GPS,37.4227784004,-122.1673225111,9.954447074942587,1.2155746,5.5239525,154.56952,1675903204999,0.4086892,19.423471,4257717588829000,6.719942,Walk
Fix,FLP,37.4227018,-122.1673265,7.118092354816255,1.0676501,6.982,147.68634,1675903206959,,,4257717574800626,1.0816723,Walk
Fix,FLP,37.4226926,-122.1673226,7.118092354816255,1.1092213,6.748,147.00049,1675903207502,,,4257718117347501,1.0816723,Walk
Fix,GPS,37.422764229,-122.1673098958,10.232839897241588,1.2995565,5.564068,156.17697,1675903205999,0.4286804,19.09581,4257718588793000,6.660564,Walk
Fix,FLP,37.4226894,-122.1673213,8.027514723001048,1.1497937,6.645,146.9408,1675903208044,,,4257718659909940,1.0530668,Walk
Fix,FLP,37.4226789,-122.1673157,8.027514723001048,1.2235518,6.522,147.05058,1675903208587,,,4257719202456631,1.0530668,Walk
Fix,GPS,37.4227516959,-122.1672982292,10.583119001680844,0.936588,5.62372,156.78703,1675903206999,0.44168222,27.98762,4257719588804000,6.622887,Walk
Fix,FLP,37.4226741,-122.1673128,8.027514723001048,1.1332101,6.311,146.50046,1675903209093,,,4257719708180508,1.0890863,Walk
Fix,NLP,37.4228024,-122.1673646,0.6000000238418579,,23.682,,1675903209393,,,4257720008000000,1.029517,Walk
Fix,GPS,37.4227407666,-122.1672894496,10.649278176847584,0.97266304,5.637542,160.90236,1675903207999,0.4047272,24.596336,4257720588844000,6.5902963,Walk
Fix,FLP,37.4226692,-122.1673102,8.116914858556584,1.0690066,6.234,146.23239,1675903209672,,,4257720287548123,1.044228,Walk
Fix,FLP,37.4226657,-122.1673103,8.116914858556584,1.0130178,6.177,148.22806,1675903210214,,,4257720830093351,1.0708761,Walk
Fix,GPS,37.4227301524,-122.1672839066,10.7312583758778,1.1349347,5.6678963,151.61203,1675903208999,0.41014525,20.381979,4257721588899000,6.599416,Walk
Fix,FLP,37.4226613,-122.1673086,5.736427582742167,0.99601644,6.175,150.1239,1675903210757,,,4257721372638516,1.1089159,Walk
Fix,FLP,37.4226557,-122.1673073,5.736427582742167,1.0537156,6.129,150.73042,1675903211299,,,4257721915182950,1.1089159,Walk
Fix,GPS,37.4227195877,-122.1672751214,10.71150225553905,1.243455,5.6867714,155.62193,1675903209999,0.42761195,20.365084,4257722588900000,6.5990367,Walk
Fix,FLP,37.4226493,-122.1673046,5.736427582742167,1.0895803,6.092,151.54816,1675903211842,,,4257722457715664,1.1089159,Walk
Fix,FLP,37.4226433,-122.1673029,5.149537580669886,1.1479427,6.024,153.661,1675903212385,,,4257723000271084,1.0968212,Walk
Fix,FLP,37.4226377,-122.1673007,5.149537580669886,1.182423,5.965,155.32863,1675903212927,,,4257723542814724,1.0968212,Walk
Fix,GPS,37.4227076456,-122.1672687281,10.241088128015791,1.2513899,5.7263355,150.23563,1675903210999,0.41344008,18.925894,4257723588860000,6.6047335,Walk
Fix,FLP,37.4226316,-122.1672984,3.181623927515332,1.2166128,5.903,154.38855,1675903213470,,,4257724085357693,1.1255738,Walk
Fix,FLP,37.4226266,-122.1672955,3.181623927515332,1.2322412,5.854,152.72878,1675903214014,,,4257724629000000,1.1255738,Walk
Fix,GPS,37.4226954978,-122.1672620989,10.034429395521242,1.3659525,5.7799764,147.79439,1675903211999,0.4563508,18.407495,4257724589207000,6.63272,Walk
Fix,NLP,37.4227647,-122.1672494,0.6000000238418579,,32.792,,1675903214426,,,4257725042000000,1.216151,Walk
Fix,GPS,37.4226823936,-122.1672541163,10.503857822432462,1.3711739,5.949319,148.14491,1675903212999,0.4739993,18.448984,4257725589195000,6.779131,Walk
Fix,FLP,37.4226166,-122.1672878,-7.041848484101507,1.2364608,5.82,150.75708,1675903215153,,,4257725768000000,1.1001949,Walk
Fix,GPS,37.4226568487,-122.167240104,12.136921785870602,1.3807318,5.6746635,158.44093,1675903213999,0.22468342,8.661494,4257726588882000,6.5099545,Walk
Fix,FLP,37.4226138,-122.1672797,19.39650109355236,1.0227929,5.841,115.42281,1675903215749,,,4257726364037991,1.0266907,Walk
Fix,FLP,37.422617,-122.1672728,19.39650109355236,1.0568388,5.887,82.094795,1675903216291,,,4257726906576870,1.0266907,Walk
Fix,GPS,37.4226383166,-122.1672307346,12.2429916356226,1.6935972,5.4900146,159.45692,1675903214999,0.22579531,10.455847,4257727588899000,6.3255696,Walk
Fix,FLP,37.4226202,-122.1672672,15.132909265211318,1.1530632,5.916,85.29511,1675903216816,,,4257727431037563,1.0370808,Walk
Fix,FLP,37.4226228,-122.167259,15.132909265211318,1.3388853,5.996,93.99351,1675903217376,,,4257727991644436,1.03464,Walk
Fix,FLP,37.4226227,-122.1672536,15.132909265211318,1.4372709,6.079,99.04282,1675903217919,,,4257728534199978,1.03464,Walk
Fix,GPS,37.4226292342,-122.1672164715,12.172796800852058,1.6374116,5.0363493,145.5998,1675903215999,0.063265696,2.6108143,4257728588943000,5.9563627,Walk
Fix,FLP,37.4226204,-122.1672404,13.479525849725732,1.4580282,6.304,114.78537,1675903218461,,,4257729076741238,1.0712984,Walk
Fix,GPS,37.4226158641,-122.1672070653,12.422695486011596,1.6309519,5.1554112,146.39877,1675903216999,0.31673586,12.32028,4257729588945000,5.876024,Walk
Fix,FLP,37.4226169,-122.1672318,8.882484598281138,1.4658068,6.426,125.40177,1675903219004,,,4257729619282254,1.0796338,Walk
Fix,NLP,37.4228164,-122.1671134,0.6000000238418579,,33.778,,1675903219400,,,4257730016000000,1.9030368,Walk
Fix,FLP,37.4226108,-122.1672173,6.966694099868988,1.5279717,6.876,135.484,1675903219546,,,4257730161812832,1.1339424,Walk
Fix,GPS,37.4226046625,-122.1671977102,12.748806740369783,1.5840033,5.455168,153.38864,1675903217999,0.46494007,15.310535,4257730589023000,5.862777,Walk
Fix,FLP,37.422607,-122.1672122,6.743691635175964,1.5376884,6.935,135.41211,1675903220089,,,4257730704365017,1.2006432,Walk
Fix,FLP,37.4226042,-122.1672089,6.743691635175964,0.214405,7.326,114.13814,1675903220649,,,4257731264000001,1.2006432,Walk
Fix,GPS,37.4225934028,-122.1671915741,12.80897862407142,1.530141,5.799822,152.14468,1675903218999,0.39159027,14.976232,4257731589042000,5.8968883,Walk
Fix,FLP,37.422601,-122.1672058,3.895668150521587,0.17948282,7.779,140.8604,1675903221190,,,4257731805000000,1.0941197,Walk
Fix,FLP,37.4225899,-122.1671983,-10.196438020934778,0.959526,8.341,152.22784,1675903221725,,,4257732341033413,1.1043962,Walk
Fix,FLP,37.4225821,-122.1671946,-10.196438020934778,1.1691997,8.545,154.43063,1675903222268,,,4257732883574247,1.1043962,Walk
Fix,GPS,37.4225732838,-122.1671832347,12.782603284657768,1.4123583,6.257001,157.76724,1675903220999,0.5172247,21.958673,4257733589056000,6.0852385,Walk
Fix,FLP,37.4225755,-122.1671917,-7.137082722810732,1.2956178,8.715,156.19641,1675903222810,,,4257733426116972,1.1617838,Walk
Fix,FLP,37.4225642,-122.1671872,-7.137082722810732,1.3891906,8.991,156.82028,1675903223353,,,4257733968657254,1.1617838,Walk
Fix,GPS,37.4225606108,-122.1671750331,12.986149012603104,1.4318762,6.4449787,155.17169,1675903221999,0.4550563,18.82213,4257734589116000,6.17713,Walk
Fix,FLP,37.4225586,-122.1671852,9.070399903078451,1.4035382,9.095,157.29663,1675903223896,,,4257734511202663,1.1564918,Walk
Fix,FLP,37.4225489,-122.167181,9.070399903078451,1.4205912,9.396,156.02606,1675903224438,,,4257735053739468,1.1564918,Walk
Fix,GPS,37.4225481812,-122.1671665555,13.166081218599324,1.4452047,6.551482,153.79546,1675903222999,0.43355456,17.46276,4257735589012000,6.2310195,Walk
Fix,FLP,37.4225439,-122.1671784,12.856368630396789,1.4301081,9.425,154.57343,1675903224981,,,4257735596281216,1.1602104,Walk
Fix,FLP,37.4225329,-122.1671732,12.856368630396789,1.447766,9.714,152.00008,1675903225523,,,4257736138821012,1.1602104,Walk
Fix,GPS,37.4225386167,-122.1671591441,13.22151169480395,1.4212698,6.6601424,150.8659,1675903223999,0.5236558,18.072191,4257736589060000,6.3090796,Walk
Fix,FLP,37.4225264,-122.16717,12.856368630396789,1.4582236,9.765,150.53056,1675903226065,,,4257736681352444,1.0845577,Walk
Fix,FLP,37.4225139,-122.1671636,12.856368630396789,1.4603924,9.698,149.3044,1675903226607,,,4257737223892667,1.0845577,Walk
Fix,GPS,37.4225263404,-122.1671507929,13.09305453519636,1.433736,6.757211,152.03563,1675903224999,0.46285567,19.216156,4257737589043000,6.4137936,Walk
Fix,FLP,37.4225033,-122.1671594,12.856368630396789,1.4591398,9.546,149.43387,1675903227151,,,4257737766442837,1.0717664,Walk
Fix,GPS,37.4225125882,-122.1671415284,13.07053024654422,1.4613092,6.801338,149.32162,1675903225999,0.47120726,19.571188,4257738589056000,6.5251966,Walk
Fix,FLP,37.4224889,-122.1671523,14.284694803013366,1.4538239,9.414,150.16174,1675903227692,,,4257738308982632,1.0831563,Walk
Fix,FLP,37.422479,-122.1671489,14.284694803013366,1.4579296,9.249,150.70099,1675903228236,,,4257738851525113,1.0844699,Walk
Fix,GPS,37.4225016009,-122.1671340753,12.997458204235548,1.4502398,6.871608,151.14311,1675903226999,0.45674366,19.925009,4257739589109000,6.634944,Walk
Fix,FLP,37.4224732,-122.1671468,14.399941831209226,1.4652715,9.139,151.05812,1675903228779,,,4257739394061062,1.1308234,Walk
Fix,FLP,37.4224631,-122.167144,14.399941831209226,1.4651353,8.869,151.15446,1675903229320,,,4257739936601895,1.1308234,Walk
Fix,GPS,37.4224906103,-122.1671249659,13.267167373113493,1.4478204,6.9668326,158.9384,1675903227999,0.48036638,20.63576,4257740589116000,6.7487125,Walk
Fix,FLP,37.4224557,-122.1671409,14.399941831209226,1.4661317,8.673,150.72139,1675903229864,,,4257740479140957,1.1308234,Walk
Fix,FLP,37.4224458,-122.1671387,14.399941831209226,1.4646562,8.455,150.37845,1675903230405,,,4257741021681912,1.1725925,Walk
Fix,NLP,37.4219818,-122.1669787,0.6999999284744263,,27.568,,1675903230901,,,4257741516000000,1.2293782,Walk
Fix,FLP,37.4224406,-122.167137,12.631588221788732,1.4687877,8.321,150.04779,1675903230949,,,4257741564220730,1.0505878,Walk
Fix,GPS,37.4224794338,-122.1671183348,13.40147702622758,1.4358745,7.0660105,157.69171,1675903228999,0.5644669,28.86889,4257741589147000,6.8913474,Walk
Fix,FLP,37.4224231,-122.1671324,12.478857769222415,1.4833894,7.983,149.8694,1675903231491,,,4257742106761502,1.0629929,Walk
Fix,GPS,37.4224679751,-122.1671107432,13.472464853666391,1.4287698,7.1788454,158.2892,1675903229999,0.63125116,34.016563,4257742589149000,7.0428944,Walk
Fix,FLP,37.4224116,-122.1671284,12.478857769222415,1.4962102,7.822,150.14207,1675903232034,,,4257742649299649,1.0629929,Walk
Fix,FLP,37.422398,-122.1671256,11.235768474960182,1.5004922,7.708,150.4708,1675903232575,,,4257743191837857,1.1192297,Walk
Fix,FLP,37.4223897,-122.1671227,11.235768474960182,1.5004022,7.576,150.63734,1675903233090,,,4257743705000000,1.1192297,Walk
Fix,GPS,37.4224580304,-122.1671046308,13.638274170560551,1.4071546,7.3198485,161.52518,1675903230999,0.52443385,26.824636,4257743589166000,7.1843286,Walk
Fix,FLP,37.4223793,-122.1671195,11.235768474960182,1.4921638,7.406,150.82509,1675903233670,,,4257744285000000,1.1584417,Walk
Fix,GPS,37.4224454055,-122.1670949382,14.103869080422507,1.418895,7.425987,148.01392,1675903231999,0.4911085,22.90674,4257744589382000,7.33114,Walk
Fix,FLP,37.4223702,-122.1671166,11.235768474960182,1.46763,7.182,150.66168,1675903234204,,,4257744819457303,1.1509598,Walk
Fix,GPS,37.4224324455,-122.1670811489,14.369605431507797,1.4471834,7.388996,147.08226,1675903232999,0.48660153,23.283985,4257745589250000,7.453174,Walk
Fix,FLP,37.4223659,-122.1671139,9.577590018882034,1.4629011,7.106,150.2542,1675903234746,,,4257745361997098,1.1576128,Walk
Fix,FLP,37.4223602,-122.1671102,9.577590018882034,1.4554381,7.038,149.66473,1675903235289,,,4257745904534451,1.1576128,Walk
Fix,NLP,37.4219029,-122.1670001,0.6999999284744263,,23.549,,1675903235930,,,4257746545000000,1.128416,Walk
Fix,FLP,37.4223562,-122.1671072,9.140111481648518,1.4555873,7.002,149.45952,1675903235832,,,4257746447073697,1.0643084,Walk
Fix,GPS,37.4224178988,-122.1670653921,14.6747362237142,1.4950571,7.430281,144.76584,1675903233999,0.491014,17.762495,4257746589221000,7.5978174,Walk
Fix,FLP,37.422346,-122.1670999,9.140111481648518,1.4585719,7.001,149.0304,1675903236373,,,4257746989610867,1.078506,Walk
Fix,FLP,37.4223386,-122.1670946,9.140111481648518,1.4635344,7.012,149.0577,1675903236917,,,4257747532149685,1.078506,Walk
Fix,GPS,37.4224045652,-122.1670546555,14.922832932398602,1.5121827,7.501117,149.85352,1675903234999,0.52263886,20.131317,4257747589233000,7.753623,Walk
Fix,FLP,37.4223302,-122.1670884,9.140111481648518,1.470091,7.068,149.13672,1675903237459,,,4257748074686001,1.0851706,Walk
Fix,FLP,37.4223236,-122.1670833,9.140111481648518,1.4735092,7.15,149.20984,1675903238002,,,4257748617224392,1.0851706,Walk
Fix,GPS,37.4223940751,-122.1670457365,14.685358193100752,1.4984965,7.4537144,149.47285,1675903235999,0.4537829,20.77056,4257748589269000,7.864323,Walk
Fix,FLP,37.4223173,-122.1670783,7.5899223479588755,1.4753085,7.199,149.19823,1675903238544,,,4257749159760282,1.0524032,Walk
Fix,FLP,37.4223117,-122.1670738,7.5899223479588755,1.4756323,7.287,148.95291,1675903239093,,,4257749708000000,1.0524032,Walk
Fix,GPS,37.4223827101,-122.167034114,14.820606368950086,1.4992355,7.423275,146.20882,1675903236999,0.41789344,23.378849,4257749589328000,8.01695,Walk
Fix,FLP,37.422304,-122.1670667,7.5899223479588755,1.4690722,7.43,148.07224,1675903239629,,,4257750244833218,1.0784053,Walk
Fix,GPS,37.422369421,-122.1670214891,14.908525480126537,1.5143132,7.3259454,136.16512,1675903237999,0.41366526,23.262186,4257750589255000,8.144857,Walk
Fix,FLP,37.4223016,-122.1670635,7.54990891265129,1.4637113,7.417,147.24416,1675903240131,,,4257750746108543,1.0932308,Walk
Fix,NLP,37.4219544,-122.1668284,0.6000000238418579,,22.09,,1675903240957,,,4257751572000000,1.0,Walk
Fix,FLP,37.4222985,-122.1670597,9.59880779842402,1.46108,7.441,146.52016,1675903240714,,,4257751329897427,1.0348638,Walk
Fix,GPS,37.4223587179,-122.167008962,14.892454382559563,1.5103681,7.09038,112.86958,1675903238999,0.36795616,19.188784,4257751589270000,8.170508,Walk
Fix,FLP,37.4222993,-122.1670492,9.59880779842402,1.4315102,7.691,143.29248,1675903241256,,,4257751872443081,1.0527415,Walk
Fix,FLP,37.4223022,-122.1670392,9.59880779842402,1.3903769,7.967,140.54558,1675903241799,,,4257752414977749,1.0527415,Walk
Fix,GPS,37.4223566317,-122.1669990322,14.42662279176982,1.4551945,6.94189,86.67772,1675903239999,0.3783018,16.353743,4257752589320000,8.184378,Walk
Fix,GPS,37.4223581595,-122.1669870797,14.406931910193093,1.4201763,6.19849,84.25149,1675903240999,0.26012063,10.654572,4257753589298000,8.134249,Walk
Fix,FLP,37.4223115,-122.1670188,18.14834861646775,1.2802186,8.5,134.85307,1675903242884,,,4257753500049100,1.1740205,Walk
Fix,FLP,37.4223172,-122.1670057,18.14834861646775,1.206348,8.876,131.40445,1675903243427,,,4257754042585660,1.1740205,Walk
Fix,GPS,37.422364654,-122.1669639621,14.933181970828183,1.4696285,5.2414703,76.84274,1675903241999,0.21143323,10.271782,4257754589286000,7.620197,Walk
Fix,FLP,37.4223259,-122.1669995,15.969580803834738,1.1135048,9.083,129.10558,1675903243970,,,4257754585119901,1.1606412,Walk
Fix,FLP,37.422339,-122.1669883,15.969580803834738,1.0072008,9.836,122.63856,1675903244511,,,4257755127644926,1.1606412,Walk
Fix,GPS,37.4223726314,-122.1669485346,14.733710325247127,1.4759144,4.938184,58.844574,1675903242999,0.20748529,8.448853,4257755589308000,7.2658463,Walk
Fix,FLP,37.4223447,-122.1669842,14.728505580350683,0.99481994,10.203,119.04141,1675903245054,,,4257755670191068,1.1147372,Walk
Fix,NLP,37.4218766,-122.1671228,1.0,,31.718,,1675903245192,,,4257755807000000,1.0519333,Walk
Fix,FLP,37.4223496,-122.1669769,13.763575444437926,0.9848999,11.048,113.0858,1675903245596,,,4257756212728055,1.0720874,Walk
Fix,GPS,37.4223866217,-122.1669401444,13.467151082009703,1.4901276,4.4120955,63.521996,1675903243999,0.040064562,1.717122,4257756589317000,6.8717027,Walk
Fix,FLP,37.4223461,-122.1669734,9.654883615008671,0.99683857,12.015,111.92951,1675903246140,,,4257756755260770,1.0311898,Walk
Fix,FLP,37.4223441,-122.1669697,9.654883615008671,1.0121578,12.05,111.54187,1675903246682,,,4257757297800808,1.0311898,Walk
Fix,GPS,37.4223952991,-122.1669312292,13.49045067571017,1.4662981,4.3062305,65.11631,1675903244999,0.20055102,8.970832,4257757589334000,6.586036,Walk
Fix,FLP,37.4223442,-122.1669685,3.7196926167453057,1.0371997,12.099,110.27073,1675903247225,,,4257757840339383,1.0424184,Walk
Fix,GPS,37.4224047077,-122.1669209671,13.977365164796272,1.4544408,4.2519445,62.298004,1675903245999,0.21414843,9.70671,4257758589351000,6.3073063,Walk
Fix,FLP,37.4223449,-122.1669646,1.0,1.0572773,12.266,108.53343,1675903247767,,,4257758382872098,1.0479424,Walk
Fix,FLP,37.4223468,-122.166959,1.0,1.0545594,12.359,105.92172,1675903248310,,,4257758925421902,1.0479424,Walk
Fix,GPS,37.4224130695,-122.1669075181,14.760436865998583,1.4537232,4.1903796,62.007538,1675903246999,0.17514981,7.779355,4257759589652000,5.974538,Walk
Fix,FLP,37.4223492,-122.1669571,1.0,1.0557643,12.584,103.565384,1675903248852,,,4257759467967312,1.0387775,Walk
Fix,FLP,37.4223557,-122.1669513,1.0,1.0485742,12.977,98.40196,1675903249395,,,4257760010513333,1.0387775,Walk
Fix,NLP,37.4225653,-122.1669916,0.6999999284744263,,22.864,,1675903249835,,,4257760450000000,1.6204382,Walk
Fix,GPS,37.422420952,-122.1668952557,14.900120206040516,1.4450052,4.221912,64.18503,1675903247999,0.19072123,7.6951847,4257760589373000,5.7818956,Walk
Fix,FLP,37.4223753,-122.1669551,0.6999999284744263,1.0362382,13.024,94.643654,1675903249938,,,4257760553059231,1.1191422,Walk
Fix,FLP,37.4224018,-122.1669526,0.6999999284744263,0.98449415,12.842,89.88814,1675903250479,,,4257761095610868,1.1191422,Walk
Fix,GPS,37.4224299721,-122.166883261,15.02342707875722,1.4411342,4.1740446,67.241356,1675903248999,0.17878063,7.990986,4257761589391000,5.570478,Walk
Fix,FLP,37.4224126,-122.1669531,0.6999999284744263,0.9495141,12.727,86.17523,1675903251022,,,4257761638160854,1.1568063,Walk
Fix,FLP,37.4224329,-122.1669479,0.6999999284744263,0.90086126,12.463,78.50021,1675903251565,,,4257762180715481,1.1568063,Walk
Fix,GPS,37.4224356387,-122.1668721541,15.122013232249804,1.4145365,4.203243,68.18221,1675903249999,0.18587503,8.977838,4257762589403000,5.4015546,Walk
Fix,FLP,37.4224477,-122.1669449,0.6999999284744263,0.87457794,12.014,71.38558,1675903252068,,,4257762684153470,1.1655542,Walk
Fix,FLP,37.4224555,-122.1669412,0.6999999284744263,0.85955817,11.807,67.643,1675903252649,,,4257763265819974,1.1655542,Walk
Fix,GPS,37.422442356,-122.1668624054,15.244025364009062,1.3891288,4.2490644,68.439835,1675903250999,0.18053955,7.76485,4257763589412000,5.2803516,Walk
Fix,FLP,37.4224654,-122.1669376,0.6999999284744263,0.8395967,11.411,60.82568,1675903253193,,,4257763808382473,1.2114472,Walk
Fix,FLP,37.4224715,-122.1669334,0.6999999284744263,0.8283213,11.173,57.164875,1675903253735,,,4257764350941250,1.2114472,Walk
Fix,GPS,37.4224463092,-122.1668487723,15.091152673494538,1.3762673,4.293804,66.87235,1675903251999,0.19425948,9.182554,4257764589433000,5.1441145,Walk
Fix,FLP,37.4224789,-122.1669281,0.6999999284744263,0.823381,10.585,50.97773,1675903254277,,,4257764893503933,1.2473251,Walk
Fix,NLP,37.4225525,-122.1669676,0.6000000238418579,,66.332,,1675903254804,,,4257765419000000,4.19521,Walk
Fix,FLP,37.4224838,-122.1669235,0.6000000238418579,0.8494569,10.599,47.34268,1675903254821,,,4257765436046536,1.3487982,Walk
Fix,GPS,37.4224514923,-122.1668353448,15.19680955841521,1.3684638,4.7032,59.906033,1675903252999,0.25130695,10.641842,4257765589476000,5.192492,Walk
Fix,FLP,37.4224898,-122.16691,0.6000000238418579,0.89099604,10.023,47.363,1675903255363,,,4257765978622708,1.3772943,Walk
Fix,GPS,37.4224574031,-122.1668211207,15.32716912123127,1.3683964,5.084797,52.580555,1675903253999,0.3314247,14.6762085,4257766589505000,5.2417793,Walk
Fix,FLP,37.4224914,-122.1669021,0.6000000238418579,0.90318245,10.051,48.952152,1675903255906,,,4257766521185574,1.4264234,Walk
Fix,FLP,37.4224941,-122.1668832,0.6000000238418579,0.92743444,10.061,52.237553,1675903256448,,,4257767063740690,1.4264234,Walk
Fix,GPS,37.4224648145,-122.1668090054,15.150724621775074,1.3605282,5.455361,46.378387,1675903254999,0.32108885,17.578436,4257767589489000,5.30772,Walk
Fix,FLP,37.4224949,-122.1668736,-1.6871449967498506,0.9410066,10.158,53.776955,1675903256991,,,4257767606315580,1.5190704,Walk
Fix,FLP,37.4224967,-122.1668522,-1.6871449967498506,0.971442,10.139,56.40151,1675903257533,,,4257768148882047,1.5190704,Walk
Fix,GPS,37.4224721668,-122.1667958092,15.301852178195064,1.356877,5.7478433,66.75118,1675903255999,0.29777253,17.098768,4257768589505000,5.352807,Walk
Fix,FLP,37.4224982,-122.1668428,-1.3803864712033516,0.99209154,10.168,55.98193,1675903258076,,,4257768691437466,1.4437362,Walk
Fix,FLP,37.4225022,-122.1668235,-1.3803864712033516,1.0305516,9.997,55.326935,1675903258619,,,4257769234012661,1.4437362,Walk
Fix,GPS,37.4224776598,-122.1667831275,15.53720599766291,1.3419678,5.808277,68.30881,1675903256999,0.29670456,16.443638,4257769589712000,5.3361597,Walk
Fix,FLP,37.4225061,-122.1668069,5.633764561069967,1.0651858,9.708,54.92404,1675903259160,,,4257769776576199,1.4031824,Walk
Fix,FLP,37.4225096,-122.1667977,5.633764561069967,1.0817927,9.545,54.791492,1675903259694,,,4257770309000001,1.4031824,Walk
Fix,GPS,37.4224817715,-122.1667720207,15.635824726904314,1.3113909,5.9195805,65.542336,1675903257999,0.31110346,21.83645,4257770589556000,5.369614,Walk
Fix,FLP,37.4225142,-122.1667838,10.6332984067366,1.1089227,9.045,54.862896,1675903260254,,,4257770869000000,1.3697163,Walk
Fix,NLP,37.4226636,-122.1668839,0.1000000461935997,,24.043,,1675903259888,,,4257770503000000,3.6132448,Walk
Fix,GPS,37.4224861598,-122.1667629545,15.523661788236083,1.2710295,5.9898653,56.938854,1675903258999,0.29917657,22.743334,4257771589602000,5.389523,Walk
Fix,FLP,37.422522,-122.1667669,12.91483194813864,1.1299733,8.526,55.13651,1675903260789,,,4257771404268765,1.0944334,Walk
Fix,FLP,37.4225284,-122.1667561,12.91483194813864,1.1361787,8.139,55.690212,1675903261331,,,4257771946830288,1.0944334,Walk
Fix,GPS,37.4224928237,-122.1667562406,15.748920986654529,1.2367532,5.9768767,42.32116,1675903259999,0.29512626,17.203714,4257772589543000,5.374826,Walk
Fix,FLP,37.4225303,-122.1667517,9.508170720813908,1.144291,7.987,55.99629,1675903261874,,,4257772489393216,1.1225528,Walk
Fix,FLP,37.4225362,-122.1667389,9.508170720813908,1.1579381,7.761,56.319145,1675903262416,,,4257773031953275,1.1225528,Walk
Fix,GPS,37.4224992489,-122.1667463384,15.709813482368832,1.2219338,5.9726195,57.349705,1675903260999,0.29049498,14.026352,4257773589556000,5.391561,Walk
Fix,FLP,37.4225388,-122.1667334,7.045739796180754,1.1655296,7.688,56.226685,1675903262958,,,4257773574514798,1.3979069,Walk
Fix,FLP,37.4225448,-122.1667201,7.045739796180754,1.1766592,7.581,56.07539,1675903263502,,,4257774117073636,1.3979069,Walk
Fix,GPS,37.4225067397,-122.1667366167,15.79102810908888,1.2147403,5.979267,63.042503,1675903261999,0.2802738,14.084299,4257774589599000,5.4225945,Walk
Fix,FLP,37.4225474,-122.1667147,2.9876591666716195,1.1824948,7.585,55.950954,1675903264044,,,4257774659633084,1.4138172,Walk
Fix,FLP,37.4225531,-122.1667025,2.9876591666716195,1.1897515,7.535,55.863976,1675903264586,,,4257775202180081,1.4138172,Walk
Fix,NLP,37.422714,-122.1668229,0.1000000461935997,,64.1,,1675903264869,,,4257775484000000,5.908047,Walk
Fix,GPS,37.4225126892,-122.1667239394,16.04484511696948,1.2164756,5.967,65.35542,1675903262999,0.282633,14.686367,4257775589608000,5.4475846,Walk
Fix,FLP,37.4225566,-122.1666945,3.1037619013386437,1.1952018,7.435,55.899963,1675903265093,,,4257775708180508,1.3893797,Walk
Fix,FLP,37.4225596,-122.1666872,3.1037619013386437,1.1979138,7.392,55.952553,1675903265672,,,4257776287307767,1.3893797,Walk
Fix,GPS,37.422516829,-122.1667141625,16.101155043901173,1.1937222,6.0007753,71.66271,1675903263999,0.2887706,15.617005,4257776589799000,5.4867587,Walk
Fix,FLP,37.4225629,-122.1666795,3.1037619013386437,1.2004961,7.315,56.04109,1675903266214,,,4257776829865994,1.3456742,Walk
Fix,GPS,37.422520584,-122.1667016149,16.0209148603936,1.1886489,5.9904423,64.179565,1675903264999,0.2913686,15.448312,4257777589701000,5.514121,Walk
Fix,FLP,37.4225669,-122.1666698,10.26331369707978,1.2004553,7.228,56.268787,1675903266757,,,4257777372421048,1.3279777,Walk
Fix,FLP,37.4225698,-122.1666609,10.26331369707978,1.1989892,7.125,56.638687,1675903267299,,,4257777914978178,1.3279777,Walk
Fix,GPS,37.4225259438,-122.1666849075,16.034235603473583,1.2150728,5.948478,64.05797,1675903265999,0.29763258,14.907231,4257778589674000,5.51568,Walk
Fix,FLP,37.4225716,-122.1666556,5.361019996287467,1.1998128,7.032,56.840572,1675903267841,,,4257778457542569,1.186323,Walk
Fix,FLP,37.4225748,-122.1666462,5.361019996287467,1.2002542,6.928,57.208694,1675903268385,,,4257779000088772,1.186323,Walk
Fix,GPS,37.4225315144,-122.1666678685,15.899097015934624,1.2440395,6.033285,57.839264,1675903266999,0.3275844,14.300643,4257779589678000,5.5408235,Walk
Fix,FLP,37.4225769,-122.1666406,10.265174213164386,1.2024566,6.848,57.388172,1675903268926,,,4257779542641995,1.1983374,Walk
Fix,FLP,37.4225808,-122.1666301,10.265174213164386,1.206353,6.788,57.737656,1675903269470,,,4257780085197171,1.1983374,Walk
Fix,NLP,37.4227324,-122.1666768,-0.1000000014901161,,32.33,,1675903269884,,,4257780499000000,19.147089,Walk
Fix,GPS,37.4225374306,-122.1666529313,15.742356523722735,1.2593706,6.0888243,51.428314,1675903267999,0.33120114,14.259208,4257780589699000,5.594833,Walk
Fix,FLP,37.4225836,-122.1666239,9.99620508482684,1.2103461,6.739,57.90522,1675903270012,,,4257780627749357,1.4859991,Walk
Fix,FLP,37.4225888,-122.1666134,9.99620508482684,1.2161517,6.733,57.925995,1675903270555,,,4257781170303372,1.4859991,Walk
Fix,GPS,37.4225453924,-122.1666361671,15.957768264861592,1.2912462,6.0590987,53.810402,1675903268999,0.31269607,14.868715,4257781589700000,5.6243806,Walk
Fix,FLP,37.4225925,-122.1666048,6.170549962055063,1.2237056,6.724,57.952126,1675903271093,,,4257781708180508,1.4646348,Walk
Fix,FLP,37.4225962,-122.1665959,6.170549962055063,1.2295443,6.731,58.016098,1675903271640,,,4257782255407620,1.4646348,Walk
Fix,GPS,37.4225520366,-122.1666243899,15.82084186805261,1.2832415,6.046109,57.000557,1675903269999,0.33147174,18.240986,4257782589729000,5.6453247,Walk
Fix,FLP,37.4225988,-122.1665869,7.658881167061892,1.2373427,6.739,58.223713,1675903272154,,,4257782770000000,1.4584783,Walk
Fix,GPS,37.4225553603,-122.1666114975,15.798384266619996,1.2663009,6.03226,61.70024,1675903270999,0.31217694,22.768175,4257783590005000,5.652322,Walk
Fix,FLP,37.4226029,-122.1665745,12.620193988568252,1.2424269,6.784,58.595036,1675903272725,,,4257783340510099,1.4678814,Walk
Fix,FLP,37.422606,-122.1665643,12.620193988568252,1.2459624,6.816,59.04402,1675903273268,,,4257783883042326,1.4678814,Walk
Fix,GPS,37.4225575157,-122.1666005398,15.80434591138148,1.2325432,6.0408382,68.136055,1675903271999,0.3142697,27.052288,4257784589778000,5.6631656,Walk
Fix,FLP,37.4226084,-122.1665575,12.740131896908998,1.2489874,6.87,59.236176,1675903273810,,,4257784425609037,1.4341136,Walk
Fix,FLP,37.4226114,-122.1665471,12.740131896908998,1.2505466,6.896,59.649387,1675903274353,,,4257784968158780,1.4341136,Walk
Fix,GPS,37.4225608637,-122.1665888816,15.893996952687536,1.2062906,6.082012,79.64015,1675903272999,0.31108093,34.577435,4257785589786000,5.6905427,Walk
Fix,FLP,37.4226141,-122.1665388,12.740131896908998,1.2512524,6.943,59.911465,1675903274895,,,4257785510708645,1.4341136,Walk
Fix,NLP,37.4229082,-122.1666479,-0.1999998986721038,,69.787,,1675903275022,,,4257785637000000,13.5849905,Walk
Fix,FLP,37.4226166,-122.1665289,10.970815389002368,1.2487885,6.991,60.50324,1675903275438,,,4257786053255765,1.4132745,Walk
Fix,FLP,37.4226192,-122.1665215,10.970815389002368,1.2479206,7.049,60.68042,1675903275980,,,4257786595804776,1.4132745,Walk
Fix,GPS,37.4225649079,-122.1665808014,15.755542776631176,1.1646295,6.0673437,70.94618,1675903273999,0.31915525,23.939594,4257786590091000,5.713756,Walk
Fix,FLP,37.4226212,-122.1665138,10.821784169005568,1.2430818,7.135,60.96062,1675903276495,,,4257787110000001,1.1587622,Walk
Fix,FLP,37.4226238,-122.1665063,10.821784169005568,1.2404952,7.214,61.05652,1675903277027,,,4257787643000000,1.1587622,Walk
Fix,GPS,37.4225711875,-122.166569807,15.685452212551942,1.1585586,5.9628315,63.44413,1675903274999,0.299324,14.597922,4257787589837000,5.716349,Walk
Fix,FLP,37.4226267,-122.166495,10.099967028187947,1.2281156,7.443,61.374687,1675903277607,,,4257788223446682,1.1233193,Walk
Fix,GPS,37.4225782303,-122.1665563334,15.652842056662852,1.1751473,6.006647,62.565884,1675903275999,0.3401764,13.842899,4257788589840000,5.7431707,Walk
Fix,FLP,37.4226262,-122.1664911,10.099967028187947,1.2197944,7.538,61.734455,1675903278150,,,4257788765990324,1.1413763,Walk
Fix,FLP,37.4226278,-122.1664847,10.099967028187947,1.2173572,7.636,61.827747,1675903278693,,,4257789308534207,1.1413763,Walk
Fix,GPS,37.4225872832,-122.1665406563,15.654799564967057,1.216125,5.969265,60.799416,1675903276999,0.32423055,11.985083,4257789589793000,5.767672,Walk
Fix,FLP,37.4226276,-122.1664795,8.29982745358501,1.2146022,7.769,61.961758,1675903279236,,,4257789851083034,1.5087826,Walk
Fix,FLP,37.4226292,-122.1664727,8.29982745358501,1.2149488,7.884,61.989037,1675903279777,,,4257790393623318,1.5087826,Walk
Fix,GPS,37.4225971824,-122.1665246327,15.875782884376026,1.2597836,5.974696,72.08009,1675903277999,0.31709394,13.254769,4257790589848000,5.7765384,Walk
Fix,NLP,37.4224284,-122.1655164,-2.0,,75.625,,1675903280052,,,4257790667000000,5.4904995,Walk
Fix,FLP,37.4226284,-122.1664689,16.475175397171085,1.2170342,8.064,62.139973,1675903280321,,,4257790936151394,1.4423268,Walk
Fix,GPS,37.4226028469,-122.1665110339,16.118365708254384,1.2680254,6.09326,70.75566,1675903278999,0.35213605,12.905406,4257791589902000,5.831438,Walk
Fix,FLP,37.4226299,-122.1664572,8.29982745358501,1.2199386,8.295,62.53499,1675903280863,,,4257791478706571,1.4373528,Walk
Fix,FLP,37.4226306,-122.1664509,8.29982745358501,1.2214037,8.442,62.86608,1675903281396,,,4257792011000000,1.4373528,Walk
Fix,GPS,37.4226122136,-122.166494593,16.471589655925477,1.30976,6.086367,71.79874,1675903279999,0.29651433,11.614439,4257792589939000,5.8234234,Walk
Fix,FLP,37.4226308,-122.1664424,15.413960197457577,1.223059,8.649,63.547012,1675903281948,,,4257792563795437,1.418941,Walk
Fix,FLP,37.4226311,-122.1664349,15.413960197457577,1.2214773,8.774,64.165535,1675903282491,,,4257793106338834,1.418941,Walk
Fix,GPS,37.4226200907,-122.166476849,16.42347933423381,1.3500118,6.1482162,70.26677,1675903280999,0.32898608,11.4363575,4257793589904000,5.824147,Walk
Fix,FLP,37.4226306,-122.1664338,12.928982914773854,1.222788,8.82,64.38689,1675903283032,,,4257793648879422,1.3901163,Walk
Fix,FLP,37.422631,-122.1664278,12.928982914773854,1.22422,8.867,64.64696,1675903283576,,,4257794191419827,1.3901163,Walk
Fix,GPS,37.4226321014,-122.1664524961,16.56037246861456,1.442951,6.1169806,71.21957,1675903281999,0.31253695,11.295371,4257794590013000,5.851555,Walk
Fix,FLP,37.4226306,-122.1664274,16.73645346184348,1.2306906,8.754,64.67848,1675903284093,,,4257794708180508,1.3867474,Walk
Fix,FLP,37.4226323,-122.1664206,16.73645346184348,1.2381699,8.713,64.75848,1675903284661,,,4257795276503445,1.3867474,Walk
Fix,GPS,37.422639561,-122.1664268522,16.73502730150609,1.5195379,6.0865417,69.08334,1675903282999,0.30562454,10.117891,4257795589965000,5.8448896,Walk
Fix,NLP,37.4222402,-122.1654269,-2.0,,110.036,,1675903285065,,,4257795680000000,8.784105,Walk
Fix,FLP,37.4226332,-122.1664159,17.933845887515886,1.2605731,8.458,64.910515,1675903285192,,,4257795807000000,1.1055964,Walk
Fix,FLP,37.422636,-122.1664058,17.933845887515886,1.2728928,8.372,65.0369,1675903285736,,,4257796351000000,1.1055964,Walk
Fix,GPS,37.4226472471,-122.1664043518,16.744039905014432,1.5682442,6.179166,77.45709,1675903283999,0.31503105,11.747787,4257796589939000,5.856802,Walk
Fix,FLP,37.4226398,-122.1663906,4.393178404724779,1.2997113,8.206,65.691505,1675903286289,,,4257796904121426,1.1424633,Walk
Fix,GPS,37.4226572161,-122.1663785193,16.826689038723362,1.6365768,6.173827,69.44613,1675903284999,0.3041754,13.553679,4257797589956000,5.841056,Walk
Fix,FLP,37.4226407,-122.166386,12.341401508681386,1.3091693,8.15,66.06083,1675903286831,,,4257797446661587,1.1915193,Walk
Fix,FLP,37.4226439,-122.1663732,12.341401508681386,1.3319241,8.273,66.49106,1675903287373,,,4257797989199003,1.1915193,Walk
Fix,GPS,37.422668582,-122.1663577026,16.811878415261422,1.6736139,6.1390524,68.47797,1675903285999,0.33673778,13.556101,4257798589983000,5.8165545,Walk
Fix,FLP,37.4226463,-122.1663642,12.341401508681386,1.3462112,8.345,66.64965,1675903287916,,,4257798531728422,1.1915193,Walk
Fix,FLP,37.4226515,-122.1663496,10.114417594151291,1.3741194,8.506,66.77872,1675903288459,,,4257799074275113,1.5015712,Walk
Fix,FLP,37.4226554,-122.1663397,10.114417594151291,1.3893197,8.648,66.83397,1675903289000,,,4257799616813504,1.5015712,Walk
Fix,GPS,37.4226757507,-122.1663400432,16.8621979946663,1.6683867,6.0789227,72.78574,1675903286999,0.31548846,15.342415,4257799589977000,5.8094645,Walk
Fix,FLP,37.4226598,-122.1663281,10.234355502492036,1.4123393,8.829,67.01399,1675903289551,,,4257800167000001,1.3881396,Walk
Fix,GPS,37.4226804836,-122.1663257361,16.981072262855328,1.6327546,6.0988646,76.252045,1675903287999,0.32815886,17.384424,4257800590072000,5.834571,Walk
Fix,FLP,37.4226624,-122.1663213,9.974169226956462,1.4306756,8.996,67.17868,1675903290086,,,4257800701887845,1.4036016,Walk
Fix,NLP,37.4219559,-122.165563,-2.299999713897705,,92.9,,1675903290074,,,4257800689000000,11.862891,Walk
Fix,FLP,37.4226676,-122.1663051,9.705200098618915,1.4546531,9.351,67.45584,1675903290628,,,4257801244423245,1.5187297,Walk
Fix,GPS,37.4226868694,-122.1663109789,16.98080828289632,1.6060534,6.236989,82.74875,1675903288999,0.33857116,21.269127,4257801589991000,5.891034,Walk
Fix,FLP,37.4226702,-122.1662973,12.528270181383093,1.4631537,9.628,68.16884,1675903291171,,,4257801786948941,1.5104802,Walk
Fix,FLP,37.4226723,-122.1662905,12.528270181383093,1.4660498,9.615,68.693695,1675903291714,,,4257802329496975,1.5104802,Walk
Fix,GPS,37.422692156,-122.1662992919,16.567109909578345,1.5597258,6.3977666,63.928387,1675903289999,0.3408159,17.730106,4257802590024000,5.966022,Walk
Fix,FLP,37.4226749,-122.1662824,9.263154399430192,1.4727465,9.581,68.88079,1675903292257,,,4257802872032193,1.576921,Walk
Fix,FLP,37.4226778,-122.1662738,9.263154399430192,1.4773409,9.579,68.62129,1675903292798,,,4257803414566128,1.576921,Walk
Fix,GPS,37.4227066866,-122.1662840345,16.513209036871398,1.5856936,6.419278,41.79569,1675903290999,0.32319835,18.931408,4257803590243000,6.011396,Walk
Fix,FLP,37.4226828,-122.1662657,5.871538580593068,1.4779053,9.583,67.29032,1675903293342,,,4257803957102261,1.2391372,Walk
Fix,FLP,37.4226881,-122.1662584,5.871538580593068,1.4762563,9.616,66.20449,1675903293857,,,4257804472000000,1.2391372,Walk
Fix,GPS,37.422721163,-122.1662699298,16.67956782081711,1.6000066,6.37824,44.03703,1675903291999,0.2983547,26.090775,4257804590291000,6.028033,Walk
Fix,FLP,37.4226988,-122.1662452,8.69282330147577,1.4756511,9.735,63.445004,1675903294426,,,4257805042174832,1.1929591,Walk
Fix,GPS,37.4227308462,-122.1662567158,16.506470246046767,1.5767083,6.3559957,53.419968,1675903292999,0.29312155,26.854612,4257805590256000,6.023785,Walk
Fix,FLP,37.4227021,-122.1662415,8.69282330147577,1.4804078,9.85,62.744087,1675903294968,,,4257805584704617,1.2004983,Walk
Fix,FLP,37.4227097,-122.1662292,8.69282330147577,1.4879675,10.0,61.762093,1675903295511,,,4257806127239773,1.2004983,Walk
Fix,GPS,37.4227398566,-122.1662452581,16.222394358892622,1.540422,6.3135824,63.226284,1675903293999,0.29948303,35.126698,4257806590135000,5.99962,Walk
Fix,FLP,37.4227124,-122.166225,10.513748905425544,1.4931228,10.093,61.45611,1675903296054,,,4257806669775418,1.1901594,Walk
Fix,FLP,37.4227184,-122.1662135,10.513748905425544,1.49843,10.151,61.16393,1675903296596,,,4257807212300320,1.1901594,Walk
Fix,GPS,37.4227499713,-122.1662325679,16.1363995244827,1.5195199,6.269806,62.398724,1675903294999,0.28324693,26.982422,4257807590096000,5.97253,Walk
Fix,FLP,37.4227216,-122.1662081,10.513748905425544,1.4986969,10.208,61.09713,1675903297138,,,4257807754838833,1.1937329,Walk
Fix,FLP,37.4227248,-122.1662019,10.513748905425544,1.4991508,10.223,61.0491,1675903297682,,,4257808297364468,1.1937329,Walk
Fix,GPS,37.4227544408,-122.1662274466,16.31277224319821,1.3610313,6.1629868,62.398724,1675903295999,0.30891085,52.501827,4257808590090000,5.770664,Walk
Fix,FLP,37.4227276,-122.1661978,13.854048760818642,1.4909525,10.278,60.99765,1675903298212,,,4257808828000000,1.454459,Walk
Fix,GPS,37.4227618027,-122.1662212354,16.619437738013144,1.2835157,6.1097817,75.526794,1675903296999,0.2865729,38.376186,4257809590108000,5.673644,Walk
Fix,FLP,37.4227312,-122.1661913,13.734110852477896,1.4756004,10.325,60.965607,1675903298767,,,4257809382436001,1.4803767,Walk
Fix,FLP,37.422735,-122.1661849,13.734110852477896,1.4561588,10.377,61.547062,1675903299309,,,4257809924969693,1.4803767,Walk
Fix,GPS,37.4227682119,-122.166212383,16.534020443244103,1.2202638,6.140338,75.526794,1675903297999,0.3081667,91.75583,4257810590152000,5.619299,Walk
Fix,FLP,37.4227372,-122.1661806,7.583625013116773,1.4467441,10.436,61.980026,1675903299852,,,4257810467508694,1.4966954,Walk
Fix,FLP,37.4227417,-122.1661703,7.583625013116773,1.4297447,10.336,62.65095,1675903300395,,,4257811010022793,1.4966954,Walk
Fix,GPS,37.4227773011,-122.1662015357,16.621089511870068,0.46934742,6.1157413,56.151985,1675903298999,0.30212566,30.3785,4257811590169000,5.5540524,Walk
Fix,FLP,37.4227446,-122.1661626,7.703562921457518,1.4229182,10.159,63.00984,1675903300936,,,4257811552567533,1.4996097,Walk
Fix,FLP,37.4227477,-122.1661508,7.703562921457518,1.3617038,9.79,65.00592,1675903301480,,,4257812095098539,1.4996097,Walk
Fix,GPS,37.422784919,-122.1661871624,16.575524862235714,0.6307648,6.1761265,43.20944,1675903299999,0.28972048,18.68167,4257812590198000,5.5400763,Walk
Fix,FLP,37.42275,-122.1661417,7.703562921457518,1.3141694,9.558,66.59221,1675903302022,,,4257812637621426,1.4996097,Walk
Fix,FLP,37.4227523,-122.1661311,7.583625013116773,1.2455757,9.166,68.20931,1675903302554,,,4257813169000000,1.5182804,Walk
Fix,GPS,37.4227952517,-122.1661699194,16.26084559520398,1.1435755,6.205641,44.238785,1675903300999,0.28384757,16.055582,4257813590182000,5.512466,Walk
Fix,FLP,37.422756,-122.1661205,15.448737982076182,1.1876119,8.384,68.65225,1675903303092,,,4257813708180508,1.5884124,Walk
Fix,FLP,37.4227579,-122.1661126,15.448737982076182,1.1874399,7.904,68.47935,1675903303650,,,4257814265214688,1.5884124,Walk
Fix,GPS,37.4228072276,-122.1661537739,16.164963571219808,1.362202,6.170081,58.411503,1675903301999,0.29403415,17.919964,4257814590213000,5.4938006,Walk
Fix,FLP,37.42276,-122.1661047,15.448737982076182,1.1935289,7.433,68.01384,1675903304192,,,4257814807757535,1.5505171,Walk
Fix,FLP,37.4227631,-122.1660964,15.448737982076182,1.2021929,6.845,67.711205,1675903304735,,,4257815350287564,1.5505171,Walk
Fix,GPS,37.4228153192,-122.1661304431,16.49651869907077,1.5501709,6.167592,59.64589,1675903302999,0.30585688,17.272957,4257815590237000,5.4829226,Walk
Fix,FLP,37.4227671,-122.1660879,15.29970676207938,1.2228303,6.379,67.10382,1675903305277,,,4257815892819607,1.3319218,Walk
Fix,NLP,37.4220608,-122.1653656,-2.299999713897705,,82.5,,1675903305880,,,4257816495000000,7.690321,Walk
Fix,FLP,37.422771,-122.1660796,18.1873546055604,1.2378637,6.223,66.71304,1675903305820,,,4257816435349270,1.1765592,Walk
Fix,GPS,37.4228216443,-122.1661038283,16.497466260826517,1.7005205,6.123905,61.01942,1675903303999,0.32165894,18.582075,4257816590212000,5.4850435,Walk
Fix,FLP,37.4227765,-122.1660718,15.038850723890206,1.2738104,6.196,65.760086,1675903306362,,,4257816977880826,1.1866586,Walk
Fix,FLP,37.4227808,-122.1660664,15.038850723890206,1.2876626,6.462,65.455215,1675903306913,,,4257817528000000,1.1866586,Walk
Fix,GPS,37.4228268416,-122.1660826476,16.748602798346027,1.7091422,6.08106,71.25601,1675903304999,0.312074,15.299083,4257817590232000,5.4872894,Walk
Fix,FLP,37.4227918,-122.1660563,14.617757089806524,1.3275114,7.205,64.9805,1675903307447,,,4257818062941556,1.192903,Walk
Fix,GPS,37.4228311375,-122.1660621024,17.01110615193196,1.7031997,6.101575,66.75214,1675903305999,0.30439717,14.740836,4257818590259000,5.513253,Walk
Fix,FLP,37.4227948,-122.166054,14.88672621814407,1.3428719,7.458,65.07746,1675903307990,,,4257818605470608,1.491129,Walk
Fix,FLP,37.4228032,-122.1660398,14.88672621814407,1.3709174,8.039,65.01522,1675903308532,,,4257819148002041,1.491129,Walk
Fix,GPS,37.422836614,-122.1660433152,17.085762015913435,1.6821594,6.125532,62.474422,1675903306999,0.3111386,14.961202,4257819590415000,5.5406723,Walk
Fix,FLP,37.4228119,-122.1660338,11.560023223409516,1.3953538,8.656,64.509125,1675903309074,,,4257819690514859,1.6216109,Walk
Fix,FLP,37.4228163,-122.1660243,11.560023223409516,1.4079338,9.0,64.40842,1675903309618,,,4257820233058865,1.6216109,Walk
Fix,GPS,37.4228416368,-122.1660276753,17.07912621635274,1.63065,6.2153587,57.63268,1675903307999,0.33717984,14.458513,4257820590497000,5.5949464,Walk
Fix,FLP,37.4228203,-122.1660162,8.130612503543716,1.4275916,9.697,64.02571,1675903310159,,,4257820775590237,1.6150006,Walk
Fix,FLP,37.422824,-122.1660075,8.130612503543716,1.436866,10.117,63.815094,1675903310702,,,4257821318112210,1.6150006,Walk
Fix,NLP,37.4221772,-122.165494,0.4000000059604645,,122.4,,1675903310904,,,4257821519000000,34.807808,Walk
Fix,GPS,37.422847943,-122.16601021,16.670781720858884,1.6175859,6.303473,61.600418,1675903308999,0.3362606,15.635961,4257821590278000,5.6483226,Walk
Fix,FLP,37.422829,-122.165998,8.423583815310423,1.4597356,11.287,63.27703,1675903311245,,,4257821860649380,1.5983219,Walk
Fix,FLP,37.4228334,-122.1659891,8.423583815310423,1.4677324,11.294,63.07212,1675903311768,,,4257822383000001,1.5983219,Walk
Fix,GPS,37.4228569062,-122.165987617,16.298002891271896,1.6733441,6.157709,62.302486,1675903309999,0.3233627,12.231277,4257822590345000,5.6747556,Walk
Fix,FLP,37.422842,-122.1659721,8.423583815310423,1.4881548,11.231,62.74575,1675903312330,,,4257822945707730,1.4744321,Walk
Fix,GPS,37.4228684524,-122.1659648213,16.488277392326612,1.7368665,6.037979,64.13938,1675903310999,0.33124152,12.352824,4257823590570000,5.673775,Walk
Fix,FLP,37.4228443,-122.1659669,13.704289931716636,1.4971839,11.269,62.834576,1675903312873,,,4257823488237698,1.4016123,Walk
Fix,FLP,37.4228515,-122.1659521,13.704289931716636,1.5152595,11.161,62.89027,1675903313414,,,4257824030765591,1.4016123,Walk
Fix,GPS,37.4228755715,-122.1659445141,16.649076393826483,1.7446198,6.0118465,68.35445,1675903311999,0.32484978,13.777402,4257824590333000,5.669378,Walk
Fix,FLP,37.4228544,-122.1659464,12.52417354467935,1.5265117,11.058,62.816204,1675903313958,,,4257824573292447,1.1844866,Walk
Fix,FLP,37.4228616,-122.1659327,12.52417354467935,1.5445875,10.874,62.865604,1675903314500,,,4257825115822903,1.1844866,Walk
Fix,GPS,37.4228831895,-122.1659298333,16.611774014509674,1.7104856,5.9542813,70.53994,1675903312999,0.30041102,13.777732,4257825590380000,5.6524286,Walk
Fix,FLP,37.4228648,-122.1659266,12.66011859942622,1.5542611,10.776,62.950333,1675903315043,,,4257825658352444,1.1944724,Walk
Fix,FLP,37.4228708,-122.1659154,12.66011859942622,1.5667826,10.578,63.17515,1675903315584,,,4257826200867581,1.1944724,Walk
Fix,GPS,37.4228889378,-122.1659157296,16.482124927290563,1.668647,5.988332,74.294266,1675903313999,0.29186997,13.676291,4257826590455000,5.6415215,Walk
Fix,FLP,37.4228764,-122.1659096,11.019827209049154,1.5729166,10.299,63.65111,1675903316092,,,4257826708180508,1.2332996,Walk
Fix,FLP,37.4228789,-122.1659007,11.019827209049154,1.5753807,10.22,64.11808,1675903316652,,,4257827267000000,1.2332996,Walk
Fix,GPS,37.4228916549,-122.1659010251,16.362213065143216,1.6274673,5.8574142,66.17204,1675903314999,0.28360057,13.812947,4257827590421000,5.5808177,Walk
Fix,FLP,37.4228821,-122.1658854,12.140149523486045,1.5762353,9.951,65.11162,1675903317213,,,4257827828463100,1.3026233,Walk
Fix,GPS,37.4228998218,-122.165886629,15.998049537802922,1.6104007,5.726983,64.298904,1675903315999,0.28950253,14.196029,4257828590430000,5.4990025,Walk
Fix,FLP,37.4228836,-122.1658785,12.140149523486045,1.576749,9.915,65.26461,1675903317755,,,4257828370982510,1.3026233,Walk
Fix,FLP,37.4228853,-122.1658713,12.140149523486045,1.5752535,9.902,65.38307,1675903318298,,,4257828913520962,1.2942206,Walk
Fix,FLP,37.4228872,-122.1658658,12.140149523486045,1.5744056,9.934,65.494545,1675903318841,,,4257829456035733,1.2942206,Walk
Fix,GPS,37.4229050302,-122.1658725705,15.527480155892045,1.5838404,5.7110267,67.512856,1675903316999,0.2817149,11.691422,4257829590446000,5.4660735,Walk
Fix,FLP,37.4228893,-122.1658566,14.970167749034369,1.5741614,9.961,65.706215,1675903319383,,,4257829998576382,1.3066953,Walk
Fix,FLP,37.4228911,-122.1658486,14.970167749034369,1.5749838,10.055,65.88644,1675903319926,,,4257830541102688,1.3167053,Walk
Fix,GPS,37.4229082271,-122.1658584715,15.189416226373336,1.5528723,5.7368493,78.3605,1675903317999,0.28217816,14.042602,4257830590467000,5.4065466,Walk
Fix,FLP,37.4228931,-122.1658389,15.194554522458397,1.5719167,10.046,66.43843,1675903320467,,,4257831083631315,1.5859877,Walk
Fix,FLP,37.4228948,-122.1658317,15.194554522458397,1.5704503,9.985,66.72105,1675903320995,,,4257831610000001,1.5859877,Walk
Fix,GPS,37.4229123725,-122.1658437017,14.909042883072155,1.5308516,5.849911,74.29996,1675903318999,0.3090322,15.261127,4257831590456000,5.4432883,Walk
Fix,FLP,37.4228972,-122.1658222,12.531807821415008,1.5665948,9.878,67.10006,1675903321553,,,4257832168684841,1.6876493,Walk
Fix,GPS,37.4229176913,-122.1658315601,14.55119833251811,1.4958174,5.961907,82.2868,1675903319999,0.31041792,19.052689,4257832590504000,5.4816656,Walk
Fix,FLP,37.4229034,-122.1658131,10.019378273882936,1.5514988,9.85,67.85099,1675903322092,,,4257832708180508,2.4788144,Walk
Fix,FLP,37.422905,-122.1658058,10.019378273882936,1.5457189,9.858,68.44511,1675903322638,,,4257833253731046,2.4788144,Walk
Fix,GPS,37.4229195783,-122.1658187701,14.523992042598586,1.4559616,6.0814085,78.35591,1675903320999,0.31098005,19.63743,4257833590488000,5.518037,Walk
Fix,FLP,37.4229058,-122.1658005,8.129097161084985,1.5327616,9.859,69.29817,1675903323181,,,4257833796264859,1.9085836,Walk
Fix,FLP,37.4229072,-122.1657942,8.129097161084985,1.5264035,9.836,69.602905,1675903323723,,,4257834338792874,1.9085836,Walk
Fix,GPS,37.4229250591,-122.1658059805,14.346487717414565,1.4307494,6.106015,78.94493,1675903321999,0.306426,16.850588,4257834590505000,5.5513024,Walk
Fix,FLP,37.4229074,-122.1657862,8.129097161084985,1.5191952,9.647,70.079765,1675903324265,,,4257834881318509,1.8066727,Walk
Fix,FLP,37.422909,-122.1657762,8.129097161084985,1.5179588,9.463,70.320724,1675903324807,,,4257835423836393,1.8066727,Walk
Fix,GPS,37.4229280237,-122.165790472,14.01987171243979,1.4174585,6.1385694,74.85303,1675903322999,0.31867346,17.22257,4257835590528000,5.5661883,Walk
Fix,FLP,37.4229103,-122.1657654,8.129097161084985,1.5126411,9.003,70.72933,1675903325351,,,4257835966371487,1.7321274,Walk
Fix,FLP,37.4229122,-122.1657555,8.129097161084985,1.5105433,8.807,71.0383,1675903325874,,,4257836489000000,1.7321274,Walk
Fix,GPS,37.4229286675,-122.1657759435,13.861999276278915,1.3960428,6.15837,78.28216,1675903323999,0.30788606,16.900894,4257836590539000,5.5555115,Walk
Fix,FLP,37.4229146,-122.1657412,8.242748599314325,1.4958422,8.115,71.76062,1675903326436,,,4257837051423794,1.7402976,Walk
Fix,GPS,37.4229293496,-122.1657614177,13.868267759961258,1.3744094,6.21325,86.15102,1675903324999,0.29496947,19.541016,4257837590643000,5.5523143,Walk
Fix,FLP,37.4229154,-122.1657368,9.937093886228496,1.4943714,7.845,71.94053,1675903326977,,,4257837593952054,1.401907,Walk
Fix,FLP,37.4229183,-122.1657233,9.937093886228496,1.48586,7.243,72.087006,1675903327521,,,4257838136476957,1.401907,Walk
Fix,GPS,37.422929723,-122.1657498091,13.822126713818694,1.3331654,6.262743,92.652336,1675903325999,0.29905522,23.31265,4257838590653000,5.559553,Walk
Fix,FLP,37.4229195,-122.1657181,11.582257295637874,1.4850014,6.75,72.041725,1675903328064,,,4257838679004545,1.4428494,Walk
Fix,FLP,37.4229229,-122.1657045,11.582257295637874,1.4760197,6.346,71.88086,1675903328606,,,4257839221529995,1.4428494,Walk
Fix,GPS,37.4229340563,-122.1657349863,13.742306887063648,1.3222055,6.282036,92.54056,1675903326999,0.2983509,23.593012,4257839590648000,5.5660825,Walk
Fix,FLP,37.4229254,-122.1656972,11.582257295637874,1.464394,5.704,71.71357,1675903329149,,,4257839764057034,1.4550948,Walk
Fix,FLP,37.4229277,-122.1656886,11.582257295637874,1.4604949,5.563,71.65243,1675903329690,,,4257840306572965,1.4550948,Walk
Fix,NLP,37.4230184,-122.1655854,-0.8999999761581421,,28.574,,1675903329899,,,4257840514000000,12.509844,Walk
Fix,GPS,37.4229372502,-122.1657225707,13.706462309108725,1.2934685,6.2929273,93.88794,1675903327999,0.3031978,23.678396,4257840590581000,5.5813813,Walk
Fix,FLP,37.4229304,-122.1656789,11.582257295637874,1.4470176,5.221,71.38164,1675903330234,,,4257840849108976,1.1974989,Walk
Fix,FLP,37.4229335,-122.1656691,11.582257295637874,1.4445419,5.17,71.19966,1675903330776,,,4257841391633877,1.1974989,Walk
Fix,GPS,37.4229380685,-122.1657135912,13.880275994817806,1.2424794,6.333136,87.6229,1675903328999,0.33598128,20.219143,4257841590849000,5.6137385,Walk
Fix,FLP,37.4229364,-122.1656581,10.46860430069158,1.4346577,5.043,70.88306,1675903331318,,,4257841934160794,1.5183946,Walk
Fix,GPS,37.4229460303,-122.1656968202,14.1400898534749,1.2680821,6.273078,79.31541,1675903329999,0.2970256,17.658104,4257842590724000,5.61123,Walk
Fix,FLP,37.4229388,-122.165648,12.187652917788128,1.4213485,4.964,70.6092,1675903331861,,,4257842476685209,1.503258,Walk
Fix,FLP,37.422942,-122.165635,12.187652917788128,1.4100372,4.984,70.39635,1675903332404,,,4257843019212309,1.503258,Walk
Fix,GPS,37.4229539196,-122.1656767141,14.057462279601852,1.3119522,6.212019,72.755394,1675903330999,0.31597897,16.894957,4257843590749000,5.6104245,Walk
