Fix,Provider,LatitudeDegrees,LongitudeDegrees,AltitudeMeters,SpeedMps,AccuracyMeters,BearingDegrees,UnixTimeMillis,SpeedAccuracyMps,BearingAccuracyDegrees,elapsedRealtimeNanos,VerticalAccuracyMeters,TransitType
Fix,FLP,37.4217368,-122.1591247,-8.5,0.98861116,11.994,279.4074,1678497355065,,,1932169942557418,1.7562869,Walk
Fix,FLP,37.4217378,-122.1591291,-8.5,1.0297039,12.03,286.57416,1678497355571,,,1932170448991500,1.7562869,Walk
Fix,GPS,37.4217472263,-122.1591456733,-11.258081600672783,1.1095526,8.787318,330.7587,1678497353000,0.55335623,20.432228,1932170520597000,11.56057,Walk
Fix,FLP,37.4217398,-122.1591355,-8.5,1.0675703,12.016,293.3465,1678497356078,,,1932170955418563,1.6504936,Walk
Fix,GPS,37.42175747,-122.1591553151,-8.373748328748235,1.1409369,8.773851,311.24466,1678497354000,0.53012407,27.045113,1932171520584000,11.345426,Walk
Fix,FLP,37.4217414,-122.1591393,-8.5,1.0822852,12.047,296.2073,1678497356584,,,1932171461863570,1.6504936,Walk
Fix,GPS,37.4217688964,-122.1591653904,-5.250763223762668,1.173407,8.911264,302.381,1678497355000,0.87634367,39.319878,1932172520602000,11.23982,Walk
Fix,FLP,37.421746,-122.159153,-8.5,1.1017557,11.916,297.0297,1678497357597,,,1932172474746200,1.697689,Walk
Fix,FLP,37.4217491,-122.159167,-8.5,1.1199954,11.714,287.50638,1678497358104,,,1932172981188155,1.697689,Walk
Fix,GPS,37.4217779729,-122.1591735226,-2.7006848409763955,1.1742436,9.1701,302.381,1678497356000,0.89818335,180.0,1932173520662000,11.191264,Walk
Fix,FLP,37.4217492,-122.1591686,-8.5,1.1394987,11.688,285.8927,1678497358610,,,1932173487628708,1.6917272,Walk
Fix,NLP,37.421782,-122.1591546,-8.5,,15.475,,1678497354691,,,1932169568000000,3.337619,Walk
Fix,FLP,37.4217527,-122.1591792,-8.5,1.0847758,11.672,292.16736,1678497359117,,,1932173994076278,1.6917272,Walk
Fix,GPS,37.4217867991,-122.1591852863,-0.8900209092159996,1.1971655,9.468643,292.72794,1678497357000,0.8526142,41.01544,1932174520645000,11.136129,Walk
Fix,FLP,37.4217539,-122.1591795,-8.5,1.0576146,11.674,297.58377,1678497359623,,,1932174500527389,1.7017071,Walk
Fix,FLP,37.4217598,-122.1591875,-8.5,1.0563327,11.729,304.30264,1678497360128,,,1932175006968612,1.7017071,Walk
Fix,GPS,37.4218053872,-122.159197633,1.051685726367375,1.295669,9.715633,326.53506,1678497358000,0.78713286,23.679893,1932175520645000,11.067118,Walk
Fix,FLP,37.4217641,-122.1591916,-12.7107340493286,1.0728381,11.843,308.13608,1678497360920,,,1932175797861906,1.7106972,Walk
Fix,GPS,37.4218222339,-122.1592082695,3.2700107215045846,1.3582016,9.868355,319.47882,1678497359000,0.7988833,32.389534,1932176520662000,10.931306,Walk
Fix,FLP,37.4217721,-122.1592003,-11.494632111142543,1.0926782,12.205,311.84796,1678497361920,,,1932176797861906,1.7206972,Walk
Fix,GPS,37.4218357012,-122.1592219448,5.0019502332410415,1.3974638,9.988241,315.9624,1678497360000,0.76989853,32.709866,1932177520716000,10.81522,Walk
Fix,FLP,37.4217816,-122.1592099,-11.494632111142543,1.1079488,12.939,314.53745,1678497362920,,,1932177797861906,1.7316972,Walk
Fix,FLP,37.421787,-122.1592156,-11.494632111142543,1.1140852,13.46,315.284,1678497363716,,,1932178593000000,1.7316972,Walk
Fix,GPS,37.4218456107,-122.1592310737,6.244055882727091,1.3909822,10.060135,308.61072,1678497361000,0.7158899,28.597284,1932178520717000,10.695459,Walk
Fix,GPS,37.4218592778,-122.159241808,8.21786927483586,1.4115517,10.029774,308.61072,1678497362000,0.6333864,49.647087,1932179520739000,10.562466,Walk
Fix,FLP,37.4218002,-122.1592076,-2.679693673245218,1.1572894,13.93,314.7915,1678497364643,,,1932179520739000,1.7506971,Walk
Fix,NLP,37.4218656,-122.1593795,-8.100000381469727,,17.678,,1678497365066,,,1932179943000000,1.0,Walk
Fix,FLP,37.4218061,-122.1592134,-2.679693673245218,1.1215181,14.931,318.70728,1678497365066,,,1932179943000000,1.6400837,Walk
Fix,FLP,37.4218161,-122.1592244,-2.679693673245218,1.101121,16.912,322.3509,1678497365628,,,1932180505579130,1.6400837,Walk
Fix,GPS,37.4218727057,-122.1592499916,9.20714919240587,1.4186611,9.965566,328.41147,1678497363000,0.6162018,36.19596,1932180520774000,10.426597,Walk
Fix,FLP,37.4218265,-122.1592354,-4.313560287641593,1.1090075,18.271,324.56836,1678497366171,,,1932181048200162,1.6460637,Walk
Fix,GPS,37.4218845903,-122.1592612525,10.814654654986882,1.4210935,9.898175,328.41147,1678497364000,0.5916077,30.806261,1932181520747000,10.30032,Walk
Fix,FLP,37.4218325,-122.1592404,0.4635604187672797,1.1142284,19.391,326.5573,1678497366713,,,1932181590832242,1.6584437,Walk
Fix,FLP,37.4218442,-122.1592488,0.4635604187672797,1.1198213,20.33,330.78604,1678497367256,,,1932182133446318,1.6584437,Walk
Fix,GPS,37.4218944345,-122.1592741671,12.91640991274166,1.4155811,9.545879,328.41147,1678497365000,0.5821117,23.14523,1932182520810000,10.161111,Walk
Fix,FLP,37.421855,-122.1592548,2.386634968524838,1.1198006,21.374,335.49048,1678497367799,,,1932182676087919,1.6676062,Walk
Fix,FLP,37.4218617,-122.1592577,2.386634968524838,1.1134027,21.834,338.34937,1678497368341,,,1932183218714383,1.6676062,Walk
Fix,GPS,37.4219074303,-122.1592892026,14.789991144733309,1.4385909,9.390739,328.41147,1678497366000,0.6333682,32.929413,1932183520992000,10.064879,Walk
Fix,FLP,37.4218704,-122.1592603,0.4635604187672797,1.0970665,22.738,343.8159,1678497368884,,,1932183761342496,1.7148843,Walk
Fix,FLP,37.4218766,-122.1592621,0.4635604187672797,1.0824534,23.28,346.65033,1678497369426,,,1932184303967923,1.7148843,Walk
Fix,GPS,37.4219195988,-122.1592982323,16.220853091892838,1.4305143,9.2766075,11.036598,1678497367000,0.52861696,34.026012,1932184520829000,9.977722,Walk
Fix,FLP,37.4218845,-122.1592642,-2.04305006152898,1.0665783,24.107,351.93243,1678497369969,,,1932184846597501,1.6886263,Walk
Fix,NLP,37.4219329,-122.1594013,-8.5,,27.803,,1678497370083,,,1932184961000000,1.3085977,Walk
Fix,FLP,37.4218931,-122.1592716,-1.7441590297160658,1.0679227,23.444,354.0437,1678497370512,,,1932185389220060,1.6685612,Walk
Fix,GPS,37.4219319467,-122.1593030837,17.081513390461083,1.4121301,9.030586,11.036598,1678497368000,0.5217386,99.168594,1932185520805000,9.854926,Walk
Fix,FLP,37.4219032,-122.1592817,-1.7441590297160658,1.0861168,22.383,354.56332,1678497371054,,,1932185931834684,1.6396537,Walk
Fix,FLP,37.4219097,-122.1592862,-1.7441590297160658,1.1017399,22.054,354.5331,1678497371597,,,1932186474469938,1.6396537,Walk
Fix,GPS,37.4219445083,-122.1593091862,18.23432338944925,1.3994067,8.950554,11.036598,1678497369000,0.5384502,15.119447,1932186521049000,9.75506,Walk
Fix,FLP,37.4219197,-122.1592939,-1.7441590297160658,1.1297705,21.27,353.95166,1678497372139,,,1932187017095243,1.6855178,Walk
Fix,FLP,37.4219263,-122.159298,-1.7441590297160658,1.1427845,20.879,353.09964,1678497372682,,,1932187559717740,1.6855178,Walk
Fix,GPS,37.4219557997,-122.1593142988,18.879459537647406,1.3794777,9.010047,330.75897,1678497370000,0.66843486,30.24728,1932187520879000,9.669628,Walk
Fix,FLP,37.4219362,-122.1593049,0.7886501221445741,1.165916,20.631,351.69122,1678497373225,,,1932188102341764,1.6605458,Walk
Fix,FLP,37.4219425,-122.1593084,0.7886501221445741,1.1767124,20.289,351.11044,1678497373760,,,1932188637000000,1.6605458,Walk
Fix,GPS,37.4219646241,-122.1593293096,18.93464534014709,1.3864105,8.966101,327.45447,1678497371000,0.53845227,28.780952,1932188520898000,9.53611,Walk
Fix,FLP,37.4219527,-122.1593151,0.7886501221445741,1.1965163,20.141,349.87512,1678497374310,,,1932189187576139,1.7054977,Walk
Fix,GPS,37.4219708849,-122.1593373797,19.5491452071748,1.342807,9.045863,314.0069,1678497372000,0.57477057,38.012577,1932189520910000,9.429533,Walk
Fix,FLP,37.4219602,-122.1593215,-3.081921270780249,1.2128701,19.758,348.4979,1678497374833,,,1932189710000000,1.6796737,Walk
Fix,NLP,37.4219533,-122.1593956,-8.200000762939453,,36.056,,1678497374926,,,1932189803000000,1.1491759,Walk
Fix,FLP,37.4219684,-122.1593291,-1.7415999855289996,1.22142,19.423,347.74414,1678497375396,,,1932190274000000,1.6583031,Walk
Fix,GPS,37.4219813506,-122.1593452416,20.621235814406,1.331396,9.057601,314.9114,1678497373000,0.59317976,32.21464,1932190520937000,9.333493,Walk
Fix,FLP,37.4219754,-122.1593376,-1.7415999855289996,1.2272025,19.325,346.53467,1678497375901,,,1932190778000000,1.6299149,Walk
Fix,FLP,37.4219824,-122.1593435,-1.7415999855289996,1.2315023,19.317,345.41852,1678497376462,,,1932191339000000,1.6299149,Walk
Fix,GPS,37.4219897535,-122.1593536353,21.403216744618224,1.3154496,9.271914,316.20477,1678497374000,0.66064405,23.433292,1932191521259000,9.296037,Walk
Fix,FLP,37.4219897,-122.1593526,-2.6546177821216403,1.2386615,19.182,343.41214,1678497377012,,,1932191889000000,1.6399049,Walk
Fix,FLP,37.4219961,-122.1593582,-2.6546177821216403,1.2417301,19.184,342.4227,1678497377555,,,1932192432000000,1.6399049,Walk
Fix,GPS,37.4220027202,-122.1593648903,22.088307750283068,1.3404979,9.461739,303.38742,1678497375000,0.75007904,36.6161,1932192521179000,9.2738,Walk
Fix,FLP,37.422009,-122.1593716,-0.018675608925406,1.2508845,18.982,339.83337,1678497378660,,,1932193537000000,1.6510642,Walk
Fix,GPS,37.4220114717,-122.1593775929,22.380585502308783,1.3397477,9.506582,303.38742,1678497376000,0.7149875,10.0,1932193520965000,9.258987,Walk
Fix,FLP,37.4220205,-122.1593842,-0.018675608925406,1.2611773,18.782,337.6083,1678497379194,,,1932194071149381,1.6622759,Walk
Fix,GPS,37.4220198005,-122.1593848838,23.06518840235487,1.3140371,9.671865,312.64963,1678497377000,0.7537462,34.09334,1932194520968000,9.25369,Walk
Fix,FLP,37.422021,-122.1593864,2.2422355859226144,1.2655824,18.809,337.10873,1678497379736,,,1932194613765714,1.7077242,Walk
Fix,NLP,37.4221535,-122.1595406,-8.200000762939453,,24.446,,1678497379874,,,1932194751000000,3.0823576,Walk
Fix,FLP,37.4220353,-122.1594038,0.5229459509609029,1.2782592,18.605,336.0169,1678497380279,,,1932195156378812,1.6210667,Walk
Fix,GPS,37.4220335715,-122.1593973894,23.60335641616889,1.3492591,9.645585,314.66037,1678497378000,0.594705,30.332853,1932195520997000,9.211853,Walk
Fix,FLP,37.4220379,-122.1594098,0.5229459509609029,1.2833681,18.428,335.87115,1678497380821,,,1932195698993741,1.6285847,Walk
Fix,FLP,37.422053,-122.1594271,0.5229459509609029,1.2929333,18.064,334.92148,1678497381364,,,1932196241595914,1.6285847,Walk
Fix,GPS,37.4220442653,-122.1594074517,23.7173086313555,1.3567257,9.715887,309.88446,1678497379000,0.6424574,23.828688,1932196521024000,9.165278,Walk
Fix,FLP,37.4220618,-122.1594388,0.6473497543871076,1.3020009,17.754,333.65195,1678497381907,,,1932196784219571,1.6757293,Walk
Fix,GPS,37.4220573851,-122.1594217132,24.62377137379256,1.3901684,9.704649,309.88446,1678497380000,0.64626616,19.705366,1932197521018000,9.115857,Walk
Fix,FLP,37.4220662,-122.1594444,0.6473497543871076,1.3071595,17.564,333.25226,1678497382448,,,1932197326830411,1.6500182,Walk
Fix,FLP,37.4220748,-122.1594543,0.6473497543871076,1.3163463,17.169,332.78116,1678497382991,,,1932197869443204,1.6500182,Walk
Fix,GPS,37.4220730076,-122.1594304804,25.864481299830327,1.4159544,9.525817,309.88446,1678497381000,0.6299716,43.021397,1932198521027000,9.095385,Walk
Fix,FLP,37.4220787,-122.1594584,-2.04305006152898,1.3211764,16.976,332.80994,1678497383535,,,1932198412043119,1.6599282,Walk
Fix,FLP,37.4220843,-122.1594634,-2.04305006152898,1.3269966,16.764,332.85278,1678497384075,,,1932198952000000,1.6599282,Walk
Fix,GPS,37.4220824244,-122.1594377122,26.453349208642543,1.3891971,9.398361,296.26828,1678497382000,0.6803349,34.62272,1932199521011000,9.095871,Walk
Fix,FLP,37.4220916,-122.1594702,2.824456684431645,1.3361275,16.367,333.01614,1678497384620,,,1932199497273710,1.7047594,Walk
Fix,FLP,37.422101,-122.1594775,2.824456684431645,1.342014,15.823,333.27023,1678497385162,,,1932200039887357,1.7047594,Walk
Fix,GPS,37.4220941465,-122.1594531376,27.335457821034893,1.4164602,9.412315,317.81113,1678497383000,0.59108764,28.401543,1932200521041000,9.11467,Walk
Fix,FLP,37.4221038,-122.1594795,-2.04305006152898,1.3450674,15.883,333.34454,1678497385705,,,1932200582492277,1.6799382,Walk
Fix,FLP,37.4221143,-122.1594867,-2.04305006152898,1.3508431,15.997,333.23373,1678497386248,,,1932201125101957,1.6799382,Walk
Fix,GPS,37.4221020165,-122.1594593815,28.011524551059825,1.3727795,9.366047,317.81113,1678497384000,0.58230793,42.77936,1932201521089000,9.13182,Walk
Fix,FLP,37.4221161,-122.1594884,0.1113513542713988,1.3536704,16.058,332.7314,1678497386790,,,1932201667705838,1.6899382,Walk
Fix,GPS,37.4221156666,-122.1594648413,28.97718889216443,1.3733022,9.203868,317.81113,1678497385000,0.6795125,159.63255,1932202521088000,9.181232,Walk
Fix,FLP,37.422127,-122.1594968,1.63445387829546,1.3530456,16.17,331.48972,1678497387333,,,1932202210309476,1.7357093,Walk
Fix,FLP,37.422132,-122.1595011,1.63445387829546,1.3504329,16.153,330.7249,1678497387874,,,1932202752923856,1.7357093,Walk
Fix,FLP,37.4221372,-122.1595057,1.63445387829546,1.3499923,16.185,330.11328,1678497388418,,,1932203295522917,1.7357093,Walk
Fix,GPS,37.4221246401,-122.1594702653,29.409544694948615,1.336357,9.069818,317.81113,1678497386000,0.6259175,23.342459,1932203521086000,9.24468,Walk
Fix,FLP,37.4221428,-122.1595111,0.4886456357835342,1.3485295,16.162,329.15564,1678497388920,,,1932203797861906,1.7099283,Walk
Fix,FLP,37.4221478,-122.1595154,0.4886456357835342,1.3484752,16.155,328.9501,1678497389502,,,1932204380744352,1.7099283,Walk
Fix,GPS,37.4221262326,-122.1594787386,29.8087259920606,1.2761657,8.975796,317.81113,1678497387000,0.62077224,56.911736,1932204521342000,9.302632,Walk
Fix,NLP,37.4221086,-122.1595791,-8.200000762939453,,20.003,,1678497389984,,,1932204861000000,1.4332104,Walk
Fix,FLP,37.4221516,-122.1595192,1.610389284610072,1.3458297,16.051,328.7334,1678497390045,,,1932204923348966,1.6482719,Walk
Fix,FLP,37.4221568,-122.1595295,1.610389284610072,1.3419974,15.656,328.49683,1678497390588,,,1932205465952420,1.6482719,Walk
Fix,GPS,37.4221288142,-122.1594836261,30.2883096907632,1.1480986,8.838402,317.81113,1678497388000,0.61868876,180.0,1932205521132000,9.355218,Walk
Fix,FLP,37.42216,-122.1595402,0.4886456357835342,1.3304737,15.161,327.9241,1678497391131,,,1932206008559171,1.6562419,Walk
Fix,FLP,37.4221631,-122.1595463,0.4886456357835342,1.3204664,14.824,327.45084,1678497391673,,,1932206551153837,1.6562419,Walk
Fix,GPS,37.4221331923,-122.1594890977,30.9970142880212,1.0436523,8.763114,317.81113,1678497389000,0.62126225,92.52589,1932206521142000,9.4137945,Walk
Fix,FLP,37.4221678,-122.159555,1.610389284610072,1.2969079,14.424,326.74646,1678497392216,,,1932207093768155,1.6310012,Walk
Fix,GPS,37.4221334429,-122.1594841879,31.959340894413344,0.24599132,8.809812,317.81113,1678497390000,0.623462,180.0,1932207521138000,9.470853,Walk
Fix,FLP,37.4221698,-122.1595584,1.069210026781839,1.284448,14.218,326.5513,1678497392759,,,1932207636373197,1.6408213,Walk
Fix,FLP,37.4221755,-122.1595649,1.069210026781839,1.2056527,13.959,327.45386,1678497393301,,,1932208178975675,1.6408213,Walk
Fix,GPS,37.4221389592,-122.1594859686,32.77734020896517,0.20125149,8.762678,317.81113,1678497391000,0.6221788,111.65574,1932208521230000,9.517934,Walk
Fix,FLP,37.4221779,-122.1595665,0.0760288711316761,1.0868591,13.532,330.10474,1678497393844,,,1932208721579862,1.6864544,Walk
Fix,FLP,37.4221826,-122.1595676,0.0760288711316761,1.0009912,13.387,336.05414,1678497394387,,,1932209264181730,1.6864544,Walk
Fix,GPS,37.4221474776,-122.1594854156,33.243801880448785,0.3707277,8.760552,317.81113,1678497392000,0.6085883,42.14939,1932209521117000,9.557606,Walk
Fix,FLP,37.422187,-122.1595666,1.069210026781839,0.8989824,12.907,345.83395,1678497394919,,,1932209797861906,1.6964844,Walk
Fix,NLP,37.4222044,-122.1595766,-8.200000762939453,,18.767,,1678497394997,,,1932209874000000,1.2807361,Walk
Fix,FLP,37.4221932,-122.1595663,1.069210026781839,0.87313473,12.657,349.2125,1678497395471,,,1932210349377287,1.603986,Walk
Fix,GPS,37.4221576084,-122.1594739441,33.835230386229576,0.66744626,8.882531,317.81113,1678497393000,1.0251273,157.34923,1932210521363000,9.609276,Walk
Fix,FLP,37.422199,-122.1595647,4.336268093471958,0.8517021,12.474,350.0965,1678497396014,,,1932210891978300,1.611976,Walk
Fix,FLP,37.4222043,-122.1595624,4.336268093471958,0.8235151,12.403,351.01727,1678497396557,,,1932211434590787,1.611976,Walk
Fix,GPS,37.4221754292,-122.1594642953,33.919817116243934,1.2761946,8.746228,60.487015,1678497394000,0.67443067,30.6339,1932211521322000,9.650057,Walk
Fix,FLP,37.4222095,-122.1595565,2.766079145454228,0.7952679,12.202,353.81165,1678497397100,,,1932211977193326,1.6569132,Walk
Fix,FLP,37.422215,-122.1595518,2.766079145454228,0.7949929,12.077,355.94144,1678497397642,,,1932212519793485,1.6569132,Walk
Fix,GPS,37.422195192,-122.1594583107,33.8510198219143,1.5238705,8.608315,60.487015,1678497395000,0.6144595,65.61036,1932212521242000,9.668114,Walk
Fix,FLP,37.4222207,-122.1595428,-1.944785682904289,0.8117093,11.946,359.98535,1678497398185,,,1932213062396024,1.6663135,Walk
Fix,GPS,37.422210076,-122.1594628523,34.39879784228093,1.495296,8.59645,60.487015,1678497396000,0.5207609,56.089005,1932213521225000,9.655376,Walk
Fix,FLP,37.4222246,-122.159538,-8.200000762939453,0.8357128,11.896,1.1194649,1678497398727,,,1932213604995634,1.6414924,Walk
Fix,FLP,37.4222316,-122.1595301,-8.200000762939453,0.8807989,11.808,1.8224211,1678497399270,,,1932214147594877,1.6414924,Walk
Fix,GPS,37.4222267592,-122.1594727728,35.02254794302441,1.5733001,8.567441,344.2563,1678497397000,0.576839,26.306585,1932214521279000,9.605852,Walk
Fix,FLP,37.4222351,-122.1595275,-8.200000762939453,0.9004496,11.687,0.61161834,1678497399813,,,1932214690184903,1.6514924,Walk
Fix,NLP,37.4223209,-122.1596565,-8.200000762939453,,14.721,,1678497399994,,,1932214871000000,1.0,Walk
Fix,FLP,37.4222477,-122.1595309,-4.775570518282351,0.94206697,11.521,358.11816,1678497400355,,,1932215232798185,1.601171,Walk
Fix,GPS,37.4222393059,-122.159476356,35.55703111343843,1.5120492,8.631478,343.8702,1678497398000,0.6358418,29.753735,1932215521290000,9.581903,Walk
Fix,FLP,37.4222536,-122.1595305,-8.200000762939453,0.96355665,11.657,357.22794,1678497400898,,,1932215775396818,1.48978,Walk
Fix,FLP,37.4222575,-122.1595255,-8.200000762939453,0.9813705,11.878,356.55,1678497401440,,,1932216317997342,1.48978,Walk
Fix,GPS,37.4222540507,-122.1594829854,35.9521795780527,1.520561,8.667139,336.803,1678497399000,0.6726842,33.06695,1932216521290000,9.56729,Walk
Fix,FLP,37.4222608,-122.1595174,-5.592084990281926,1.0129689,12.299,354.89984,1678497401982,,,1932216860585966,1.6181611,Walk
Fix,FLP,37.422265,-122.1595144,-5.592084990281926,1.0280474,12.519,353.88724,1678497402526,,,1932217403187528,1.6181611,Walk
Fix,GPS,37.4222658444,-122.1594885493,35.88720973471421,1.4733995,8.707128,323.42255,1678497400000,0.5915802,34.144016,1932217521485000,9.560445,Walk
Fix,FLP,37.4222698,-122.1595098,-0.9799940121870988,1.0533029,12.89,351.60406,1678497403068,,,1932217945794950,1.6045275,Walk
Fix,FLP,37.4222751,-122.159509,-0.9799940121870988,1.0648471,13.066,350.27002,1678497403611,,,1932218488392789,1.6045275,Walk
Fix,GPS,37.4222778115,-122.1595013589,36.20557974756455,1.4871701,8.799753,310.48566,1678497401000,0.6675763,33.56473,1932218521298000,9.544254,Walk
Fix,FLP,37.4222804,-122.1595093,2.335429231441509,1.0775455,13.429,347.25702,1678497404162,,,1932219039000000,1.6089691,Walk
Fix,GPS,37.422288381,-122.1595136337,36.40286443925603,1.475642,8.925372,310.48566,1678497402000,0.7116144,75.902176,1932219521368000,9.535502,Walk
Fix,FLP,37.4222844,-122.159512,2.2652778751931137,1.08359,13.814,343.82538,1678497404696,,,1932219573577421,1.6481711,Walk
Fix,NLP,37.4222892,-122.1596761,-8.200000762939453,,15.129,,1678497405029,,,1932219906000000,1.0,Walk
Fix,FLP,37.4222901,-122.1595251,-1.5117946590096525,1.0913227,13.958,341.775,1678497405236,,,1932220113000000,1.5851729,Walk
Fix,GPS,37.4222963979,-122.159527762,36.60061953500635,1.4615651,8.924598,318.00095,1678497403000,0.5727809,28.65053,1932220521348000,9.508594,Walk
Fix,FLP,37.4222948,-122.1595422,0.9227852651998988,1.0960389,14.21,341.0638,1678497405781,,,1932220658776030,1.5971797,Walk
Fix,FLP,37.4223011,-122.1595525,0.9227852651998988,1.1052419,14.029,339.1059,1678497406297,,,1932221174000000,1.5971797,Walk
Fix,GPS,37.4223041675,-122.1595401769,37.00213106030929,1.4394479,8.93516,321.31778,1678497404000,0.53100455,22.457201,1932221521376000,9.492241,Walk
Fix,FLP,37.4223116,-122.1595745,1.1731424280675142,1.1313686,13.459,334.1108,1678497407417,,,1932222294000000,1.5907606,Walk
Fix,GPS,37.4223107893,-122.1595529802,37.25788844096359,1.415703,8.973982,301.35168,1678497405000,0.5653009,29.997969,1932222521386000,9.471831,Walk
Fix,FLP,37.4223201,-122.1595916,0.9227852651998988,1.1577904,12.891,330.19147,1678497408432,,,1932223309000000,1.588069,Walk
Fix,GPS,37.4223143329,-122.1595637702,37.19647213879427,1.3633828,8.923993,303.81955,1678497406000,0.5678768,39.92702,1932223521343000,9.442445,Walk
Fix,FLP,37.4223247,-122.1596003,-0.5080505015948376,1.1736637,12.523,328.18674,1678497408935,,,1932223812000000,1.59785,Walk
Fix,FLP,37.4223299,-122.159607,-0.5080505015948376,1.1808164,12.29,327.235,1678497409471,,,1932224348429838,1.59785,Walk
Fix,GPS,37.4223222172,-122.1595712138,37.25519346463884,1.3207014,8.902511,303.81955,1678497407000,0.5267113,50.39115,1932224521410000,9.401791,Walk
Fix,FLP,37.4223342,-122.1596144,-0.5080505015948376,1.1918528,11.81,325.6357,1678497409992,,,1932224870000000,1.6363654,Walk
Fix,FLP,37.4223392,-122.1596208,-0.5080505015948376,1.1969163,11.563,324.8896,1678497410555,,,1932225432000000,1.6363654,Walk
Fix,NLP,37.4222751,-122.1596787,-8.200000762939453,,13.275,,1678497410634,,,1932225511000000,1.0,Walk
Fix,GPS,37.4223299187,-122.159573273,37.33051815416267,1.2646388,8.99155,303.81955,1678497408000,0.6260392,59.696796,1932225521409000,9.399218,Walk
Fix,FLP,37.4223397,-122.1596314,-0.4676115999729759,1.2035496,11.425,322.6696,1678497411064,,,1932225941000000,1.5762907,Walk
Fix,FLP,37.4223413,-122.1596399,-0.4676115999729759,1.2038572,11.338,321.84918,1678497411612,,,1932226489000000,1.5762907,Walk
Fix,GPS,37.4223390394,-122.1595814445,37.05791525003055,1.2469232,8.961432,303.81955,1678497409000,0.60618395,41.20932,1932226521600000,9.37592,Walk
Fix,FLP,37.4223416,-122.1596495,0.2152719793997946,1.205301,11.165,320.5867,1678497412121,,,1932226998000000,1.5713634,Walk
Fix,FLP,37.422345,-122.1596571,0.2152719793997946,1.2070881,11.074,320.10632,1678497412687,,,1932227564000000,1.5713634,Walk
Fix,GPS,37.4223478672,-122.1595927407,36.99220736828863,1.2438331,8.931974,303.81955,1678497410000,0.6460935,18.38079,1932227521452000,9.33731,Walk
Fix,FLP,37.4223505,-122.1596702,0.3975201013531659,1.210098,10.89,319.1137,1678497413269,,,1932228146608060,1.5702347,Walk
Fix,GPS,37.4223581129,-122.1596068738,36.88745454590581,1.261845,8.864527,303.81955,1678497411000,0.6467013,61.784832,1932228521674000,9.302048,Walk
Fix,FLP,37.4223507,-122.1596717,0.4906934118878467,1.2126218,10.895,318.90118,1678497413812,,,1932228689204130,1.5802246,Walk
Fix,FLP,37.4223593,-122.159683,0.4906934118878467,1.2155809,10.8,318.43408,1678497414354,,,1932229231794401,1.5802246,Walk
Fix,GPS,37.4223721953,-122.1596195572,37.02299179823409,1.2994914,8.833269,336.99496,1678497412000,0.6379434,34.56775,1932229521578000,9.258686,Walk
Fix,FLP,37.4223645,-122.1596894,-0.5761307470848394,1.2201238,10.816,317.88245,1678497414897,,,1932229774397367,1.6162708,Walk
Fix,GPS,37.422387314,-122.1596254021,37.16779637655536,1.3212398,8.840912,327.96542,1678497413000,0.57898927,37.28414,1932230521839000,9.236189,Walk
Fix,NLP,37.4222921,-122.1596976,-8.200000762939453,,13.008,,1678497415680,,,1932230558000000,1.0,Walk
Fix,FLP,37.4223674,-122.1596931,-2.3685426572738706,1.2235882,10.7,317.5328,1678497415439,,,1932230316986905,1.6262207,Walk
Fix,FLP,37.4223678,-122.1597025,-5.792972901930973,1.2253398,10.776,316.62964,1678497415982,,,1932230859581998,0.95384806,Walk
Fix,GPS,37.4223971394,-122.1596310392,37.347548424788734,1.2998246,8.877525,312.9667,1678497414000,0.620946,38.64323,1932231521884000,9.214826,Walk
Fix,FLP,37.4223667,-122.1597075,-9.912748593389344,1.2238591,10.77,316.40625,1678497416525,,,1932231402164945,0.9638181,Walk
Fix,FLP,37.4223679,-122.1597174,-9.912748593389344,1.2231998,10.663,315.67273,1678497417067,,,1932231944769987,0.9638181,Walk
Fix,GPS,37.4224069174,-122.1596359846,37.52479353926401,1.2824055,8.991259,315.94238,1678497415000,0.59782887,27.965485,1932232521518000,9.171347,Walk
Fix,FLP,37.4223687,-122.1597213,-5.792972901930973,1.226016,10.639,315.18494,1678497417610,,,1932232487361967,0.9735205,Walk
Fix,FLP,37.4223732,-122.1597308,-5.792972901930973,1.2301688,10.604,314.52887,1678497418152,,,1932233029957242,0.9735205,Walk
Fix,GPS,37.4224165533,-122.1596482856,37.61572815666359,1.2942438,9.158357,311.89725,1678497416000,0.6898592,34.262497,1932233521555000,9.150992,Walk
Fix,FLP,37.4223748,-122.1597339,-3.5818645192966017,1.2336667,10.615,314.49677,1678497418695,,,1932233572534757,1.5598297,Walk
Fix,FLP,37.4223814,-122.1597429,-3.5818645192966017,1.2390252,10.61,314.50235,1678497419238,,,1932234115144254,1.5598297,Walk
Fix,GPS,37.4224290861,-122.1596551843,37.71116497057543,1.3015552,9.297356,314.6487,1678497417000,0.60468376,39.556366,1932234521570000,9.115428,Walk
Fix,FLP,37.4223833,-122.1597454,-3.21496944427814,1.242518,10.667,314.3205,1678497419780,,,1932234657725614,1.574446,Walk
Fix,FLP,37.4223911,-122.1597546,-3.21496944427814,1.2470828,10.698,313.8749,1678497420323,,,1932235200330289,1.574446,Walk
Fix,GPS,37.4224381922,-122.1596664717,37.69562592597402,1.3034184,9.352053,321.75143,1678497418000,0.6101621,28.90969,1932235521545000,9.057645,Walk
Fix,NLP,37.4223298,-122.1598156,-7.599999904632568,,22.572,,1678497420931,,,1932235808000000,1.3848267,Walk
Fix,FLP,37.4223957,-122.1597582,-7.599999904632568,1.2516501,10.666,313.4918,1678497420865,,,1932235742922330,1.0212494,Walk
Fix,FLP,37.4224001,-122.1597669,-7.599999904632568,1.2546308,10.876,313.22604,1678497421407,,,1932236285518949,1.0212494,Walk
Fix,GPS,37.4224453849,-122.1596803231,37.402124142147535,1.310654,9.452808,321.8988,1678497419000,0.6447829,28.078785,1932236522519000,9.015439,Walk
Fix,FLP,37.422403,-122.1597759,-0.4499311937151518,1.2577804,11.099,312.8603,1678497421920,,,1932236797861906,1.0056558,Walk
Fix,FLP,37.4224064,-122.1597825,-0.4499311937151518,1.2607136,11.234,312.5818,1678497422493,,,1932237370701749,1.0056558,Walk
Fix,GPS,37.422452423,-122.1596932864,37.29016245635339,1.3066719,9.562172,311.66092,1678497420000,0.55870545,38.615616,1932237521580000,8.979844,Walk
Fix,FLP,37.4224109,-122.1597899,-0.4499311937151518,1.2656791,11.464,312.2195,1678497423036,,,1932237913293424,1.009192,Walk
Fix,FLP,37.4224153,-122.1597961,-0.4499311937151518,1.2682855,11.657,312.08374,1678497423578,,,1932238455876737,1.009192,Walk
Fix,GPS,37.42245678,-122.1597083782,36.783759047938055,1.309237,9.609914,319.2786,1678497421000,0.55268925,24.384195,1932238521602000,8.937737,Walk
Fix,FLP,37.4224215,-122.1598033,-3.6816540579402712,1.2726154,11.841,311.97064,1678497424121,,,1932238998478178,1.0088083,Walk
Fix,FLP,37.4224262,-122.1598085,-3.6816540579402712,1.274969,12.011,312.00085,1678497424664,,,1932239541071683,1.0088083,Walk
Fix,GPS,37.4224642459,-122.1597251221,36.56526993899704,1.330595,9.523569,341.46783,1678497422000,0.52465755,30.55509,1932239521601000,8.90782,Walk
Fix,FLP,37.4224337,-122.1598149,-7.599999904632568,1.2795551,12.21,312.25934,1678497425206,,,1932240083662809,1.0184168,Walk
Fix,GPS,37.4224721087,-122.1597402372,35.97211833950832,1.3356042,9.412165,341.46783,1678497423000,0.5224376,32.477215,1932240521735000,8.871028,Walk
Fix,FLP,37.4224375,-122.1598178,-7.599999904632568,1.282719,12.39,312.26447,1678497425749,,,1932240626256010,1.0284468,Walk
Fix,FLP,37.4224465,-122.1598247,-7.599999904632568,1.285531,12.645,311.88797,1678497426291,,,1932241168846891,1.0284468,Walk
Fix,GPS,37.4224746036,-122.1597543532,35.65605395201139,1.3138947,9.351407,341.46783,1678497424000,0.60183424,71.16234,1932241521789000,8.873855,Walk
Fix,FLP,37.4224528,-122.1598282,-3.8658518657873913,1.2715878,13.003,310.12488,1678497426834,,,1932241711429105,1.5781829,Walk
Fix,FLP,37.4224572,-122.1598339,-3.8658518657873913,1.23912,13.182,307.52496,1678497427377,,,1932242254030485,1.5781829,Walk
Fix,GPS,37.4224814004,-122.1597842461,35.713889238089,1.408073,9.040027,267.82285,1678497425000,0.62887305,38.408047,1932242521690000,8.888402,Walk
Fix,FLP,37.4224603,-122.159838,-7.599999904632568,1.1871331,13.459,302.39465,1678497427919,,,1932242796623258,1.0487882,Walk
Fix,FLP,37.4224624,-122.1598435,-7.599999904632568,1.160342,13.663,299.5455,1678497428462,,,1932243339213590,1.0487882,Walk
Fix,GPS,37.4224834142,-122.1598064344,35.9978504610346,1.4359249,8.716738,240.49495,1678497426000,0.5487885,34.651176,1932243521683000,8.9053,Walk
Fix,FLP,37.422463,-122.1598479,-5.201344971563493,1.1191952,13.762,294.07477,1678497429004,,,1932243881806058,1.0587982,Walk
Fix,FLP,37.4224635,-122.1598537,-5.201344971563493,1.1028513,13.865,291.2168,1678497429547,,,1932244424395963,1.0587982,Walk
Fix,GPS,37.4224803693,-122.1598228482,36.119049669848486,1.4245515,8.577179,239.14923,1678497427000,0.5604212,37.90547,1932244521704000,8.924336,Walk
Fix,FLP,37.4224625,-122.1598597,-0.47041495020963,1.0854431,13.863,286.04715,1678497430089,,,1932244966988187,1.0687883,Walk
Fix,GPS,37.4224771962,-122.1598324204,36.22508005242151,1.3706467,8.64069,239.1894,1678497428000,0.5972091,40.49799,1932245521689000,8.93871,Walk
Fix,FLP,37.4224624,-122.1598663,-2.753530592996136,1.0889248,13.874,284.18408,1678497430632,,,1932245509577909,1.0787983,Walk
Fix,FLP,37.4224619,-122.1598739,-2.753530592996136,1.1021761,13.815,282.1451,1678497431175,,,1932246052160306,1.0787983,Walk
Fix,GPS,37.4224773916,-122.1598389218,36.83904626293065,1.2375398,8.718763,239.1894,1678497429000,0.64191246,180.0,1932246521719000,8.966532,Walk
Fix,FLP,37.4224626,-122.1598779,-2.5057407405186254,1.1122111,13.802,283.02133,1678497431717,,,1932246594759183,1.0887983,Walk
Fix,FLP,37.4224665,-122.1598846,-2.5057407405186254,1.1159531,13.619,285.39154,1678497432260,,,1932247137350675,1.0887983,Walk
Fix,GPS,37.4224780843,-122.159843572,37.79670862128417,1.112994,8.815863,239.1894,1678497430000,0.63750803,180.0,1932247522027000,9.001088,Walk
Fix,FLP,37.4224694,-122.1598858,-7.599999904632568,1.1004288,13.405,287.21783,1678497432802,,,1932247679939847,1.0984467,Walk
Fix,FLP,37.4224769,-122.15989,-7.599999904632568,1.0531496,13.042,291.19565,1678497433345,,,1932248222519742,1.0984467,Walk
Fix,GPS,37.422479273,-122.1598495063,37.760492341741866,0.39033198,8.952226,239.1894,1678497431000,0.59107804,138.09657,1932248521775000,9.010066,Walk
Fix,FLP,37.4224835,-122.1598884,-7.599999904632568,0.914009,12.462,296.3839,1678497433888,,,1932248765115018,1.1084667,Walk
Fix,FLP,37.4224879,-122.1598896,-7.599999904632568,0.85973763,12.194,298.23758,1678497434430,,,1932249307705533,1.1084667,Walk
Fix,GPS,37.4224822053,-122.1598515296,37.94516518475973,0.39817727,9.023415,239.1894,1678497432000,0.77865505,164.23286,1932249521772000,9.026307,Walk
Fix,FLP,37.4224949,-122.1598904,-4.534434434420504,0.7878232,11.588,300.93213,1678497434972,,,1932249850299528,1.1185668,Walk
Fix,FLP,37.4224992,-122.1598926,-4.534434434420504,0.7658901,11.147,301.71826,1678497435515,,,1932250392890348,1.1185668,Walk
Fix,GPS,37.4224857434,-122.1598516901,38.18395818695706,0.5169444,8.955841,239.1894,1678497433000,0.7594788,142.38275,1932250521697000,9.020512,Walk
Fix,FLP,37.4225063,-122.1598954,-3.335222722475436,0.733299,10.505,303.23682,1678497436058,,,1932250935478666,1.667123,Walk
Fix,FLP,37.42251,-122.1598973,1.943715605034491,0.72367734,10.175,303.80392,1678497436600,,,1932251478071623,1.677133,Walk
Fix,GPS,37.4224897045,-122.1598560675,38.43719082566607,0.56948024,9.023446,239.1894,1678497434000,0.73402077,61.965034,1932251521738000,9.01514,Walk
Fix,FLP,37.4225161,-122.1599,-1.4807146396226116,0.7084556,9.756,304.75317,1678497437143,,,1932252020659085,1.1377982,Walk
Fix,FLP,37.4225201,-122.159903,-1.4807146396226116,0.7032514,9.455,305.2292,1678497437695,,,1932252572000000,1.1377982,Walk
Fix,GPS,37.4224959573,-122.1598615516,38.64362664059174,0.68570054,9.248081,239.1894,1678497435000,0.7171577,29.432316,1932252521782000,9.017517,Walk
Fix,FLP,37.4225255,-122.1599065,-2.245655975095204,0.69823563,9.211,306.20105,1678497438218,,,1932253095000000,1.1489083,Walk
Fix,FLP,37.4225297,-122.1599106,-2.245655975095204,0.6980321,9.056,306.95883,1678497438771,,,1932253648424772,1.1489083,Walk
Fix,GPS,37.4225072822,-122.1598698918,38.537829163190814,0.8667796,9.173338,239.1894,1678497436000,0.6028919,47.909576,1932253521994000,9.006889,Walk
Fix,FLP,37.422535,-122.1599148,-7.599999904632568,0.7061389,9.001,308.19598,1678497439294,,,1932254171000000,1.1588782,Walk
Fix,GPS,37.4225167983,-122.1598805395,38.855906522389446,0.9555111,9.237151,239.1894,1678497437000,0.5952801,44.193485,1932254521820000,8.998111,Walk
Fix,FLP,37.4225388,-122.1599187,-7.599999904632568,0.71560514,8.915,308.6295,1678497439824,,,1932254701000000,1.1588782,Walk
Fix,FLP,37.4225444,-122.1599241,-7.599999904632568,0.73552907,8.887,309.4642,1678497440398,,,1932255275000000,1.1690482,Walk
Fix,GPS,37.4225235037,-122.1598883445,39.24208558009966,0.93905926,9.344917,239.1894,1678497438000,0.651941,49.025204,1932255521855000,8.98825,Walk
Fix,FLP,37.4225516,-122.1599312,-7.599999904632568,0.76537025,8.765,310.7054,1678497441474,,,1932256351000000,1.1787783,Walk
Fix,GPS,37.4225236274,-122.1598953313,39.27616885583924,0.8625878,9.363987,239.1894,1678497439000,0.7066351,29.018936,1932256521813000,8.9564295,Walk
Fix,FLP,37.4225557,-122.1599356,-7.599999904632568,0.77898145,8.675,311.39352,1678497442017,,,1932256894000000,1.1888683,Walk
Fix,FLP,37.4225594,-122.1599402,-7.599999904632568,0.7844838,8.684,311.70346,1678497442560,,,1932257438000000,1.1888683,Walk
Fix,GPS,37.4225289922,-122.15990604,39.00871482406197,0.8871711,9.396486,239.1894,1678497440000,0.6531535,42.033672,1932257521864000,8.924306,Walk
Fix,FLP,37.4225649,-122.1599478,-7.599999904632568,0.7968615,8.628,312.34067,1678497443112,,,1932257989132230,1.1984068,Walk
Fix,GPS,37.4225314241,-122.1599166458,39.10702032512312,0.8871615,9.627169,239.1894,1678497441000,0.7266704,76.639366,1932258521865000,8.923208,Walk
Fix,FLP,37.4225658,-122.1599493,-5.70238895701732,0.8023268,8.637,312.42157,1678497443654,,,1932258531719205,1.2083968,Walk
Fix,FLP,37.4225703,-122.1599572,-5.70238895701732,0.81059897,8.54,312.37906,1678497444197,,,1932259074299833,1.2083968,Walk
Fix,GPS,37.4225392968,-122.159930798,39.33915860473103,0.95546365,9.75152,239.1894,1678497442000,0.6179634,22.744253,1932259521885000,8.920247,Walk
Fix,FLP,37.4225709,-122.1599588,-5.65479361391165,0.8155971,8.546,312.3244,1678497444739,,,1932259616894926,1.2184567,Walk
Fix,FLP,37.4225757,-122.1599681,-5.65479361391165,0.8264811,8.515,312.2021,1678497445282,,,1932260159483854,1.2184567,Walk
Fix,GPS,37.4225435275,-122.1599369807,39.597377471460135,0.91334915,9.791899,239.1894,1678497443000,0.685675,144.62756,1932260522006000,8.90437,Walk
Fix,FLP,37.4225775,-122.1599733,-5.70238895701732,0.83604586,8.478,312.0095,1678497445825,,,1932260702070219,1.2283968,Walk
Fix,FLP,37.4225803,-122.1599788,-5.70238895701732,0.8405921,8.458,311.83255,1678497446367,,,1932261244658903,1.2283968,Walk
Fix,GPS,37.4225462052,-122.1599497658,39.64021092029742,0.93041164,9.760388,239.1894,1678497444000,0.6994622,26.083303,1932261521979000,8.880296,Walk
Fix,FLP,37.4225826,-122.1599848,-3.636606843940001,0.8481351,8.464,311.55692,1678497446910,,,1932261787245267,1.2388482,Walk
Fix,GPS,37.4225532642,-122.1599562134,39.58664790439731,0.92536235,9.70254,239.1894,1678497445000,0.5904017,53.83025,1932262521916000,8.829064,Walk
Fix,FLP,37.4225851,-122.1599901,-3.636606843940001,0.8530654,8.453,311.52002,1678497447452,,,1932262329833646,1.2388482,Walk
Fix,FLP,37.4225881,-122.1599967,-3.636606843940001,0.8604556,8.453,311.54428,1678497447995,,,1932262872408414,1.2489282,Walk
Fix,GPS,37.4225625394,-122.1599664825,39.65230136146134,0.9595923,9.505863,239.1894,1678497446000,0.56530803,50.622543,1932263521949000,8.781457,Walk
Fix,FLP,37.4225899,-122.1599999,-5.476692533118836,0.86463624,8.482,311.60703,1678497448538,,,1932263415008451,1.2587782,Walk
Fix,FLP,37.4225939,-122.1600062,-5.476692533118836,0.87255406,8.496,311.75803,1678497449079,,,1932263957599699,1.2587782,Walk
Fix,GPS,37.4225678243,-122.1599817944,39.83641999686103,0.99773294,9.498477,239.1894,1678497447000,0.6193266,19.328894,1932264521982000,8.742139,Walk
Fix,FLP,37.4225959,-122.1600092,-7.599999904632568,0.8780006,8.519,311.83405,1678497449623,,,1932264500182828,1.2688582,Walk
Fix,FLP,37.4226005,-122.160016,-7.599999904632568,0.88826835,8.565,312.03223,1678497450165,,,1932265042768949,1.2688582,Walk
Fix,GPS,37.4225682632,-122.1599954765,39.921184395634086,1.00508,9.4198475,239.1894,1678497448000,0.649496,39.30188,1932265521957000,8.668842,Walk
Fix,FLP,37.4226026,-122.160019,-5.476692533118836,0.8949309,8.587,312.10965,1678497450708,,,1932265585344328,1.2787782,Walk
Fix,FLP,37.4226079,-122.1600262,-5.476692533118836,0.9057661,8.676,312.16632,1678497451249,,,1932266127943082,1.2787782,Walk
Fix,GPS,37.4225707029,-122.1600027734,39.59632170366263,0.9691232,9.460675,239.1894,1678497449000,0.6340505,14.87836,1932266521993000,8.580287,Walk
Fix,FLP,37.4226098,-122.1600287,-2.817524725976888,0.9119194,8.711,312.2566,1678497451793,,,1932266670519437,1.2887982,Walk
Fix,FLP,37.4226155,-122.1600362,-2.817524725976888,0.9193645,8.767,312.6193,1678497452336,,,1932267213117155,1.2887982,Walk
Fix,GPS,37.422563966,-122.1600125292,38.978809908351984,0.94167274,9.516392,239.1894,1678497450000,0.7030049,180.0,1932267522018000,8.498,Walk
Fix,FLP,37.4226185,-122.1600401,-2.817524725976888,0.9210665,8.748,313.13727,1678497452878,,,1932267755705289,1.2988882,Walk
Fix,FLP,37.422622,-122.1600444,-2.817524725976888,0.9222797,8.766,313.41794,1678497453421,,,1932268298290861,1.2988882,Walk
Fix,GPS,37.4225676488,-122.1600219696,38.42731368957617,0.7117797,9.610071,312.74335,1678497451000,0.6670738,36.879242,1932268522004000,8.444948,Walk
Fix,FLP,37.4226253,-122.1600488,-2.817524725976888,0.91142166,8.731,313.95813,1678497453963,,,1932268840878751,1.3087783,Walk
Fix,FLP,37.4226285,-122.1600528,-2.817524725976888,0.9012407,8.763,314.16565,1678497454506,,,1932269383464750,1.3087783,Walk
Fix,GPS,37.4225836219,-122.1600322256,38.40539527033096,1.2146256,9.661161,309.74112,1678497452000,0.65818304,40.15254,1932269522032000,8.420656,Walk
Fix,FLP,37.4226322,-122.1600574,-1.5943849999226387,0.9056756,8.771,314.50092,1678497455049,,,1932269926041837,1.3185267,Walk
Fix,FLP,37.4226357,-122.1600618,-1.5943849999226387,0.9197858,8.804,314.63287,1678497455591,,,1932270468637845,1.3185267,Walk
Fix,GPS,37.4225957993,-122.1600416362,38.51881444720419,1.3084421,9.714091,310.96277,1678497453000,0.65139914,34.17614,1932270522050000,8.404083,Walk
Fix,FLP,37.42264,-122.1600676,-3.899720131968927,0.9480742,8.813,314.79776,1678497456133,,,1932271011225431,1.3284168,Walk
Fix,GPS,37.4226076284,-122.1600504146,38.55753384156017,1.3180285,9.810608,310.96277,1678497454000,0.6464024,53.10378,1932271522081000,8.395731,Walk
Fix,FLP,37.4226427,-122.1600715,-2.7965347037511563,0.9640817,8.852,314.8334,1678497456676,,,1932271553800931,1.3384168,Walk
Fix,FLP,37.4226472,-122.1600782,-2.7965347037511563,0.9929889,8.867,314.90338,1678497457219,,,1932272096398588,1.3384168,Walk
Fix,GPS,37.422617071,-122.1600551696,38.51664569643111,1.2368978,9.947299,310.96277,1678497455000,0.69576204,12.087475,1932272522279000,8.399974,Walk
Fix,FLP,37.4226508,-122.1600832,-3.899720131968927,1.0077742,8.934,314.95987,1678497457761,,,1932272638983732,1.3484968,Walk
Fix,FLP,37.4226558,-122.1600901,-3.899720131968927,1.03041,8.982,315.0217,1678497458303,,,1932273181571195,1.3484968,Walk
Fix,GPS,37.4226291606,-122.1600582022,38.56951725169892,1.2328076,10.049045,310.96277,1678497456000,0.6921,49.25793,1932273522079000,8.40937,Walk
Fix,FLP,37.4226583,-122.1600935,-7.599999904632568,1.0463268,8.991,314.91055,1678497458847,,,1932273724156400,1.4513611,Walk
Fix,FLP,37.4226626,-122.160099,-7.599999904632568,1.0542141,9.02,314.6572,1678497459389,,,1932274266745206,1.4513611,Walk
Fix,GPS,37.4226380771,-122.1600671634,38.58298678987276,1.225843,10.13713,314.84424,1678497457000,0.6310412,29.71817,1932274522119000,8.434594,Walk
Fix,FLP,37.4226656,-122.1601025,-7.599999904632568,1.0672876,8.989,314.16248,1678497459920,,,1932274797861906,1.4612311,Walk
Fix,FLP,37.4226694,-122.1601073,-7.599999904632568,1.0741472,9.031,313.94495,1678497460474,,,1932275351903715,1.4612311,Walk
Fix,GPS,37.4226488431,-122.1600770241,38.4766994999174,1.2585859,10.217321,323.11066,1678497458000,0.6667133,28.75314,1932275522130000,8.459986,Walk
Fix,FLP,37.4226728,-122.1601114,-5.826237948752009,1.0876441,9.019,313.6767,1678497461016,,,1932275894500333,1.3787882,Walk
Fix,FLP,37.4226769,-122.1601165,-5.826237948752009,1.0954788,9.057,313.69266,1678497461560,,,1932276437087308,1.3787882,Walk
Fix,GPS,37.4226594716,-122.1600873661,38.80775643316795,1.2830948,10.372464,324.87115,1678497459000,0.69671196,31.174608,1932276522101000,8.502688,Walk
Fix,FLP,37.4226807,-122.1601207,-1.8319613576516005,1.1100668,9.042,313.75156,1678497462103,,,1932276980000000,1.3888682,Walk
Fix,FLP,37.4226851,-122.160126,-1.8319613576516005,1.1178354,9.058,313.8761,1678497462645,,,1932277522258695,1.3888682,Walk
Fix,GPS,37.4226695099,-122.1601026616,38.86124058799419,1.3294486,10.243769,318.52817,1678497460000,0.6323539,40.13005,1932277522163000,8.561923,Walk
Fix,FLP,37.4226918,-122.1601334,-3.270589331050985,1.1376386,9.094,314.2632,1678497463187,,,1932278064840910,1.3989383,Walk
Fix,GPS,37.4226771141,-122.1601069145,38.903159991878354,1.2693768,10.180208,314.7605,1678497461000,0.6530544,35.201523,1932278522173000,8.618198,Walk
Fix,FLP,37.4226924,-122.1601337,-3.356592073173914,1.1461477,9.107,314.4001,1678497463730,,,1932278607426847,1.4078182,Walk
Fix,FLP,37.4227002,-122.1601419,-3.356592073173914,1.1570696,9.124,314.65536,1678497464273,,,1932279150013822,1.4078182,Walk
Fix,GPS,37.4226860964,-122.1601133586,38.52686972460625,1.2432731,10.151147,314.7605,1678497462000,0.6195472,62.146206,1932279522172000,8.668945,Walk
Fix,FLP,37.4227011,-122.1601422,-4.163337100368672,1.1627675,9.126,314.7105,1678497464815,,,1932279692600736,1.4187783,Walk
Fix,FLP,37.4227095,-122.1601506,-4.163337100368672,1.1690152,9.1,314.89154,1678497465358,,,1932280235185208,1.4187783,Walk
Fix,GPS,37.4226976627,-122.1601232622,38.36721550032543,1.2659522,10.221378,323.0342,1678497463000,0.60777617,27.636013,1932280522415000,8.721841,Walk
Fix,FLP,37.4227141,-122.1601539,-5.22693527167884,1.1743618,9.05,315.08203,1678497465900,,,1932280777771451,1.4287982,Walk
Fix,GPS,37.422707507,-122.1601380643,38.71004099194408,1.302157,10.2685795,304.47223,1678497464000,0.5821854,25.061398,1932281522222000,8.762607,Walk
Fix,FLP,37.4227174,-122.160157,-2.2405361159376227,1.1787624,8.992,315.10287,1678497466443,,,1932281320355375,1.4389082,Walk
Fix,FLP,37.4227232,-122.1601625,-2.2405361159376227,1.1874472,8.936,315.19678,1678497466984,,,1932281862941617,1.4389082,Walk
Fix,GPS,37.422726066,-122.1601628068,38.62274823898802,0.98182166,10.1823845,298.49725,1678497465000,0.5954468,29.31904,1932282522232000,8.770641,Walk
Fix,FLP,37.4227265,-122.1601657,-2.599942697236472,1.1933954,8.9,315.344,1678497467528,,,1932282405528227,1.4487883,Walk
Fix,FLP,37.4227333,-122.1601724,-2.599942697236472,1.1879662,8.804,315.59732,1678497468071,,,1932282948111478,1.4487883,Walk
Fix,GPS,37.422743797,-122.1601937345,38.30564966540464,1.0008097,9.891801,301.88138,1678497466000,0.521987,22.245125,1932283522217000,8.743722,Walk
Fix,FLP,37.4227365,-122.1601757,-4.762203350610278,1.1794459,8.786,315.64035,1678497468613,,,1932283490692044,1.4584768,Walk
Fix,FLP,37.4227441,-122.160184,-4.762203350610278,1.1637336,8.751,315.62225,1678497469156,,,1932284033281156,1.4584768,Walk
Fix,GPS,37.4227622932,-122.1602204282,38.35100375241787,1.015552,9.724301,288.12268,1678497467000,0.5516556,25.866476,1932284522340000,8.755854,Walk
Fix,FLP,37.4227471,-122.1601875,-2.599942697236472,1.15838,8.747,315.5887,1678497469698,,,1932284575864652,1.4684668,Walk
Fix,FLP,37.4227554,-122.1601978,-2.599942697236472,1.1481656,8.739,315.5239,1678497470241,,,1932285118450040,1.4684668,Walk
Fix,GPS,37.4227730162,-122.1602367653,38.7069010427784,1.3405714,9.77808,296.97845,1678497468000,0.7695559,30.155504,1932285522194000,8.78855,Walk
Fix,FLP,37.4227583,-122.1602015,-2.120218533020747,1.1449316,8.764,315.5045,1678497470784,,,1932285661033475,1.4784768,Walk
Fix,FLP,37.4227673,-122.1602136,-2.120218533020747,1.1518213,8.803,315.40756,1678497471326,,,1932286203607084,1.4784768,Walk
Fix,GPS,37.4227875697,-122.1602573358,38.678746496205854,1.6430774,9.717538,309.86426,1678497469000,0.60367674,24.062916,1932286522270000,8.776799,Walk
Fix,FLP,37.4227738,-122.1602232,-2.120218533020747,1.181439,8.776,315.32065,1678497471869,,,1932286746201932,1.4884868,Walk
Fix,FLP,37.4227789,-122.1602304,-2.120218533020747,1.2013946,8.792,315.35574,1678497472411,,,1932287288782987,1.4884868,Walk
Fix,GPS,37.4228022589,-122.1602813423,38.59388076213782,1.8580365,9.643233,305.72916,1678497470000,0.5999959,24.438202,1932287522352000,8.783883,Walk
Fix,FLP,37.4227855,-122.1602408,-4.03328867486529,1.2420969,9.307,314.86533,1678497472920,,,1932287797861906,1.5913311,Walk
Fix,FLP,37.4227909,-122.1602497,-4.03328867486529,1.2658507,9.922,314.28372,1678497473496,,,1932288373956144,1.5913311,Walk
Fix,GPS,37.4228135079,-122.1602952807,38.18652418867316,1.7814078,9.687052,315.1743,1678497471000,0.61009556,32.48378,1932288522328000,8.780256,Walk
Fix,FLP,37.4227991,-122.1602634,-5.267821644733552,1.3099223,10.871,313.78247,1678497474039,,,1932288916539274,1.6012511,Walk
Fix,FLP,37.4228056,-122.1602733,-5.267821644733552,1.3323282,11.558,313.80063,1678497474582,,,1932289459124479,1.6012511,Walk
Fix,GPS,37.4228269965,-122.1603079146,38.33275342912992,1.7506697,9.663977,315.1743,1678497472000,0.63792074,21.9937,1932289522345000,8.797439,Walk
Fix,FLP,37.4228152,-122.1602877,-5.267821644733552,1.3712562,12.257,313.88245,1678497475124,,,1932290001697904,1.6112511,Walk
Fix,FLP,37.4228218,-122.1602972,-5.267821644733552,1.3899561,12.915,313.82324,1678497475666,,,1932290544281522,1.6112511,Walk
Fix,GPS,37.4228330215,-122.160316103,38.505241172404006,1.5786214,9.82165,315.1743,1678497473000,0.7100598,44.47433,1932290522631000,8.807515,Walk
Fix,FLP,37.4228312,-122.1603097,-3.3519848055978017,1.415839,13.538,313.80573,1678497476209,,,1932291086875089,1.5287882,Walk
Fix,GPS,37.4228361116,-122.1603229776,38.54009759628837,1.4154446,9.806549,285.74442,1678497474000,0.6762633,41.40677,1932291522274000,8.795498,Walk
Fix,FLP,37.4228354,-122.1603148,-3.3519848055978017,1.4253157,14.463,313.84192,1678497476752,,,1932291629460172,1.5377783,Walk
Fix,FLP,37.4228428,-122.1603268,-3.3519848055978017,1.4199274,15.148,312.53214,1678497477295,,,1932292172033842,1.5377783,Walk
Fix,GPS,37.4228441468,-122.1603315658,38.684663930466535,1.3636703,9.860175,304.7914,1678497475000,0.7006646,33.270027,1932292522644000,8.789607,Walk
Fix,FLP,37.4228461,-122.1603338,-3.3519848055978017,1.4049015,16.308,310.97006,1678497477837,,,1932292714624601,1.5487783,Walk
Fix,FLP,37.4228503,-122.1603407,-3.3519848055978017,1.4014921,16.4,310.6118,1678497478380,,,1932293257210050,1.5487783,Walk
Fix,GPS,37.4228539578,-122.16033865,38.824376461602974,1.3401515,9.980554,310.5728,1678497476000,0.7948755,30.697683,1932293522433000,8.78959,Walk
Fix,FLP,37.4228536,-122.1603471,-4.355797889239277,1.3943052,16.18,309.87823,1678497478920,,,1932293797861906,1.5588082,Walk
Fix,FLP,37.4228579,-122.1603546,-4.355797889239277,1.390908,15.899,309.4891,1678497479465,,,1932294342368009,1.5588082,Walk
Fix,GPS,37.4228636141,-122.1603424743,38.66979024017592,1.3023132,10.152729,310.5728,1678497477000,0.8897119,180.0,1932294522388000,8.7907505,Walk
Fix,FLP,37.4228617,-122.1603613,-2.766841412559557,1.3831729,15.211,308.8917,1678497480007,,,1932294884962797,1.5687883,Walk
Fix,FLP,37.422866,-122.1603682,-2.766841412559557,1.3795433,14.93,308.6887,1678497480550,,,1932295427542081,1.5687883,Walk
Fix,GPS,37.4228705394,-122.1603427855,38.84281590788512,1.2348595,10.30215,322.24637,1678497478000,0.7768094,36.062435,1932295522345000,8.80215,Walk
Fix,FLP,37.4228705,-122.1603748,-3.9846927128506806,1.3691099,14.272,308.26376,1678497481093,,,1932295970130033,1.5787883,Walk
Fix,FLP,37.422875,-122.1603818,-3.9846927128506806,1.3624411,13.585,307.9542,1678497481635,,,1932296512701627,1.5787883,Walk
Fix,GPS,37.4228806341,-122.1603482768,39.12061089195779,1.2298211,10.496456,321.15308,1678497479000,0.80501056,29.563507,1932296522452000,8.83246,Walk
Fix,FLP,37.4228795,-122.1603883,-2.883054216119476,1.3502905,12.77,307.4565,1678497482160,,,1932297037000000,1.5887883,Walk
Fix,FLP,37.4228842,-122.1603959,-2.883054216119476,1.3447242,11.966,307.23972,1678497482720,,,1932297597880460,1.5887883,Walk
Fix,GPS,37.4228925142,-122.1603569394,38.970541285793225,1.2503875,10.5562,321.15308,1678497480000,0.8058987,140.59486,1932297522420000,8.864279,Walk
Fix,FLP,37.4228893,-122.1604029,-2.883054216119476,1.3355287,11.103,306.98257,1678497483234,,,1932298111000000,1.5987883,Walk
Fix,GPS,37.4229114002,-122.1603760764,38.84034097360787,1.3711755,10.382345,289.87085,1678497481000,0.6343666,34.568996,1932298522379000,8.884535,Walk
Fix,FLP,37.4228941,-122.1604099,-2.883054216119476,1.3320584,9.934,306.9213,1678497483813,,,1932298690000000,1.5987883,Walk
Fix,FLP,37.4229004,-122.1604172,-7.599999904632568,1.330178,9.592,306.94025,1678497484339,,,1932299216000000,1.6077882,Walk
Fix,GPS,37.4229265748,-122.1603930956,39.30262901501553,1.4357617,10.268885,294.1763,1678497482000,0.6712439,35.44735,1932299522585000,8.913315,Walk
Fix,FLP,37.4229056,-122.1604208,-7.599999904632568,1.3349961,9.043,307.16672,1678497484853,,,1932299730000000,1.6187882,Walk
Fix,FLP,37.4229107,-122.1604266,-7.599999904632568,1.3396866,8.899,307.31653,1678497485378,,,1932300255000000,1.6187882,Walk
Fix,GPS,37.4229459747,-122.1604122244,39.64018391331692,1.5263699,10.164684,293.91235,1678497483000,0.6283245,39.317883,1932300522491000,8.936722,Walk
Fix,FLP,37.4229172,-122.1604315,-7.599999904632568,1.3508748,8.575,307.7552,1678497485920,,,1932300797000000,1.6284368,Walk
Fix,GPS,37.4229574812,-122.1604281275,39.77295534322954,1.537348,9.878469,293.91235,1678497484000,0.55037993,30.80062,1932301522508000,8.940244,Walk
Fix,FLP,37.4229249,-122.160438,-5.862573465695085,1.3632636,8.414,308.44055,1678497486517,,,1932301395958524,1.6384068,Walk
Fix,FLP,37.4229338,-122.1604462,-5.862573465695085,1.3720196,8.851,308.19177,1678497487061,,,1932301938552152,1.6384068,Walk
Fix,GPS,37.4229707514,-122.1604341914,40.16650343607413,1.5182009,9.640825,293.91235,1678497485000,0.6413419,75.3934,1932302522507000,8.951409,Walk
Fix,FLP,37.422937,-122.1604482,-3.941694646144235,1.3759236,9.352,307.5861,1678497487604,,,1932302481137052,1.6484368,Walk
Fix,FLP,37.4229438,-122.1604542,-3.941694646144235,1.3785855,9.808,306.9959,1678497488146,,,1932303023722501,1.6484368,Walk
Fix,GPS,37.4229772601,-122.1604380033,40.3586696578469,1.4415566,9.477768,293.91235,1678497486000,0.6574351,49.78825,1932303522505000,8.961018,Walk
Fix,FLP,37.4229516,-122.1604582,-5.862573465695085,1.3827,10.783,305.772,1678497488689,,,1932303566305021,1.6583967,Walk
Fix,FLP,37.4229582,-122.1604632,-5.862573465695085,1.3815349,11.286,305.35452,1678497489221,,,1932304099000000,1.6583967,Walk
Fix,GPS,37.4229886536,-122.160449372,40.411693931476,1.437846,9.405473,331.2422,1678497487000,0.62785834,33.74912,1932304522620000,8.988632,Walk
Fix,FLP,37.4229651,-122.1604646,-7.599999904632568,1.3810285,12.345,304.68637,1678497489774,,,1932304651472867,1.7612411,Walk
Fix,FLP,37.4229765,-122.1604715,-7.599999904632568,1.3714578,13.398,305.73517,1678497490317,,,1932305194055570,1.7612411,Walk
Fix,GPS,37.4230013459,-122.1604506762,40.30454512138075,1.41957,9.242253,331.2422,1678497488000,0.66285366,17.795963,1932305522503000,8.991677,Walk
Fix,FLP,37.4229877,-122.1604712,-7.599999904632568,1.3569564,14.095,308.19714,1678497490859,,,1932305736640287,1.771231,Walk
Fix,FLP,37.422996,-122.1604736,-7.599999904632568,1.3522462,14.727,309.4072,1678497491402,,,1932306279222745,1.771231,Walk
Fix,GPS,37.4230153047,-122.160459844,40.08611818953555,1.4270152,9.127636,331.2422,1678497489000,0.59047335,26.664675,1932306522630000,8.992056,Walk
Fix,FLP,37.4230073,-122.1604752,-7.599999904632568,1.3473506,14.516,311.47205,1678497491920,,,1932306797861906,1.781241,Walk
Fix,FLP,37.4230149,-122.1604793,-7.599999904632568,1.3480229,13.862,312.3615,1678497492487,,,1932307364389554,1.781241,Walk
Fix,GPS,37.4230246059,-122.1604655535,39.7709322957494,1.3883629,9.079355,331.2422,1678497490000,0.5786408,32.97941,1932307522917000,8.997757,Walk
Fix,FLP,37.4230249,-122.1604832,-7.599999904632568,1.3476309,13.029,313.89285,1678497493029,,,1932307906973966,1.7912811,Walk
Fix,FLP,37.4230317,-122.1604874,-7.599999904632568,1.3473448,12.304,314.64114,1678497493572,,,1932308449556242,1.7912811,Walk
Fix,GPS,37.4230300236,-122.1604736755,39.76702641353094,1.3385769,9.054163,331.2422,1678497491000,0.6930068,10.0,1932308522678000,9.007472,Walk
Fix,FLP,37.4230406,-122.1604924,-7.599999904632568,1.3428423,11.47,316.0224,1678497494115,,,1932308992133390,1.8012811,Walk
Fix,GPS,37.4230399426,-122.1604849063,39.764185498136605,1.3347244,9.03985,331.2422,1678497492000,0.7123435,73.33676,1932309522605000,9.023236,Walk
Fix,FLP,37.423045,-122.1604947,-4.051723508495385,1.3412092,10.922,316.66895,1678497494657,,,1932309534722806,1.8112311,Walk
Fix,FLP,37.4230542,-122.1605009,-4.051723508495385,1.3370339,9.786,317.7414,1678497495200,,,1932310077306791,1.8112311,Walk
Fix,GPS,37.4230487784,-122.1604927121,40.34795318428535,1.3093641,9.138252,331.2422,1678497493000,0.6842522,36.770687,1932310522587000,9.027136,Walk
Fix,FLP,37.4230573,-122.1605025,-1.4484565562395488,1.3375046,8.806,318.1299,1678497495741,,,1932310619888517,1.7287782,Walk
Fix,FLP,37.4230663,-122.1605093,-1.4484565562395488,1.3343308,8.506,318.85004,1678497496284,,,1932311162472501,1.7287782,Walk
Fix,GPS,37.4230507183,-122.1605029972,40.56553177742964,1.2652305,9.27161,331.2422,1678497494000,0.7148699,20.792831,1932311522612000,9.027066,Walk
Fix,FLP,37.4230708,-122.1605125,-1.4484565562395488,1.3278725,8.032,319.46503,1678497496828,,,1932311705053861,1.7387782,Walk
Fix,FLP,37.4230766,-122.1605178,-1.4484565562395488,1.3244638,7.949,319.82184,1678497497370,,,1932312247634915,1.7387782,Walk
Fix,GPS,37.4230551636,-122.1605125892,40.74996249528888,1.227933,9.264013,331.2422,1678497495000,0.70628875,16.344507,1932312522620000,9.025885,Walk
Fix,FLP,37.4230812,-122.160522,-1.4484565562395488,1.3156453,7.748,320.4716,1678497497913,,,1932312790222318,1.7487882,Walk
Fix,FLP,37.4230871,-122.1605277,-1.4484565562395488,1.3109511,7.742,320.80838,1678497498455,,,1932313332803129,1.7487882,Walk
Fix,GPS,37.4230689224,-122.1605264465,40.7895095147916,1.2221196,9.202526,331.2422,1678497496000,0.67959213,64.04965,1932313522636000,9.031377,Walk
Fix,FLP,37.4230916,-122.1605322,-0.0940180009476563,1.3027464,7.671,321.29202,1678497498998,,,1932313875384428,1.7588183,Walk
Fix,FLP,37.4230971,-122.1605375,-0.0940180009476563,1.2991995,7.698,321.5409,1678497499540,,,1932314417967924,1.7588183,Walk
Fix,GPS,37.4230816221,-122.1605372452,41.24468887572084,1.2399181,9.184783,331.2422,1678497497000,0.6522152,22.565838,1932314522828000,9.0276375,Walk
Fix,FLP,37.4231021,-122.1605427,-0.981468607084416,1.292834,7.691,322.03015,1678497500083,,,1932314960548917,1.7689183,Walk
Fix,FLP,37.4231077,-122.1605483,-0.981468607084416,1.2894319,7.732,322.43387,1678497500626,,,1932315503132169,1.7689183,Walk
Fix,GPS,37.4230964467,-122.1605481186,41.27886638059076,1.2599959,9.254674,331.2422,1678497498000,0.68452024,81.26104,1932315522697000,9.02058,Walk
Fix,FLP,37.4231131,-122.1605538,-2.2384881714044766,1.284387,7.77,323.14325,1678497501178,,,1932316055000000,1.7787782,Walk
Fix,FLP,37.423119,-122.1605594,-2.2384881714044766,1.282785,7.874,323.47162,1678497501711,,,1932316588296537,1.7787782,Walk
Fix,GPS,37.4231043177,-122.1605637257,40.49489267514311,1.2633206,9.30729,331.2422,1678497499000,0.65561485,19.601244,1932316522729000,8.998045,Walk
Fix,FLP,37.4231246,-122.1605655,-2.2384881714044766,1.2801099,7.955,323.95303,1678497502233,,,1932317110000000,1.7887782,Walk
Fix,GPS,37.4231036875,-122.1605772685,39.54702088774077,1.2228972,9.3885,331.2422,1678497500000,0.6277918,70.879166,1932317522744000,8.973093,Walk
Fix,FLP,37.423129,-122.1605698,-7.599999904632568,1.2793049,8.04,324.26044,1678497502795,,,1932317673460783,1.7987783,Walk
Fix,FLP,37.4231353,-122.1605768,-7.599999904632568,1.2746056,8.111,324.7752,1678497503339,,,1932318216000000,1.7987783,Walk
Fix,GPS,37.4231005984,-122.1605903938,39.4678830327903,0.44050974,9.444085,331.2422,1678497501000,0.65908,47.320297,1932318522748000,8.958276,Walk
Fix,FLP,37.4231396,-122.1605842,-7.599999904632568,1.2190027,8.161,325.7037,1678497503881,,,1932318758624601,1.8088182,Walk
Fix,FLP,37.4231421,-122.1605885,-7.599999904632568,1.1748056,8.164,325.88422,1678497504424,,,1932319301205472,1.8088182,Walk
Fix,GPS,37.4230997476,-122.1606008504,38.55869341262333,0.48907095,9.588067,331.2422,1678497502000,0.69523865,28.007965,1932319522787000,8.956067,Walk
Fix,FLP,37.4231449,-122.1605963,-11.892616849495738,1.0795107,8.194,324.5198,1678497504966,,,1932319843788663,1.8177782,Walk
Fix,FLP,37.4231446,-122.1606027,-11.892616849495738,0.8511445,8.202,312.73703,1678497505509,,,1932320386369413,1.8177782,Walk
Fix,GPS,37.4231128457,-122.1606202763,37.84563785880484,0.42783698,9.286672,331.2422,1678497503000,0.5375189,26.664137,1932320522689000,8.815525,Walk
Fix,GPS,37.4231285092,-122.1606484367,37.35522021504429,0.42783698,8.727787,331.2422,1678497504000,0.7099933,180.0,1932321522708000,8.70918,Walk
Fix,FLP,37.4231423,-122.1606127,-3.90074390308623,0.6027936,8.198,312.7806,1678497506594,,,1932321471535795,1.8379068,Walk
Fix,GPS,37.4231352956,-122.1606673236,36.67676193025421,0.5290368,8.168005,331.2422,1678497505000,0.60600424,59.398132,1932322522766000,8.612736,Walk
Fix,FLP,37.4231359,-122.1606225,-3.90074390308623,0.48603755,8.043,314.00925,1678497507679,,,1932322556698148,1.8483168,Walk
Fix,FLP,37.4231299,-122.1606322,-3.90074390308623,0.42522925,7.853,302.76834,1678497508222,,,1932323099281888,1.8483168,Walk
Fix,GPS,37.4231392646,-122.1606869503,35.3674909014231,1.0350515,7.8789034,296.405,1678497506000,0.3971395,25.340929,1932323522776000,8.481311,Walk
Fix,FLP,37.4231278,-122.1606349,-5.162959376137486,0.40480965,7.822,296.30685,1678497508764,,,1932323641864286,1.8579168,Walk
Fix,GPS,37.4231487633,-122.1607063872,35.382644064388195,1.2876228,7.6423745,296.405,1678497507000,0.46094334,62.598663,1932324522779000,8.408044,Walk
Fix,FLP,37.4231267,-122.1606451,-3.8782209098452256,0.41039374,7.763,289.06775,1678497509307,,,1932324184448881,1.8675168,Walk
Fix,FLP,37.4231284,-122.1606525,-3.8782209098452256,0.43918437,7.708,288.8601,1678497509850,,,1932324727036160,1.8675168,Walk
Fix,GPS,37.4231539987,-122.1607140866,35.832180158998234,1.0950079,7.7329845,296.405,1678497508000,0.6036167,71.14691,1932325522781000,8.428372,Walk
Fix,FLP,37.4231307,-122.1606617,-11.33289855868582,0.46309987,7.674,286.17722,1678497510392,,,1932325269620329,1.0697937,Walk
Fix,FLP,37.4231337,-122.1606712,-11.33289855868582,0.48553395,7.61,284.47092,1678497510920,,,1932325797861906,1.0697937,Walk
Fix,FLP,37.4231368,-122.1606804,-11.33289855868582,0.5133014,7.667,286.15958,1678497511477,,,1932326354786771,1.0697937,Walk
Fix,GPS,37.4231558448,-122.1607223834,36.09359534775305,0.520304,7.9218235,296.405,1678497509000,0.6631968,56.9823,1932326522883000,8.478968,Walk
Fix,FLP,37.4231431,-122.1606953,-11.741686853135183,0.53549373,7.704,289.037,1678497512020,,,1932326897370267,1.0697888,Walk
Fix,GPS,37.423159218,-122.1607365878,35.83920281980267,0.8226816,8.10627,296.405,1678497510000,0.62722707,52.640217,1932327522810000,8.540747,Walk
