Fix,Provider,LatitudeDegrees,LongitudeDegrees,AltitudeMeters,SpeedMps,AccuracyMeters,BearingDegrees,UnixTimeMillis,SpeedAccuracyMps,BearingAccuracyDegrees,elapsedRealtimeNanos,VerticalAccuracyMeters,TransitType
Fix,FLP,37.4272577,-122.1729988,2.38418582e-08,0.16913688,26.658,127.697845,1678321577722,,,1756392600276714,1.7915024,Walk
Fix,GPS,37.4272787117,-122.1729549596,4.0005550789053,1.0626581,7.1322513,100.21972,1678321577999,0.47740746,39.756004,1756392941824000,8.302607,Walk
Fix,FLP,37.4272729,-122.1729722,2.38418582e-08,0.40179065,22.993,75.649796,1678321578245,,,1756393122967510,1.7919306,Walk
Fix,FLP,37.4272727,-122.1729503,2.38418582e-08,0.84520155,20.228,93.438324,1678321578971,,,1756393848333965,1.7952378,Walk
Fix,GPS,37.4272753186,-122.1729461977,3.891955707411442,1.0295138,7.1348515,100.21972,1678321578999,0.6137791,24.861162,1756393941820000,8.29427,Walk
Fix,FLP,37.4272723,-122.1729402,2.38418582e-08,0.9531558,17.093,96.1435,1678321579477,,,1756394354799236,1.7960777,Walk
Fix,GPS,37.4272737222,-122.1729376664,3.704519088722802,0.9969989,7.163973,106.86843,1678321579999,0.4858981,22.344536,1756394941839000,8.291582,Walk
Fix,FLP,37.4272715,-122.172936,2.38418582e-08,0.97067636,16.142,96.726135,1678321580074,,,1756394951702190,1.8056377,Walk
Fix,FLP,37.4272697,-122.1729287,2.38418582e-08,0.9782118,14.589,97.28246,1678321580581,,,1756395458170817,1.8056377,Walk
Fix,GPS,37.4272748568,-122.1729206986,3.2793041469048587,1.0425894,7.130843,130.4325,1678321580999,0.4320718,28.532682,1756395941870000,8.258361,Walk
Fix,FLP,37.427269,-122.1729255,2.38418582e-08,0.98289096,13.934,96.69927,1678321581087,,,1756395964644573,1.8152578,Walk
Fix,FLP,37.4272667,-122.1729166,2.38418582e-08,0.98998684,12.876,96.34702,1678321581630,,,1756396507292094,1.8152578,Walk
Fix,GPS,37.42727612,-122.1729094101,2.8922617163153967,1.0315087,7.072914,140.75351,1678321581999,0.4165936,31.26131,1756396941902000,8.213111,Walk
Fix,FLP,37.4272647,-122.1729107,2.38418582e-08,1.0000263,12.057,96.65555,1678321582211,,,1756397088476055,1.8256577,Walk
Fix,FLP,37.4272622,-122.1728984,2.38418582e-08,1.0152626,11.73,96.6889,1678321582751,,,1756397628782207,1.8256577,Walk
Fix,GPS,37.4272767608,-122.1729054075,2.5387987990757943,0.96427333,7.021627,140.75351,1678321582999,0.6389165,65.9173,1756397941902000,8.192115,Walk
Fix,FLP,37.4272597,-122.1728874,2.38418582e-08,1.0269293,8.099,97.32319,1678321583294,,,1756398171439067,1.8360478,Walk
Fix,FLP,37.4272578,-122.1728774,2.38418582e-08,1.0300024,7.674,97.858376,1678321583818,,,1756398696012371,1.8360478,Walk
Fix,GPS,37.427277191,-122.1728968202,1.9092932669846143,0.94348645,7.0384045,130.83168,1678321583999,0.52173686,28.264917,1756398941893000,8.185789,Walk
Fix,FLP,37.4272545,-122.1728674,2.38418582e-08,1.0278527,7.495,98.81542,1678321584379,,,1756399256762981,1.8456478,Walk
Fix,FLP,37.4272521,-122.1728598,2.38418582e-08,1.0272317,7.199,99.20238,1678321584903,,,1756399781333537,1.8456478,Walk
Fix,GPS,37.4272756941,-122.1728834664,1.3482142113782605,0.95953345,7.026625,129.83916,1678321584999,0.47695625,29.376549,1756399941906000,8.192086,Walk
Fix,GPS,37.4272724327,-122.1728714714,0.7461321428851004,0.9661958,7.048808,135.30013,1678321585999,0.4950923,35.379417,1756400941914000,8.202463,Walk
Fix,FLP,37.427247,-122.1728444,2.38418582e-08,1.0272263,6.992,100.026474,1678321586043,,,1756400920941753,1.8656378,Walk
Fix,FLP,37.4272422,-122.172834,2.38418582e-08,1.0239114,6.93,101.15642,1678321586568,,,1756401445527812,1.8656378,Walk
Fix,GPS,37.4272675315,-122.1728583213,0.206089943777458,0.9842701,7.13438,135.30013,1678321586999,0.7025356,85.392456,1756401941925000,8.232035,Walk
Fix,FLP,37.4272387,-122.172826,2.38418582e-08,1.0190202,6.915,102.359856,1678321587210,,,1756402087165508,1.8752378,Walk
Fix,FLP,37.4272362,-122.172819,2.38418582e-08,1.0195203,6.864,102.9,1678321587726,,,1756402603239010,1.8752378,Walk
Fix,GPS,37.4272599902,-122.1728419528,0.002579659151441,1.0310017,7.2797194,135.51285,1678321587999,0.7365818,39.70718,1756402941939000,8.265591,Walk
Fix,FLP,37.427233,-122.1728118,2.38418582e-08,1.0202816,6.754,103.82925,1678321588268,,,1756403145912900,1.8856378,Walk
Fix,FLP,37.4272305,-122.1728045,2.38418582e-08,1.0234989,6.661,104.28796,1678321588811,,,1756403688591183,1.8856378,Walk
Fix,GPS,37.4272557843,-122.1728274012,-0.4724719540563438,1.0479773,7.3502293,135.51285,1678321588999,0.7715637,176.93314,1756403941960000,8.276521,Walk
Fix,FLP,37.4272271,-122.1727961,2.38418582e-08,1.0280333,6.588,105.21725,1678321589354,,,1756404231270016,1.8960577,Walk
Fix,GPS,37.4272520326,-122.1728139116,-0.9271561989291524,1.0561205,7.395117,135.51285,1678321589999,0.7697996,27.347576,1756404941961000,8.291437,Walk
Fix,FLP,37.4272246,-122.1727896,2.38418582e-08,1.0303898,6.536,106.02569,1678321589896,,,1756404773949459,1.9056478,Walk
Fix,FLP,37.4272209,-122.1727798,2.38418582e-08,1.0310729,6.456,107.697044,1678321590439,,,1756405316626767,1.9056478,Walk
Fix,GPS,37.4272480395,-122.1728020202,-1.6953675570442477,1.0540736,7.4430666,135.51285,1678321590999,0.7404199,47.67865,1756405941983000,8.315565,Walk
Fix,FLP,37.427218,-122.1727735,2.38418582e-08,1.0286664,6.393,108.79098,1678321590982,,,1756405859297422,1.9152578,Walk
Fix,FLP,37.4272134,-122.1727637,2.38418582e-08,1.0215237,6.292,110.93535,1678321591523,,,1756406401997372,1.9152578,Walk
Fix,GPS,37.4272361637,-122.1727914802,-2.365953328857743,1.0070751,7.4799743,135.51285,1678321591999,0.7058487,180.0,1756406941995000,8.35466,Walk
Fix,FLP,37.42721,-122.1727587,2.38418582e-08,1.0046769,6.253,112.508675,1678321592067,,,1756406944676022,1.9255178,Walk
Fix,FLP,37.427205,-122.1727499,2.38418582e-08,0.9571619,6.189,115.02728,1678321592610,,,1756407487354733,1.9255178,Walk
Fix,GPS,37.4272306579,-122.1727947442,-2.898224337983562,0.3981806,7.7491055,135.51285,1678321592999,0.9651827,123.42074,1756407942009000,8.439695,Walk
Fix,FLP,37.4272008,-122.172747,2.38418582e-08,0.9062496,6.175,118.02219,1678321593152,,,1756408030037473,1.9355178,Walk
Fix,FLP,37.4271958,-122.1727436,2.38418582e-08,0.7385841,6.113,125.32001,1678321593695,,,1756408572720334,1.9355178,Walk
Fix,GPS,37.4272191395,-122.1728012349,-3.120650605076252,0.3981806,8.013031,135.51285,1678321593999,1.9598074,78.79729,1756408942023000,8.48159,Walk
Fix,FLP,37.4271926,-122.1727424,2.38418582e-08,0.7160228,6.066,126.490974,1678321594202,,,1756409079224484,1.9455677,Walk
Fix,FLP,37.4271878,-122.1727358,2.38418582e-08,0.69944704,5.951,127.00778,1678321594781,,,1756409658086301,1.9455677,Walk
Fix,GPS,37.4272077456,-122.1728070023,-3.3617329426490707,1.0898818,8.359979,135.51285,1678321594999,1.894564,45.539154,1756409942032000,8.512626,Walk
Fix,NLP,37.4271291,-122.1728258,-0.1000000014901161,,13.21,,1678321595808,,,1756410685000000,1.3344705,Walk
Fix,FLP,37.4271822,-122.1727246,-0.1000000014901161,0.7064217,5.757,127.92976,1678321595865,,,1756410743454343,1.369271,Walk
Fix,GPS,37.4272006252,-122.1728139144,-3.3212828387863587,0.9580668,8.702616,135.51285,1678321595999,1.0484486,33.419647,1756410942309000,8.550318,Walk
Fix,FLP,37.4271765,-122.1727157,-0.1000000014901161,0.7527553,5.627,129.27647,1678321596409,,,1756411286134335,1.3663058,Walk
Fix,GPS,37.4271906056,-122.1728137549,-3.5315294255768253,1.0076314,8.82899,184.49236,1678321596999,0.7343964,42.779976,1756411942127000,8.570336,Walk
Fix,FLP,37.4271728,-122.1727119,-0.1000000014901161,0.7646014,5.567,129.66438,1678321596951,,,1756411828816220,1.3754058,Walk
Fix,FLP,37.4271701,-122.1727058,-0.1000000014901161,0.7759346,5.547,129.28258,1678321597451,,,1756412328949948,1.3754058,Walk
Fix,FLP,37.4271675,-122.1727003,-0.1000000014901161,0.78804517,5.553,128.96681,1678321598033,,,1756412910000000,1.3754058,Walk
Fix,GPS,37.4271758205,-122.1728082137,-3.5404746444726314,1.1744795,8.850418,164.69295,1678321597999,0.58007866,39.764183,1756412942201000,8.585917,Walk
Fix,FLP,37.4271642,-122.1726897,-0.1000000014901161,0.8140004,5.561,128.34341,1678321598579,,,1756413456856442,1.389784,Walk
Fix,GPS,37.427160823,-122.1728054595,-3.578733520407424,1.250868,8.778412,164.69295,1678321598999,0.5922589,44.47246,1756413942227000,8.5941515,Walk
Fix,FLP,37.427164,-122.1726871,-0.1000000014901161,0.83136016,5.591,128.2551,1678321599122,,,1756413999544004,1.3953558,Walk
Fix,FLP,37.4271611,-122.1726775,-0.1000000014901161,0.84979385,5.647,127.84827,1678321599665,,,1756414542211240,1.3953558,Walk
Fix,GPS,37.4271414442,-122.1727933431,-3.359999731729047,1.458761,8.485063,179.57022,1678321599999,0.52020764,20.998716,1756414942137000,8.575898,Walk
Fix,FLP,37.4271609,-122.1726747,-0.1000000014901161,0.868292,5.745,127.54012,1678321600206,,,1756415084886410,1.4068571,Walk
Fix,FLP,37.4271589,-122.1726659,-0.1000000014901161,0.89048177,5.794,126.665665,1678321600749,,,1756415627553708,1.3871816,Walk
Fix,NLP,37.4270105,-122.17293,-0.1000000014901161,,22.499,,1678321600844,,,1756415721000000,1.4180279,Walk
Fix,GPS,37.4271210196,-122.1727870712,-3.811699384128521,1.5908751,8.182858,170.03847,1678321600999,0.49807134,21.072798,1756415942151000,8.553214,Walk
Fix,FLP,37.4271553,-122.172655,-0.1000000014901161,0.9510696,6.095,124.84902,1678321601835,,,1756416712903195,1.3908056,Walk
Fix,GPS,37.427101486,-122.1727805913,-4.104873050030236,1.6662508,7.8753133,173.63058,1678321601999,0.46659514,23.172546,1756416942190000,8.515225,Walk
Fix,FLP,37.4271446,-122.1726568,-0.1000000014901161,0.969352,7.305,127.845245,1678321602921,,,1756417798240170,1.4008617,Walk
Fix,GPS,37.4270834365,-122.172775582,-4.284133236200285,1.6917987,7.6607423,144.79665,1678321602999,0.45701328,24.194256,1756417942176000,8.436308,Walk
Fix,GPS,37.4270696385,-122.1727670702,-4.760010577181014,1.6736065,7.5368714,142.16469,1678321603999,0.47124216,15.690189,1756418942399000,8.366975,Walk
Fix,FLP,37.4271259,-122.1726703,-0.1000000014901161,0.9969932,9.208,132.42357,1678321604006,,,1756418883571225,1.4200526,Walk
Fix,GPS,37.4270546368,-122.1727561423,-4.868586674790653,1.6896236,7.457835,148.10553,1678321604999,0.51897615,16.945911,1756419942202000,8.335539,Walk
Fix,FLP,37.4271019,-122.1726853,-0.1000000014901161,1.049396,10.742,135.09967,1678321605091,,,1756419968888058,1.4301127,Walk
Fix,FLP,37.4270814,-122.1726949,-0.1000000014901161,1.0995172,11.747,137.55653,1678321605634,,,1756420511555539,1.4301127,Walk
Fix,NLP,37.4269975,-122.1728715,-0.1000000014901161,,23.342,,1678321605931,,,1756420808000000,1.6899186,Walk
Fix,GPS,37.4270395302,-122.1727457104,-5.110687301861515,1.7023,7.350184,173.14662,1678321605999,0.49902344,18.246273,1756420942399000,8.299786,Walk
Fix,FLP,37.4270674,-122.1727089,-0.1000000014901161,1.1235827,12.55,139.43521,1678321606176,,,1756421054213986,1.5390943,Walk
Fix,FLP,37.4270501,-122.1727151,-0.1000000014901161,1.1335031,13.12,142.63548,1678321606719,,,1756421596870602,1.5390943,Walk
Fix,GPS,37.4270217015,-122.1727433099,-5.2762703916662765,1.7156678,7.3345795,169.85988,1678321606999,0.5101181,24.952248,1756421942287000,8.276767,Walk
Fix,FLP,37.4270449,-122.1727179,-0.1000000014901161,1.1457887,13.645,144.80156,1678321607262,,,1756422139514340,1.5441475,Walk
Fix,GPS,37.4270092985,-122.1727378505,-5.3080714115185055,1.6739199,7.2817173,163.1412,1678321607999,0.5272834,26.408234,1756422942209000,8.258331,Walk
Fix,FLP,37.4270273,-122.1727184,-0.1000000014901161,1.18024,13.921,148.33644,1678321607805,,,1756422682180294,1.5430111,Walk
Fix,FLP,37.4270181,-122.1727183,-0.1000000014901161,1.2018285,13.689,149.48906,1678321608347,,,1756423224832821,1.5430111,Walk
Fix,GPS,37.4269956953,-122.1727349415,-5.570920464675466,1.643309,7.329064,175.85692,1678321608999,0.5275336,31.929174,1756423942259000,8.24161,Walk
Fix,FLP,37.4270083,-122.1727175,-0.1000000014901161,1.2225707,13.641,150.59244,1678321608890,,,1756423767473630,1.5441417,Walk
Fix,FLP,37.4269984,-122.1727175,-0.1000000014901161,1.235108,13.32,152.44455,1678321609433,,,1756424310133114,1.5441417,Walk
Fix,GPS,37.426983077,-122.1727334699,-5.907537949823719,1.604665,7.2823935,164.1199,1678321609999,0.50028753,32.38055,1756424942538000,8.195669,Walk
Fix,FLP,37.4269895,-122.1727177,-0.1000000014901161,1.2467756,13.227,154.24962,1678321609975,,,1756424852781247,1.5541517,Walk
Fix,FLP,37.42698,-122.1727169,-0.1000000014901161,1.2637813,13.141,155.06915,1678321610518,,,1756425395428830,1.5541517,Walk
Fix,GPS,37.4269731027,-122.1727312622,-6.028042595116734,1.5439667,7.2279577,164.1199,1678321610999,0.4807439,49.8547,1756425942320000,8.128367,Walk
Fix,FLP,37.4269722,-122.1727165,-0.1000000014901161,1.279017,12.714,155.94983,1678321611061,,,1756425938073727,1.5651617,Walk
Fix,FLP,37.4269636,-122.1727153,-0.1000000014901161,1.2905184,12.64,156.5904,1678321611603,,,1756426480718319,1.5651617,Walk
Fix,GPS,37.4269641709,-122.1727278523,-6.301738366955674,1.4852445,7.2281837,164.1199,1678321611999,0.57964903,11.813892,1756426942294000,8.073901,Walk
Fix,FLP,37.4269577,-122.1727152,-0.1000000014901161,1.301471,12.331,157.22614,1678321612145,,,1756427023354856,1.5751917,Walk
Fix,FLP,37.4269495,-122.1727135,-0.1000000014901161,1.3090879,12.126,157.7405,1678321612689,,,1756427566003842,1.5751917,Walk
Fix,GPS,37.4269538323,-122.1727241056,-6.555952572498819,1.4476016,7.2476244,161.8252,1678321612999,0.5074882,28.119934,1756427942304000,8.059369,Walk
Fix,FLP,37.4269442,-122.1727129,-0.1000000014901161,1.3174918,12.046,158.09108,1678321613231,,,1756428108644955,1.5841517,Walk
Fix,FLP,37.4269373,-122.1727099,-0.1000000014901161,1.3221395,11.84,158.09303,1678321613752,,,1756428629000000,1.5841517,Walk
Fix,GPS,37.426941415,-122.1727160053,-6.744396497166034,1.4405915,7.1946964,127.25603,1678321613999,0.5042645,28.557354,1756428942447000,8.046164,Walk
Fix,FLP,37.4269286,-122.1727062,-0.1000000014901161,1.3285091,11.491,157.92319,1678321614316,,,1756429193923275,1.5941517,Walk
Fix,GPS,37.4269316745,-122.1727103866,-6.7394099811840364,1.4058268,7.1700344,142.22125,1678321614999,0.5796955,40.1877,1756429942624000,8.038012,Walk
Fix,FLP,37.4269245,-122.1727036,-0.1000000014901161,1.3353034,11.304,157.84776,1678321614859,,,1756429736558347,1.6041617,Walk
Fix,FLP,37.4269149,-122.1726984,-0.1000000014901161,1.3407693,11.046,157.8657,1678321615402,,,1756430279197629,1.6041617,Walk
Fix,GPS,37.4269201511,-122.1727055016,-6.843947725045604,1.3858033,7.2307076,165.42435,1678321615999,0.5544923,40.118626,1756430942429000,8.04502,Walk
Fix,FLP,37.4269102,-122.1726954,-0.1000000014901161,1.347028,10.801,157.84546,1678321615944,,,1756430821835630,1.6142017,Walk
Fix,FLP,37.4269004,-122.172691,-0.1000000014901161,1.3501792,10.402,157.9089,1678321616451,,,1756431328949948,1.6142017,Walk
Fix,GPS,37.426909808,-122.1727022615,-7.013971115597821,1.3544786,7.3040943,165.42435,1678321616999,0.55649173,30.560852,1756431942715000,8.049992,Walk
Fix,FLP,37.4268961,-122.1726891,-0.1000000014901161,1.3550943,10.03,157.84732,1678321617030,,,1756431907100766,1.6241517,Walk
Fix,FLP,37.4268856,-122.1726849,-0.1000000014901161,1.3567253,9.56,157.98872,1678321617572,,,1756432449732785,1.6241517,Walk
Fix,GPS,37.4268970061,-122.1727011822,-7.023581480554642,1.3529799,7.2385025,169.36436,1678321617999,0.50368035,18.789125,1756432942405000,8.071078,Walk
Fix,FLP,37.4268814,-122.1726834,-0.1000000014901161,1.3589468,9.117,158.3214,1678321618115,,,1756432992363888,1.6351717,Walk
Fix,FLP,37.4268707,-122.1726797,-0.1000000014901161,1.3591506,8.696,158.71259,1678321618657,,,1756433534993710,1.6351717,Walk
Fix,GPS,37.4268796144,-122.1726954703,-6.881907550946438,1.3998334,7.196557,169.07695,1678321618999,0.57143235,19.729507,1756433943007000,8.111408,Walk
Fix,FLP,37.4268667,-122.1726788,-0.1000000014901161,1.3613777,8.318,159.036,1678321619200,,,1756434077612362,1.6441517,Walk
Fix,FLP,37.4268551,-122.1726754,-0.1000000014901161,1.3646482,7.894,159.34933,1678321619743,,,1756434620247861,1.6441517,Walk
Fix,GPS,37.4268628828,-122.1726869425,-6.422168255237339,1.4427034,7.1892366,159.4472,1678321619999,0.598517,23.931973,1756434942445000,8.1299305,Walk
Fix,NLP,37.4267849,-122.1727679,2.38418582e-08,,33.812,,1678321620156,,,1756435033000000,1.9678603,Walk
Fix,FLP,37.4268396,-122.1726721,2.38418582e-08,1.3741405,7.119,159.72482,1678321620827,,,1756435705504025,1.6607153,Walk
Fix,GPS,37.4268499279,-122.1726779602,-6.6057455047673,1.4501519,7.247758,155.67969,1678321620999,0.53447855,27.393679,1756435942388000,8.16341,Walk
Fix,FLP,37.4268238,-122.1726677,2.38418582e-08,1.386074,6.71,159.6244,1678321621913,,,1756436790752743,1.663276,Walk
Fix,GPS,37.426838845,-122.1726686978,-6.274370633161747,1.4450583,7.280551,141.51384,1678321621999,0.4860083,21.12522,1756436942506000,8.160122,Walk
Fix,FLP,37.4268089,-122.172663,2.38418582e-08,1.3962673,6.499,159.5852,1678321622975,,,1756437852000000,1.6725097,Walk
Fix,GPS,37.4268277015,-122.1726530217,-6.307742398072676,1.4739064,7.2758913,130.90244,1678321622999,0.47532967,15.266053,1756437942499000,8.14783,Walk
Fix,FLP,37.4267972,-122.1726592,2.38418582e-08,1.4006023,6.355,159.45512,1678321623541,,,1756438418618649,1.6819967,Walk
Fix,GPS,37.4268145078,-122.1726371018,-6.543859202363538,1.513239,7.2151833,144.4984,1678321623999,0.47182128,17.788942,1756438942507000,8.126968,Walk
Fix,FLP,37.4267953,-122.1726586,2.38418582e-08,1.4056942,6.381,159.32785,1678321624083,,,1756438961238766,1.6925197,Walk
Fix,FLP,37.4267853,-122.172654,2.38418582e-08,1.4078363,6.353,159.1476,1678321624626,,,1756439503846737,1.6925197,Walk
Fix,NLP,37.4266728,-122.1728366,2.38418582e-08,,40.88,,1678321625095,,,1756439972000000,1.6508145,Walk
Fix,GPS,37.4268009388,-122.172626679,-6.40384616734142,1.5279586,7.2003613,159.92636,1678321624999,0.4758562,19.27303,1756439942448000,8.100102,Walk
Fix,FLP,37.4267847,-122.1726535,2.38418582e-08,1.4160048,6.449,158.55797,1678321625169,,,1756440046476620,1.6358417,Walk
Fix,FLP,37.426777,-122.1726438,2.38418582e-08,1.4162999,6.87,158.06337,1678321625712,,,1756440589097104,1.6358417,Walk
Fix,GPS,37.4267891459,-122.1726157333,-6.103532761235124,1.5311613,7.0767775,149.28976,1678321625999,0.46755478,17.973745,1756440942563000,8.068433,Walk
Fix,FLP,37.4267704,-122.1726313,2.38418582e-08,1.4193617,7.892,157.02052,1678321626797,,,1756441674328183,1.6448218,Walk
Fix,GPS,37.4267788869,-122.1726038942,-6.118986587048436,1.5222096,7.0793066,124.139,1678321626999,0.49508038,25.61582,1756441942637000,8.063889,Walk
Fix,FLP,37.4267648,-122.1726147,2.38418582e-08,1.404833,8.857,154.47717,1678321627882,,,1756442759556149,1.654748,Walk
Fix,GPS,37.4267738966,-122.172588935,-6.499032385400741,1.504372,7.045771,121.2627,1678321627999,0.502877,23.443647,1756442942619000,8.068451,Walk
Fix,FLP,37.42676,-122.1725953,2.38418582e-08,1.3745663,9.645,150.655,1678321628967,,,1756443844787839,1.665579,Walk
Fix,GPS,37.4267666075,-122.1725733767,-6.484976673657451,1.5003963,7.0996466,122.85393,1678321628999,0.49776626,22.113195,1756443942549000,8.075086,Walk
Fix,FLP,37.4267539,-122.1725767,2.38418582e-08,1.3563846,10.822,147.17374,1678321630053,,,1756444930012936,1.674808,Walk
Fix,NLP,37.4268541,-122.1727757,2.38418582e-08,,29.589,,1678321630162,,,1756445039000000,1.7326595,Walk
Fix,GPS,37.4267573399,-122.1725603254,-6.540378231325876,1.4979789,7.1505976,141.86002,1678321629999,0.5062311,17.89463,1756444942591000,8.103555,Walk
Fix,FLP,37.4267466,-122.1725585,2.38418582e-08,1.3590707,10.962,144.15172,1678321631137,,,1756446015237790,1.6492687,Walk
Fix,GPS,37.4267463625,-122.1725475656,-6.019902570132856,1.5044682,7.158109,136.40532,1678321630999,0.49657404,19.62486,1756445942525000,8.086327,Walk
Fix,FLP,37.4267369,-122.172544,2.38418582e-08,1.3706862,10.921,143.09267,1678321632209,,,1756447086000000,1.6687756,Walk
Fix,GPS,37.4267372637,-122.1725366157,-5.862999089497828,1.4932016,7.17224,125.799774,1678321631999,0.48214337,15.78772,1756446942622000,8.070955,Walk
Fix,FLP,37.4267302,-122.1725304,2.38418582e-08,1.3694998,11.092,141.17554,1678321632765,,,1756447643063717,1.6687756,Walk
Fix,GPS,37.4267273053,-122.1725220387,-5.720671730889732,1.5064542,7.2247796,125.770515,1678321632999,0.53063214,17.057135,1756447942612000,8.064851,Walk
Fix,FLP,37.4267268,-122.1725196,2.38418582e-08,1.367665,11.106,139.0221,1678321633851,,,1756448728279660,1.6794251,Walk
Fix,GPS,37.4267159661,-122.1725017,-5.463114598502301,1.5490764,7.1578827,138.08662,1678321633999,0.53937423,30.017328,1756448942583000,7.9092636,Walk
Fix,GPS,37.4267070961,-122.1724911721,-4.919436218168232,1.5223228,7.236803,132.9955,1678321634999,0.68286717,35.870613,1756449942630000,7.9531193,Walk
Fix,FLP,37.4267181,-122.1725015,2.38418582e-08,1.3784851,11.389,136.63898,1678321634936,,,1756449813492795,1.6993272,Walk
Fix,FLP,37.4267121,-122.1724915,2.38418582e-08,1.3867112,11.577,136.65648,1678321635451,,,1756450328949948,1.6993272,Walk
Fix,GPS,37.4267011041,-122.1724747716,-5.03498699656402,1.5215086,7.3982377,107.99257,1678321635999,0.58213186,19.682684,1756450942723000,8.092321,Walk
Fix,FLP,37.4267089,-122.1724871,2.38418582e-08,1.3782094,11.66,138.22166,1678321636021,,,1756450898703976,1.7082872,Walk
Fix,FLP,37.4267039,-122.1724758,2.38418582e-08,1.3679495,11.765,138.2431,1678321636564,,,1756451441306088,1.7082872,Walk
Fix,GPS,37.4266937025,-122.1724573193,-5.915866538836892,1.5357165,7.5250998,114.46535,1678321636999,0.7185984,22.170103,1756451942627000,8.265098,Walk
Fix,FLP,37.4267029,-122.1724687,2.38418582e-08,1.3550713,11.805,136.23393,1678321637105,,,1756451983901730,1.7182271,Walk
Fix,FLP,37.4266994,-122.1724559,2.38418582e-08,1.346507,11.849,133.24565,1678321637649,,,1756452526517514,1.7182271,Walk
Fix,FLP,37.4266966,-122.1724487,-6.394038723588537,1.3522986,11.93,132.39798,1678321638192,,,1756453069126218,1.7282372,Walk
Fix,GPS,37.4266855622,-122.1724396416,-6.584358625032318,1.5535353,7.6447,122.778404,1678321637999,0.65913576,21.63061,1756452942733000,8.422818,Walk
Fix,FLP,37.4266903,-122.1724359,-6.394038723588537,1.3666903,12.034,131.19211,1678321638734,,,1756453611719906,1.7282372,Walk
Fix,GPS,37.4266771527,-122.172426453,-6.649253031720359,1.5408766,7.826933,132.19745,1678321638999,0.76422954,36.090954,1756453942673000,8.602655,Walk
Fix,FLP,37.4266847,-122.1724292,-9.322459414500514,1.3837646,12.311,130.9425,1678321639277,,,1756454154325864,1.7392672,Walk
Fix,FLP,37.4266797,-122.1724205,-9.322459414500514,1.3928732,12.312,130.93335,1678321639819,,,1756454696926572,1.7392672,Walk
Fix,GPS,37.4266746895,-122.1724179044,-6.476756226704883,1.470383,7.957979,132.19745,1678321639999,0.7485874,180.0,1756454942825000,8.766382,Walk
Fix,FLP,37.426676,-122.1724119,-2.8729154889004533,1.4035319,12.398,130.91937,1678321640356,,,1756455233000000,1.7482371,Walk
Fix,FLP,37.4266726,-122.1724044,-2.8729154889004533,1.4065378,12.484,130.69911,1678321640873,,,1756455750000000,1.7482371,Walk
Fix,GPS,37.4266717422,-122.1724041289,-6.449088394166455,1.4426587,8.056147,119.67351,1678321640999,0.674115,29.517752,1756455942732000,8.903294,Walk
Fix,FLP,37.4266691,-122.1723915,4.25746483747772,1.4071677,12.817,129.60681,1678321641447,,,1756456324729367,1.7582372,Walk
Fix,GPS,37.4266675991,-122.1723947398,-6.142308127766503,1.3915302,8.17073,119.67351,1678321641999,0.7053066,164.45761,1756456942861000,9.03035,Walk
Fix,FLP,37.4266687,-122.1723869,4.211793412346768,1.4057873,12.991,128.98207,1678321641990,,,1756456867328427,1.7682272,Walk
Fix,FLP,37.4266663,-122.1723745,4.211793412346768,1.3999145,13.015,127.69631,1678321642532,,,1756457409927548,1.7682272,Walk
Fix,GPS,37.426664048,-122.1723849734,-5.889254290580636,1.3435023,8.357419,119.67351,1678321642999,0.7775829,37.743183,1756457942812000,9.15752,Walk
Fix,FLP,37.4266659,-122.17237,4.169166971515562,1.3973265,12.873,126.99455,1678321643075,,,1756457952525265,1.7782272,Walk
Fix,FLP,37.4266626,-122.172357,4.169166971515562,1.3868475,12.409,125.39747,1678321643618,,,1756458495112546,1.7782272,Walk
Fix,GPS,37.426663675,-122.1723736617,-5.692565678584462,1.3063003,8.514846,105.36467,1678321643999,0.73478943,30.105074,1756458942753000,9.262463,Walk
Fix,FLP,37.4266614,-122.172351,2.662155952418061,1.3822612,12.125,124.53534,1678321644160,,,1756459037719784,1.7892272,Walk
Fix,FLP,37.4266576,-122.1723358,2.662155952418061,1.3644313,11.419,122.50317,1678321644703,,,1756459580315976,1.7892272,Walk
Fix,GPS,37.4266632537,-122.1723687745,-5.838884474106019,1.2300255,8.610489,123.757645,1678321644999,0.66636455,34.687782,1756459942839000,9.288751,Walk
Fix,FLP,37.4266584,-122.1723327,2.662155952418061,1.3480791,11.079,120.67979,1678321645245,,,1756460122914365,1.7992471,Walk
Fix,GPS,37.4266539195,-122.1723263181,-3.285721425002426,1.0856769,7.9178696,106.745285,1678321645999,0.3769815,11.068142,1756460942749000,8.932594,Walk
Fix,FLP,37.4266567,-122.1723185,19.315584142385315,1.298073,9.937,116.354416,1678321645788,,,1756460665506467,1.8089072,Walk
Fix,FLP,37.4266579,-122.1723127,19.315584142385315,1.1972842,9.421,115.73735,1678321646331,,,1756461208100583,1.8089072,Walk
Fix,FLP,37.4266613,-122.1723099,19.315584142385315,1.0685467,8.857,115.67253,1678321646873,,,1756461750696408,1.8089072,Walk
Fix,GPS,37.4266502517,-122.1723042805,-3.6259581672747134,1.4236262,7.682411,95.78639,1678321646999,0.35529187,15.478808,1756461942747000,8.805326,Walk
Fix,FLP,37.4266662,-122.1723064,19.315584142385315,0.94895214,7.667,111.90867,1678321647416,,,1756462293288083,1.8185072,Walk
Fix,FLP,37.4266683,-122.1723014,19.315584142385315,0.9440063,7.452,108.66123,1678321647958,,,1756462835880978,1.8185072,Walk
Fix,GPS,37.4266474282,-122.1722893014,-3.032618530407508,1.3700612,7.379422,129.42722,1678321647999,0.36335763,16.813284,1756462943089000,8.610364,Walk
Fix,NLP,37.4270719,-122.172633,-0.1000000014901161,,67.993,,1678321648363,,,1756463240000000,2.2690163,Walk
Fix,FLP,37.4266707,-122.1722945,15.901068290555418,0.9550523,6.936,101.948166,1678321648501,,,1756463378474179,1.6418709,Walk
Fix,FLP,37.42667,-122.1722877,15.901068290555418,0.96691793,6.901,100.7643,1678321649044,,,1756463921067929,1.6418709,Walk
Fix,GPS,37.4266415968,-122.1722731274,-2.623909557809283,1.3948649,7.27402,101.287186,1678321648999,0.504813,22.743746,1756463942777000,8.498293,Walk
Fix,GPS,37.4266388598,-122.172261075,-3.0938464512796906,1.3105848,7.390478,108.866844,1678321649999,0.6319971,25.816217,1756464943101000,8.557428,Walk
Fix,FLP,37.4266658,-122.1722714,5.371924081334409,0.9964758,6.745,101.17017,1678321650129,,,1756465006254697,1.6613841,Walk
Fix,FLP,37.42666,-122.1722606,5.371924081334409,0.99974036,6.684,103.43013,1678321650658,,,1756465535000000,1.6613841,Walk
Fix,GPS,37.4266362874,-122.1722524177,-3.5461073112586257,1.2004948,7.6053324,113.0899,1678321650999,0.6524144,33.51956,1756465942866000,8.668357,Walk
Fix,FLP,37.4266537,-122.1722531,3.151778216569099,1.0113432,6.653,107.04168,1678321651160,,,1756466037182492,1.671712,Walk
Fix,FLP,37.4266475,-122.1722454,3.151778216569099,1.0137889,6.622,108.88793,1678321651703,,,1756466580000000,1.671712,Walk
Fix,GPS,37.4266317765,-122.1722460714,-4.095702851297817,1.114471,7.8183203,113.0899,1678321651999,0.71072364,60.044186,1756466942863000,8.793941,Walk
Fix,FLP,37.4266374,-122.1722362,-0.1000000014901161,0.997142,6.56,114.09483,1678321652298,,,1756467176616940,1.6837925,Walk
Fix,NLP,37.4263099,-122.1722002,1.5,,29.482,,1678321653108,,,1756467985000000,5.3905597,Walk
Fix,FLP,37.4266332,-122.1722338,-1.828361356137009,0.9539392,6.538,117.067314,1678321652842,,,1756467719221921,1.7098343,Walk
Fix,GPS,37.4266272934,-122.172242439,-4.808129903119877,1.0331163,8.04097,113.0899,1678321652999,0.99063426,180.0,1756467942856000,8.930875,Walk
Fix,FLP,37.4266253,-122.1722322,-1.828361356137009,0.8632391,6.537,123.97153,1678321653384,,,1756468261815304,1.7098343,Walk
Fix,GPS,37.4266235134,-122.172243328,-5.386849081500658,0.86847574,8.275885,113.0899,1678321653999,0.79189026,180.0,1756468942922000,9.065114,Walk
Fix,FLP,37.4266157,-122.1722307,-3.0757265703317174,0.78086746,6.529,132.39944,1678321653927,,,1756468804408200,1.7798783,Walk
Fix,FLP,37.4266069,-122.1722308,-3.0757265703317174,0.7172392,6.649,141.43184,1678321654451,,,1756469328949948,1.7798783,Walk
Fix,GPS,37.4266205957,-122.1722396247,-6.074300646508939,0.7542184,8.32226,113.0899,1678321654999,0.74026537,180.0,1756469942953000,9.06746,Walk
Fix,FLP,37.4266024,-122.1722317,-0.1000000014901161,0.6930574,6.753,146.03456,1678321655011,,,1756469889593564,1.8348159,Walk
Fix,FLP,37.4265954,-122.1722307,-0.1000000014901161,0.66841274,6.875,151.14455,1678321655555,,,1756470432185666,1.8348159,Walk
Fix,GPS,37.4266154475,-122.1722375535,-6.265129196257809,0.45810473,8.362854,113.0899,1678321655999,0.806484,35.795647,1756470942933000,9.014861,Walk
Fix,FLP,37.4265907,-122.1722316,-0.1000000014901161,0.6531767,7.047,155.70824,1678321656097,,,1756470974776913,1.8437859,Walk
Fix,FLP,37.4265815,-122.1722321,-0.1000000014901161,0.6233522,7.455,165.08772,1678321656640,,,1756471517368222,1.8437859,Walk
Fix,GPS,37.4266073418,-122.1722363018,-6.561040577667272,0.5993191,8.403112,113.0899,1678321656999,0.8117846,46.87755,1756471943198000,8.951534,Walk
Fix,FLP,37.4265772,-122.1722326,7.007846905035013,0.6125389,7.718,168.99828,1678321657182,,,1756472059958554,1.8884168,Walk
Fix,FLP,37.4265678,-122.1722323,7.007846905035013,0.6072155,8.227,173.8679,1678321657725,,,1756472602548092,1.8884168,Walk
Fix,GPS,37.4265944808,-122.1722310987,-6.838173369355475,0.9473647,8.419163,113.0899,1678321657999,0.6855467,66.08443,1756472942942000,8.880183,Walk
Fix,FLP,37.4265561,-122.1722316,9.613389076454736,0.62585145,9.01,176.66046,1678321658796,,,1756473673000000,1.8983567,Walk
Fix,GPS,37.4265837196,-122.1722293351,-6.907185933819122,1.0110766,8.38304,205.16846,1678321658999,0.6575095,38.96358,1756473942943000,8.804489,Walk
Fix,FLP,37.4265448,-122.1722315,9.613389076454736,0.6581114,9.605,178.67998,1678321659353,,,1756474230304501,1.9083368,Walk
Fix,GPS,37.4265736125,-122.1722316646,-6.816844613479083,1.0320638,8.429922,205.16846,1678321659999,0.81691355,11.811599,1756474942967000,8.781186,Walk
Fix,FLP,37.4265394,-122.1722323,9.613389076454736,0.6762267,9.76,179.6647,1678321659895,,,1756474772891354,1.9183667,Walk
Fix,FLP,37.4265299,-122.1722347,9.613389076454736,0.70786506,9.882,181.38109,1678321660438,,,1756475315490231,1.9183667,Walk
Fix,GPS,37.4265648372,-122.17224086,-6.947903978549834,1.077883,8.5047035,211.56021,1678321660999,0.73311734,36.22221,1756475943069000,8.778665,Walk
Fix,FLP,37.4265247,-122.1722367,9.613389076454736,0.72505605,9.923,181.86417,1678321660981,,,1756475858068600,1.9283668,Walk
Fix,FLP,37.4265136,-122.1722421,9.613389076454736,0.7578926,9.869,182.69133,1678321661523,,,1756476400668271,1.9283668,Walk
Fix,GPS,37.4265495206,-122.1722514461,-7.416002651210152,1.2483059,8.571494,207.35628,1678321661999,0.6747124,25.313965,1756476943031000,8.788669,Walk
Fix,FLP,37.4265082,-122.1722446,3.3420535875673423,0.77506584,9.844,182.75696,1678321662066,,,1756476943251157,1.9383467,Walk
Fix,FLP,37.4264967,-122.1722504,3.3420535875673423,0.81225395,9.625,183.07672,1678321662607,,,1756477485839474,1.9383467,Walk
Fix,GPS,37.4265385554,-122.1722562781,-7.488435966055538,1.2442844,8.682211,207.35628,1678321662999,0.7254708,46.602085,1756477943006000,8.846027,Walk
Fix,FLP,37.4264909,-122.172253,17.347418537308652,0.8338761,9.5,183.37778,1678321663151,,,1756478028423398,1.9483567,Walk
Fix,FLP,37.4264808,-122.1722597,17.347418537308652,0.86936605,9.166,184.27841,1678321663694,,,1756478571009579,1.9483567,Walk
Fix,GPS,37.4265294986,-122.1722639431,-7.559905972083056,1.2259604,8.727815,207.35628,1678321663999,0.69167346,26.90894,1756478943033000,8.900534,Walk
Fix,FLP,37.4264769,-122.1722625,20.15798925903009,0.88670856,8.929,184.65851,1678321664236,,,1756479113594968,1.9583668,Walk
Fix,FLP,37.4264687,-122.1722678,20.15798925903009,0.91460407,8.55,185.30408,1678321664779,,,1756479656179929,1.9583668,Walk
Fix,GPS,37.4265220408,-122.1722732288,-7.521635859601007,1.2029301,8.813878,207.35628,1678321664999,0.6639491,66.06453,1756479943250000,8.94524,Walk
Fix,FLP,37.4264598,-122.1722738,15.278593849676849,0.9380064,7.906,185.88657,1678321665822,,,1756480699000000,1.9683567,Walk
Fix,GPS,37.4265090889,-122.1722825086,-7.998813950226211,1.2499326,8.826952,203.7276,1678321665999,0.65721065,29.58285,1756480943085000,8.991201,Walk
Fix,FLP,37.4264551,-122.1722786,13.55673803122949,0.95929676,7.389,186.46674,1678321666395,,,1756481272000000,1.9783868,Walk
Fix,GPS,37.4264919042,-122.172296934,-7.751791145318557,1.3655344,8.702415,224.83777,1678321666999,0.62926495,22.470936,1756481943336000,8.969742,Walk
Fix,FLP,37.4264494,-122.1722821,6.452013849300858,0.9808483,7.03,187.02513,1678321666948,,,1756481826517819,1.9883667,Walk
Fix,FLP,37.4264421,-122.1722858,6.452013849300858,1.0049419,6.697,187.59708,1678321667451,,,1756482328949948,1.9883667,Walk
Fix,GPS,37.4264817263,-122.1723069753,-7.824826337489465,1.3623724,8.817163,219.5393,1678321667999,0.6563634,32.983063,1756482943070000,9.026592,Walk
Fix,FLP,37.4264391,-122.1722874,6.282986934188084,1.0207843,6.545,187.80255,1678321668034,,,1756482911684811,1.9983567,Walk
Fix,FLP,37.4264312,-122.1722912,6.282986934188084,1.0461453,6.349,188.18271,1678321668577,,,1756483454268002,1.9983567,Walk
Fix,GPS,37.4264694118,-122.172315664,-8.12831853943655,1.3736163,8.929203,233.35396,1678321668999,0.7279455,29.928984,1756483943097000,9.113866,Walk
Fix,FLP,37.4264284,-122.1722926,6.282986934188084,1.0600458,6.298,188.3399,1678321669118,,,1756483996850827,2.0083368,Walk
Fix,FLP,37.4264199,-122.1722963,6.282986934188084,1.0823839,6.214,188.66516,1678321669662,,,1756484539433286,2.0083368,Walk
Fix,GPS,37.4264546349,-122.1723264269,-8.15982786969768,1.4125122,9.012581,230.81181,1678321669999,0.70004797,32.89036,1756484943150000,9.190825,Walk
Fix,FLP,37.4264176,-122.1722975,10.29283040171569,1.0953593,6.212,188.76208,1678321670205,,,1756485082018552,2.0183568,Walk
Fix,FLP,37.4264093,-122.1723012,10.29283040171569,1.1167585,6.162,188.99356,1678321670747,,,1756485624594967,2.0183568,Walk
Fix,GPS,37.4264408287,-122.1723381105,-8.150623426402994,1.4404532,9.089076,209.3016,1678321670999,0.7870003,33.864143,1756485943167000,9.256743,Walk
Fix,FLP,37.4264044,-122.1723046,10.29283040171569,1.1369351,6.081,189.46747,1678321671290,,,1756486167167661,2.0283868,Walk
Fix,FLP,37.4263997,-122.1723061,10.29283040171569,1.1493875,6.048,189.8191,1678321671832,,,1756486709760983,2.0283868,Walk
Fix,GPS,37.4264259027,-122.17234383,-8.271328148967834,1.454705,9.169741,200.96313,1678321671999,0.7071635,28.894405,1756486943490000,9.323448,Walk
Fix,FLP,37.4263943,-122.1723081,8.91470816575131,1.1715047,5.955,190.42769,1678321672375,,,1756487252342526,2.0383568,Walk
Fix,FLP,37.4263875,-122.17231,8.91470816575131,1.1842486,5.954,190.85463,1678321672917,,,1756487794923337,2.0383568,Walk
Fix,GPS,37.42641468,-122.1723469172,-7.800679982289256,1.4288877,9.156546,203.25212,1678321672999,0.7853802,34.09919,1756487943158000,9.378787,Walk
Fix,FLP,37.4263807,-122.1723123,9.12136140348911,1.2053307,5.922,191.7037,1678321673455,,,1756488332000000,2.0483668,Walk
Fix,FLP,37.426373,-122.172315,9.12136140348911,1.2165267,5.96,192.2807,1678321674002,,,1756488879000000,2.0483668,Walk
Fix,GPS,37.4264032749,-122.1723547107,-7.49836024338084,1.4177862,9.208162,203.25212,1678321673999,0.8050917,24.074,1756488943177000,9.480053,Walk
Fix,FLP,37.4263606,-122.1723192,9.12136140348911,1.2340158,5.99,193.3396,1678321674545,,,1756489422663754,2.0583668,Walk
Fix,GPS,37.4263856189,-122.1723633293,-7.239312724991354,1.4612389,9.18104,211.64786,1678321674999,0.6220633,23.843643,1756489943236000,9.542445,Walk
Fix,FLP,37.426358,-122.1723206,9.087849724445745,1.2440014,6.016,193.88443,1678321675088,,,1756489965232541,2.0683668,Walk
Fix,FLP,37.4263449,-122.1723255,9.087849724445745,1.2619938,6.089,194.85016,1678321675630,,,1756490507822751,2.0683668,Walk
Fix,GPS,37.4263654762,-122.172370937,-7.156118227563618,1.5215995,9.12705,208.69748,1678321675999,0.7263526,24.52732,1756490943255000,9.616608,Walk
Fix,FLP,37.4263424,-122.1723269,9.087849724445745,1.2731898,6.096,195.37215,1678321676173,,,1756491050401852,2.0783567,Walk
Fix,FLP,37.426328,-122.1723324,9.087849724445745,1.294574,6.104,196.33191,1678321676715,,,1756491592980527,2.0783567,Walk
Fix,GPS,37.4263506036,-122.1723778694,-6.895593287184589,1.527654,9.13241,208.69748,1678321676999,0.85453945,109.262,1756491943267000,9.684173,Walk
Fix,FLP,37.426325,-122.1723338,7.424111117928732,1.3066217,6.075,196.92627,1678321677258,,,1756492135558530,2.0883567,Walk
Fix,FLP,37.4263131,-122.17234,7.424111117928732,1.3215599,6.783,198.23405,1678321677800,,,1756492678136411,2.0883567,Walk
Fix,GPS,37.4263449774,-122.1723855354,-7.004915376508982,1.436512,9.283932,208.69748,1678321677999,1.069994,54.91454,1756492943293000,9.75015,Walk
Fix,FLP,37.4263093,-122.1723447,7.424111117928732,1.3303282,7.941,199.33037,1678321678342,,,1756493220716733,2.0984268,Walk
Fix,FLP,37.4263043,-122.172349,7.424111117928732,1.3336984,8.672,199.59503,1678321678886,,,1756493763290891,2.0984268,Walk
Fix,GPS,37.4263379497,-122.1723945595,-6.818397119539887,1.431635,9.273167,251.52914,1678321678999,0.67716366,38.068504,1756493943345000,9.759454,Walk
Fix,FLP,37.4263029,-122.1723557,7.424111117928732,1.3012521,9.434,201.84636,1678321679428,,,1756494305867856,2.1083567,Walk
Fix,FLP,37.4263021,-122.1723615,7.424111117928732,1.2709522,10.223,203.93233,1678321679970,,,1756494848444272,2.1083567,Walk
Fix,GPS,37.4263251886,-122.1723996513,-6.780511758857416,1.4211067,9.362259,251.52914,1678321679999,0.74534124,90.66887,1756494943291000,9.826937,Walk
Fix,FLP,37.4263036,-122.1723698,6.1662435907552045,1.2286197,10.775,207.73088,1678321680513,,,1756495391020444,2.1183667,Walk
Fix,FLP,37.4263023,-122.1723759,6.1662435907552045,1.2189875,11.46,209.4188,1678321681056,,,1756495933596127,2.1183667,Walk
Fix,GPS,37.4263139936,-122.1724139461,-7.003837191557359,1.4362785,9.494297,237.51384,1678321680999,0.8023813,31.46663,1756495943413000,9.895053,Walk
Fix,FLP,37.4263015,-122.1723822,6.1662435907552045,1.2103231,11.628,212.22865,1678321681592,,,1756496470000000,2.1283567,Walk
Fix,FLP,37.4262979,-122.172388,6.1662435907552045,1.208242,12.354,213.64099,1678321682141,,,1756497018740353,2.1283567,Walk
Fix,GPS,37.4263063297,-122.1724257035,-7.604460066243734,1.4197373,9.632938,244.04803,1678321681999,0.8194574,32.029205,1756496943331000,9.982837,Walk
Fix,FLP,37.4262938,-122.1723936,10.597022504229834,1.2099725,12.364,215.89775,1678321682684,,,1756497561320920,2.1383767,Walk
Fix,GPS,37.4262977214,-122.1724401643,-8.250954047628221,1.4245391,9.802607,241.21573,1678321682999,1.2540009,34.611618,1756497943350000,10.0770445,Walk
Fix,FLP,37.4262909,-122.172397,10.55284033406556,1.2175391,11.561,217.61781,1678321683226,,,1756498103894833,2.1483467,Walk
Fix,FLP,37.4262813,-122.1724043,10.55284033406556,1.2290719,10.522,218.74362,1678321683769,,,1756498646458859,2.1483467,Walk
Fix,GPS,37.4262888966,-122.1724544441,-8.579183056190077,1.4321356,9.993429,249.3447,1678321683999,0.89967716,30.0855,1756498943357000,10.160232,Walk
Fix,FLP,37.4262751,-122.1724094,10.55284033406556,1.2429774,9.979,219.63193,1678321684311,,,1756499189031430,2.1584768,Walk
Fix,FLP,37.4262698,-122.1724117,10.55284033406556,1.2503548,9.258,219.86096,1678321684854,,,1756499731616391,2.1584768,Walk
Fix,GPS,37.4262759301,-122.1724687124,-9.038496895540622,1.4585276,10.187271,249.3447,1678321684999,1.4761677,99.85884,1756499943380000,10.215944,Walk
Fix,FLP,37.4262615,-122.1724134,7.352532519573021,1.26451,9.072,220.04895,1678321685397,,,1756500274189084,2.1683767,Walk
Fix,GPS,37.4262581736,-122.1724699919,-8.57866762014759,1.4957963,10.261601,219.74799,1678321685999,0.80005753,28.701008,1756500943694000,10.237197,Walk
Fix,FLP,37.4262573,-122.1724144,7.352532519573021,1.2732464,8.947,219.91861,1678321685939,,,1756500816763547,2.1783566,Walk
Fix,FLP,37.4262467,-122.1724169,7.352532519573021,1.2882067,8.808,219.24245,1678321686451,,,1756501328949948,2.1783566,Walk
Fix,GPS,37.4262398296,-122.1724717621,-7.936822974021268,1.5315869,10.114124,186.22542,1678321686999,0.7494204,28.145788,1756501943389000,10.231436,Walk
Fix,FLP,37.4262424,-122.1724166,5.957124762732693,1.2954063,8.816,218.57462,1678321687024,,,1756501901906125,2.1883667,Walk
Fix,FLP,37.4262288,-122.1724176,5.957124762732693,1.3058558,8.848,216.73889,1678321687567,,,1756502444475338,2.1883667,Walk
Fix,GPS,37.4262169256,-122.1724707883,-6.686011838001853,1.5992504,9.835519,180.06944,1678321687999,0.74417543,31.26312,1756502943482000,10.147229,Walk
Fix,FLP,37.4262236,-122.172416,9.979508745402164,1.3074884,8.88,215.31915,1678321688110,,,1756502987047543,2.1983666,Walk
Fix,FLP,37.4262109,-122.1724216,9.979508745402164,1.3029188,9.485,211.99614,1678321688652,,,1756503529620480,2.1983666,Walk
Fix,GPS,37.4262009726,-122.1724689513,-6.288930508874654,1.5976118,9.880953,180.06944,1678321688999,0.7542207,52.08419,1756503943432000,10.169416,Walk
Fix,FLP,37.4262071,-122.172424,7.426649377223992,1.2925072,10.076,209.71681,1678321689194,,,1756504072180112,2.2083566,Walk
Fix,FLP,37.4261943,-122.1724319,7.426649377223992,1.2792959,11.14,205.3979,1678321689736,,,1756504614758603,2.2083566,Walk
Fix,GPS,37.4261884695,-122.1724603483,-6.47395248929306,1.583552,9.890616,109.13666,1678321689999,0.85380286,25.977568,1756504943414000,10.1778345,Walk
Fix,FLP,37.4261876,-122.1724374,7.426649377223992,1.2165494,12.106,201.36569,1678321690279,,,1756505157331601,2.2183967,Walk
Fix,GPS,37.4261807528,-122.1724472996,-6.876847308772738,1.5615075,9.901901,106.18965,1678321690999,0.7561735,28.155832,1756505943606000,10.184193,Walk
Fix,FLP,37.4261821,-122.1724384,7.31395139879714,1.1364262,12.617,199.29659,1678321690822,,,1756505699898984,2.2283568,Walk
Fix,FLP,37.4261743,-122.1724377,7.31395139879714,1.0850729,13.365,196.39204,1678321691365,,,1756506242466671,2.2283568,Walk
Fix,FLP,37.4261692,-122.1724347,7.31395139879714,1.031673,14.184,193.28928,1678321691908,,,1756506785043821,2.2283568,Walk
Fix,GPS,37.4261766215,-122.1724288651,-6.643112424576022,1.5612277,9.8303795,100.81687,1678321691999,0.8481906,23.917852,1756506943472000,10.151344,Walk
Fix,FLP,37.426162,-122.1724285,7.31395139879714,0.94650334,14.702,186.63905,1678321692450,,,1756507327598142,2.2383568,Walk
Fix,FLP,37.4261581,-122.1724241,7.31395139879714,0.91768706,15.575,182.88213,1678321692993,,,1756507870179257,2.2383568,Walk
Fix,GPS,37.4261722136,-122.1724088199,-6.320622079299583,1.5702024,9.769878,104.85895,1678321692999,0.65531844,27.800539,1756507943492000,10.127557,Walk
Fix,FLP,37.4261527,-122.1724159,11.426369765818231,0.87155974,15.85,175.34027,1678321693534,,,1756508412748105,2.2483468,Walk
Fix,GPS,37.4261595451,-122.1724017418,-4.744976015881384,1.5563245,9.13216,104.85895,1678321693999,0.7860448,16.774391,1756508943412000,9.9467125,Walk
Fix,FLP,37.426151,-122.1724107,15.14749895361237,0.83473146,15.606,171.11214,1678321694078,,,1756508955307736,2.2586267,Walk
Fix,GPS,37.4261494608,-122.1723709302,-2.6711221460653745,1.6525389,8.452362,118.05977,1678321694999,0.36246344,13.749174,1756509943433000,9.676163,Walk
Fix,FLP,37.4261445,-122.1724019,18.28823805522427,0.73560023,15.076,163.2672,1678321695163,,,1756510040453122,2.2682467,Walk
Fix,FLP,37.4261375,-122.1723914,18.28823805522427,0.7138887,14.672,158.24692,1678321695706,,,1756510583019833,2.2682467,Walk
Fix,GPS,37.426143768,-122.1723501342,-2.6400535900636104,1.6608722,7.85591,118.05977,1678321695999,0.5292353,18.980778,1756510943487000,9.466458,Walk
Fix,FLP,37.4261339,-122.172386,14.205504725246255,0.75227755,14.523,158.06395,1678321696248,,,1756511125589475,2.2786467,Walk
Fix,FLP,37.426127,-122.1723704,14.205504725246255,0.80728686,13.951,154.31241,1678321696791,,,1756511668141965,2.2786467,Walk
Fix,GPS,37.4261386507,-122.17233409,-2.4318057710390857,1.6368294,7.495756,147.06679,1678321696999,0.38012663,17.107798,1756511943470000,9.305593,Walk
Fix,FLP,37.4261244,-122.1723576,10.35427733983188,0.86061126,13.236,150.4744,1678321697333,,,1756512210727658,2.2882266,Walk
Fix,FLP,37.4261199,-122.1723509,10.35427733983188,0.89112675,12.922,150.84068,1678321697876,,,1756512753297482,2.2882266,Walk
Fix,GPS,37.4261310392,-122.1723168765,-3.0081485606784053,1.627908,7.29141,161.22716,1678321697999,0.6168673,37.461693,1756512943732000,9.249169,Walk
Fix,FLP,37.4261137,-122.1723379,7.108865238928495,0.96566755,12.064,152.59978,1678321698418,,,1756513295867856,2.2987368,Walk
Fix,GPS,37.4261238673,-122.1723063474,-3.755082339112761,1.5788937,7.4109936,161.22716,1678321698999,0.7224777,40.051495,1756513943579000,9.338088,Walk
Fix,FLP,37.4261118,-122.1723339,4.591888679918338,0.9914167,11.853,152.75662,1678321698942,,,1756513820352658,2.3087368,Walk
Fix,FLP,37.426109,-122.172328,4.591888679918338,1.0112935,11.608,153.25398,1678321699530,,,1756514407000000,2.3087368,Walk
Fix,FLP,37.426105,-122.1723227,4.591888679918338,1.0282714,11.529,154.28345,1678321700033,,,1756514910000000,2.3087368,Walk
Fix,GPS,37.4261183606,-122.1722952327,-4.502013509673881,1.5312436,7.632544,121.33183,1678321699999,0.7973157,35.05594,1756514943538000,9.450132,Walk
Fix,FLP,37.4260996,-122.1723111,1.5,1.0658252,11.026,154.22003,1678321700588,,,1756515466152463,2.3187368,Walk
Fix,GPS,37.4261142068,-122.1722828502,-4.773991885399098,1.4915173,7.8616858,110.73416,1678321700999,0.6215454,25.19554,1756515943669000,9.575234,Walk
Fix,FLP,37.4260996,-122.1723066,1.5,1.0759721,10.961,152.52516,1678321701131,,,1756516008724240,2.3288066,Walk
Fix,FLP,37.4260958,-122.1722943,1.5,1.0757312,10.891,148.44966,1678321701674,,,1756516551296506,2.3288066,Walk
Fix,GPS,37.4261104969,-122.172272057,-5.012928884963317,1.4442952,8.033995,109.259315,1678321701999,0.5787024,25.502005,1756516943631000,9.699624,Walk
Fix,FLP,37.4260971,-122.1722899,-1.8729857253062288,1.0684094,10.897,146.07593,1678321702216,,,1756517093868344,2.3387368,Walk
Fix,FLP,37.4260939,-122.1722785,-1.8729857253062288,1.0608101,11.026,141.77823,1678321702759,,,1756517636440060,2.3387368,Walk
Fix,GPS,37.4261050234,-122.1722492497,-5.060633834457487,1.483617,7.995868,101.511154,1678321702999,0.58736897,21.371365,1756517943578000,9.733195,Walk
Fix,FLP,37.4260948,-122.1722697,1.5,1.0636035,11.056,138.00378,1678321703302,,,1756518179007931,2.3487267,Walk
Fix,FLP,37.4260939,-122.1722619,1.5,1.0677272,10.953,136.13165,1678321703843,,,1756518721583676,2.3487267,Walk
Fix,GPS,37.4261013439,-122.1722234795,-5.161898379302234,1.5347234,7.948866,101.03123,1678321703999,0.5519509,23.086351,1756518943630000,9.760022,Walk
Fix,FLP,37.4260966,-122.1722521,6.035797501212333,1.081465,10.647,132.82622,1678321704386,,,1756519264136533,2.3587368,Walk
Fix,FLP,37.4260966,-122.1722442,6.035797501212333,1.091836,10.485,131.26396,1678321704929,,,1756519806726437,2.3587368,Walk
Fix,GPS,37.4260984804,-122.1722013981,-5.3060526834407415,1.5577568,7.9376364,103.2601,1678321704999,0.5474433,20.204287,1756519943628000,9.794475,Walk
Fix,FLP,37.4260958,-122.1722325,8.659825872445715,1.1145062,10.379,128.41307,1678321705520,,,1756520397000000,2.3687367,Walk
Fix,GPS,37.4260950671,-122.1721822655,-5.621782705271513,1.557138,7.9677696,110.731834,1678321705999,0.5617236,26.21169,1756520943663000,9.825706,Walk
Fix,FLP,37.4260939,-122.1722185,7.777444143129749,1.1402313,10.425,125.684006,1678321706123,,,1756521000385434,2.3787367,Walk
Fix,FLP,37.4260903,-122.1722019,7.777444143129749,1.1671088,10.413,123.590225,1678321706665,,,1756521542951901,2.3787367,Walk
Fix,GPS,37.4260914044,-122.1721634378,-5.932798751443047,1.5522329,7.971524,110.731834,1678321706999,0.65326005,96.426834,1756521943684000,9.8689,Walk
Fix,FLP,37.4260908,-122.1721984,7.777444143129749,1.1814249,10.501,122.8115,1678321707208,,,1756522085526120,2.3887367,Walk
Fix,FLP,37.4260858,-122.1721804,7.777444143129749,1.2101287,10.61,121.28275,1678321707751,,,1756522628096616,2.3887367,Walk
Fix,GPS,37.426087408,-122.172146621,-6.317630236746652,1.5359263,7.9716997,116.838036,1678321707999,0.64986295,33.825684,1756522943623000,9.906709,Walk
Fix,FLP,37.426083,-122.1721685,4.865425755993385,1.2369012,10.859,120.15656,1678321708293,,,1756523170667600,2.3987267,Walk
Fix,FLP,37.4260802,-122.1721593,4.865425755993385,1.2499647,11.217,119.739525,1678321708836,,,1756523713238156,2.3987267,Walk
Fix,GPS,37.4260839563,-122.1721315558,-6.711190534152705,1.5079345,8.024926,116.838036,1678321708999,0.80163044,128.22058,1756523943722000,9.938416,Walk
Fix,FLP,37.4260778,-122.1721482,4.865425755993385,1.2732208,11.582,119.0706,1678321709378,,,1756524255808225,2.4087267,Walk
Fix,FLP,37.4260745,-122.1721378,4.865425755993385,1.2848394,12.132,118.81259,1678321709921,,,1756524798378537,2.4087267,Walk
Fix,GPS,37.4260813019,-122.1721222338,-7.67422512375981,1.4434941,8.049292,116.838036,1678321709999,0.7453922,19.380075,1756524944210000,9.951702,Walk
Fix,FLP,37.4260725,-122.1721273,3.4531763852260084,1.3012971,12.192,118.274284,1678321710451,,,1756525328949948,2.4187467,Walk
Fix,FLP,37.4260703,-122.1721183,3.4531763852260084,1.3077568,12.358,117.929565,1678321711006,,,1756525883518124,2.4187467,Walk
Fix,GPS,37.42607751,-122.1721022892,-7.817129248737706,1.4564873,8.078554,104.01565,1678321710999,0.6905167,36.379604,1756525943738000,9.971841,Walk
Fix,FLP,37.4260686,-122.172107,3.4531763852260084,1.3187269,12.448,116.993965,1678321711549,,,1756526426079342,2.4287367,Walk
Fix,FLP,37.4260664,-122.1720973,3.4531763852260084,1.3249694,12.388,116.483,1678321712091,,,1756526968647824,2.4287367,Walk
Fix,GPS,37.4260736729,-122.172082365,-7.581581429136716,1.4680828,8.082787,109.2126,1678321711999,0.6803324,37.959286,1756526943747000,9.9873905,Walk
Fix,FLP,37.426065,-122.1720781,5.1029382259032445,1.3387103,12.076,115.08866,1678321712634,,,1756527511225827,2.4387467,Walk
Fix,GPS,37.4260720667,-122.1720662183,-7.546471164230756,1.4518118,8.071375,110.549416,1678321712999,0.6465299,33.17915,1756527943819000,9.983863,Walk
Fix,FLP,37.4260662,-122.1720751,5.4901790621944855,1.3444687,11.873,114.57925,1678321713176,,,1756528053794797,2.4487367,Walk
Fix,FLP,37.4260654,-122.172057,5.4901790621944855,1.3503834,11.207,113.37871,1678321713719,,,1756528596358151,2.4487367,Walk
Fix,GPS,37.4260701129,-122.1720487636,-7.654612446219946,1.4482448,8.189209,96.969894,1678321713999,0.7320546,27.543118,1756528943780000,10.032317,Walk
Fix,FLP,37.4260664,-122.1720466,5.4901790621944855,1.3548162,10.669,112.135605,1678321714261,,,1756529138931516,2.4587266,Walk
Fix,FLP,37.4260663,-122.1720368,5.4901790621944855,1.3581587,10.261,111.560036,1678321714804,,,1756529681499387,2.4587266,Walk
Fix,GPS,37.4260685409,-122.1720263493,-7.750704526970349,1.4830062,8.286483,93.79133,1678321714999,0.67404014,21.17074,1756529944091000,10.063905,Walk
Fix,FLP,37.4260673,-122.1720264,7.142876708413841,1.3650966,9.664,110.69903,1678321715346,,,1756530224070066,2.4687366,Walk
Fix,FLP,37.4260664,-122.1720165,7.142876708413841,1.3701788,9.034,110.38836,1678321715889,,,1756530766634396,2.4687366,Walk
Fix,GPS,37.4260675733,-122.1720058761,-7.9209370886107555,1.5014746,8.372463,98.2486,1678321715999,0.6755925,23.8837,1756530943870000,10.083522,Walk
Fix,FLP,37.4260664,-122.172006,8.130791937626793,1.3794491,8.52,109.83805,1678321716432,,,1756531309196896,2.4787567,Walk
Fix,FLP,37.4260652,-122.1719962,8.130791937626793,1.3847045,7.86,109.473755,1678321716974,,,1756531851771238,2.4787567,Walk
Fix,GPS,37.426066882,-122.1719888671,-7.802811747077187,1.4945287,8.390816,98.45832,1678321716999,0.61455226,24.588444,1756531943778000,10.087746,Walk
Fix,FLP,37.426065,-122.1719857,11.482238091330924,1.3927897,7.38,108.800514,1678321717517,,,1756532394335019,2.4887767,Walk
Fix,FLP,37.4260639,-122.1719762,11.482238091330924,1.3969607,7.098,108.46027,1678321718059,,,1756532936901486,2.4887767,Walk
Fix,GPS,37.4260647689,-122.1719743735,-8.228398986905804,1.4741089,8.4238205,104.61951,1678321717999,0.61958694,23.11678,1756532943770000,10.088682,Walk
Fix,FLP,37.4260633,-122.1719659,7.673371818288068,1.4026654,6.85,107.96601,1678321718602,,,1756533479456662,2.4987366,Walk
Fix,FLP,37.4260622,-122.1719574,7.673371818288068,1.4058684,6.696,107.84844,1678321719145,,,1756534022033261,2.4987366,Walk
Fix,GPS,37.4260609837,-122.1719594265,-8.53000050842953,1.4609661,8.444307,100.6469,1678321718999,0.6347966,25.973108,1756533943856000,10.059822,Walk
Fix,FLP,37.4260614,-122.1719468,7.399236217159842,1.410917,6.572,107.644844,1678321719694,,,1756534571000000,2.5087867,Walk
Fix,GPS,37.4260573336,-122.1719452559,-8.462488822857642,1.4409918,8.488308,110.421104,1678321719999,0.6791238,31.858953,1756534943867000,10.038457,Walk
Fix,FLP,37.4260604,-122.1719396,7.0235833500316645,1.4145017,6.545,107.54278,1678321720229,,,1756535107152463,2.5187566,Walk
Fix,FLP,37.4260586,-122.1719239,7.0235833500316645,1.4149926,6.279,107.28579,1678321720772,,,1756535649719846,2.5187566,Walk
Fix,GPS,37.4260514442,-122.171935368,-8.465214471843508,1.403137,8.448077,122.54693,1678321720999,0.6651753,38.174522,1756535943966000,9.958272,Walk
Fix,FLP,37.4260572,-122.1719148,6.009911551599778,1.4132764,6.201,107.20523,1678321721315,,,1756536192294248,2.5287268,Walk
Fix,FLP,37.426056,-122.1719061,1.5,1.4136096,6.114,107.08811,1678321721857,,,1756536734859006,2.5387468,Walk
Fix,GPS,37.4260466147,-122.1719260312,-8.339391715669947,1.3569789,8.415238,122.54693,1678321721999,0.68712234,68.48198,1756536944055000,9.890628,Walk
Fix,FLP,37.4260548,-122.1718958,1.5,1.4108602,6.136,106.77399,1678321722399,,,1756537277423154,2.5387468,Walk
Fix,GPS,37.426043382,-122.1719174182,-8.440758686178324,1.3023348,8.432091,122.54693,1678321722999,0.71037406,72.12155,1756537943941000,9.822082,Walk
Fix,FLP,37.4260534,-122.1718862,1.5,1.4091634,6.122,106.49679,1678321722942,,,1756537819990354,2.5488067,Walk
Fix,FLP,37.426052,-122.1718757,1.5,1.4023339,6.184,105.970116,1678321723451,,,1756538328949948,2.5488067,Walk
Fix,GPS,37.4260395773,-122.1719052283,-8.13414226538217,1.2778479,8.406262,122.54693,1678321723999,0.68757635,32.155804,1756538943945000,9.747277,Walk
Fix,FLP,37.4260509,-122.1718686,1.5,1.3995934,6.214,105.68747,1678321724028,,,1756538905111996,2.5587368,Walk
Fix,FLP,37.4260494,-122.1718576,1.5,1.3913362,6.275,105.20229,1678321724570,,,1756539447678342,2.5587368,Walk
Fix,FLP,37.426048,-122.1718483,1.5,1.3879912,6.303,104.98963,1678321725112,,,1756539990241757,2.5587368,Walk
Fix,GPS,37.4260345876,-122.1718902513,-7.744455129752713,1.2790959,8.395934,139.48445,1678321724999,0.6642406,34.150524,1756539943932000,9.6899185,Walk
Fix,FLP,37.4260465,-122.1718373,1.5,1.3804616,6.319,104.67427,1678321725655,,,1756540532804807,2.5687268,Walk
Fix,GPS,37.4260312506,-122.1718766484,-7.377925336324945,1.2640207,8.387926,139.48445,1678321725999,0.6281407,134.02719,1756540943971000,9.626273,Walk
Fix,FLP,37.4260453,-122.1718302,1.5,1.3785483,6.341,104.598366,1678321726198,,,1756541075367490,2.5787368,Walk
Fix,FLP,37.4260441,-122.1718197,1.5,1.3705587,6.327,104.42147,1678321726736,,,1756541613000000,2.5787368,Walk
Fix,GPS,37.4260282247,-122.1718663634,-6.992510288314087,1.2277346,8.394061,139.48445,1678321726999,0.63809717,65.11763,1756541944178000,9.592801,Walk
Fix,FLP,37.426043,-122.1718131,7.2728322402330114,1.3583748,6.298,104.40147,1678321727283,,,1756542160492734,2.5887368,Walk
Fix,FLP,37.4260417,-122.1718046,7.2728322402330114,1.3542873,6.248,104.44334,1678321727831,,,1756542708000000,2.5887368,Walk
Fix,GPS,37.4260250489,-122.17184948,-6.691060120426551,1.2396336,8.372878,127.546135,1678321727999,0.6508408,35.941708,1756542943982000,9.554269,Walk
Fix,FLP,37.4260405,-122.171798,9.196509287956957,1.3441399,6.115,104.52286,1678321728338,,,1756543215000000,2.5987368,Walk
Fix,GPS,37.4260219898,-122.1718277231,-6.403300056622233,1.2847562,8.366083,111.70907,1678321728999,0.6034115,24.875961,1756543943978000,9.5488615,Walk
Fix,FLP,37.4260385,-122.171789,9.196509287956957,1.3341105,5.991,104.461075,1678321728911,,,1756543788174130,2.6087968,Walk
Fix,FLP,37.4260361,-122.1717798,9.196509287956957,1.3253212,5.869,104.306076,1678321729451,,,1756544328949948,2.6087968,Walk
Fix,GPS,37.4260187562,-122.171812086,-6.360571669579121,1.2902348,8.314454,114.01723,1678321729999,0.60730106,23.037083,1756544944245000,9.5432,Walk
Fix,FLP,37.4260352,-122.1717759,9.196509287956957,1.3250608,5.814,104.23916,1678321729996,,,1756544873302548,2.6187367,Walk
Fix,FLP,37.4260329,-122.1717659,9.196509287956957,1.3212031,5.728,104.193634,1678321730538,,,1756545415863583,2.6187367,Walk
Fix,GPS,37.4260136607,-122.1717906597,-6.575054738009286,1.3364562,8.251329,109.8197,1678321730999,0.5569615,23.02177,1756545944031000,9.532824,Walk
Fix,FLP,37.4260318,-122.1717609,3.386198085724676,1.321799,5.704,104.22292,1678321731081,,,1756545958425168,2.6287367,Walk
Fix,FLP,37.4260299,-122.1717504,3.386198085724676,1.3205597,5.661,104.15812,1678321731623,,,1756546500986325,2.6287367,Walk
Fix,GPS,37.4260097296,-122.1717720221,-6.5261423566927474,1.3564718,8.224102,110.759315,1678321731999,0.63158894,28.196741,1756546944438000,9.5388775,Walk
Fix,FLP,37.4260291,-122.1717451,1.5,1.3229609,5.664,103.99504,1678321732166,,,1756547043547116,2.6387367,Walk
Fix,FLP,37.4260274,-122.1717334,1.5,1.3248507,5.657,103.753586,1678321732709,,,1756547586107968,2.6387367,Walk
Fix,GPS,37.426008358,-122.1717591987,-6.549406372165358,1.3322191,8.237175,106.27166,1678321732999,0.69645065,31.621048,1756547944022000,9.537276,Walk
Fix,FLP,37.4260266,-122.171728,7.80841225299838,1.3284441,5.665,103.70488,1678321733251,,,1756548128668820,2.6487367,Walk
Fix,FLP,37.4260249,-122.1717161,7.80841225299838,1.3301746,5.665,103.590065,1678321733794,,,1756548671229550,2.6487367,Walk
Fix,GPS,37.4260069354,-122.1717447487,-6.512476987856452,1.3212163,8.271515,108.57994,1678321733999,0.6427893,26.564587,1756548944032000,9.536546,Walk
Fix,FLP,37.4260242,-122.1717085,8.131807326134957,1.3282553,5.599,103.38082,1678321734336,,,1756549213790280,2.6588368,Walk
Fix,FLP,37.4260233,-122.1717008,8.131807326134957,1.3290364,5.586,103.15648,1678321734856,,,1756549733000000,2.6588368,Walk
Fix,GPS,37.4260046692,-122.1717219899,-6.176790429761696,1.368166,8.246582,113.33428,1678321734999,0.62222886,26.446854,1756549944051000,9.513414,Walk
Fix,FLP,37.4260224,-122.1716928,9.091403987137593,1.3302093,5.55,102.90875,1678321735370,,,1756550247000000,2.6687467,Walk
Fix,FLP,37.4260211,-122.1716841,9.091403987137593,1.3331847,5.547,102.987366,1678321735879,,,1756550756000000,2.6687467,Walk
Fix,GPS,37.4259991209,-122.1717047356,-5.792230178044122,1.3821498,8.234478,111.21044,1678321735999,0.6040377,23.568853,1756550944067000,9.480401,Walk
Fix,FLP,37.4260196,-122.1716757,11.908373195620673,1.337078,5.501,103.19611,1678321736398,,,1756551275519589,2.6787367,Walk
Fix,GPS,37.4259946826,-122.1716876935,-5.955454152779852,1.3918545,8.1954155,107.5197,1678321736999,0.6351381,24.02907,1756551944101000,9.436914,Walk
Fix,FLP,37.4260178,-122.1716666,11.908373195620673,1.339906,5.519,103.44596,1678321736941,,,1756551818080075,2.6887367,Walk
Fix,FLP,37.4260161,-122.1716582,11.908373195620673,1.3442065,5.485,103.58066,1678321737516,,,1756552393000000,2.6887367,Walk
Fix,GPS,37.4259921158,-122.1716752666,-5.997190496566574,1.3666816,8.181312,111.84722,1678321737999,0.62749755,24.066488,1756552944118000,9.390351,Walk
Fix,FLP,37.4260139,-122.171649,11.908373195620673,1.3492906,5.497,104.02869,1678321738026,,,1756552903200925,2.6987267,Walk
Fix,FLP,37.4260108,-122.1716354,11.908373195620673,1.3526595,5.513,104.57013,1678321738568,,,1756553445761288,2.6987267,Walk
Fix,GPS,37.4259889317,-122.1716538575,-6.25500805133513,1.4062217,8.218223,99.37013,1678321738999,0.70801926,19.86955,1756553944213000,9.367362,Walk
Fix,FLP,37.4260097,-122.1716308,7.703324209734021,1.3565848,5.548,104.70172,1678321739111,,,1756553988320920,2.7087367,Walk
Fix,FLP,37.4260065,-122.1716156,7.703324209734021,1.3612162,5.601,104.83832,1678321739653,,,1756554530881162,2.7087367,Walk
Fix,GPS,37.4259872377,-122.1716337429,-6.623714132988705,1.4316978,8.250415,93.521164,1678321739999,0.6344409,20.68363,1756554944174000,9.342286,Walk
Fix,FLP,37.4260056,-122.1716114,8.021638384300893,1.366376,5.64,104.82717,1678321740196,,,1756555073441159,2.7187366,Walk
