Fix,Provider,LatitudeDegrees,LongitudeDegrees,AltitudeMeters,SpeedMps,AccuracyMeters,BearingDegrees,UnixTimeMillis,SpeedAccuracyMps,BearingAccuracyDegrees,elapsedRealtimeNanos,VerticalAccuracyMeters,TransitType
Fix,FLP,37.3888168,-122.0895667,-3.595498564020275,,36.022,,1676151945902,,,187138596000000,0.923561,Walk
Fix,GPS,37.3887689736,-122.0895797538,6.581775051842161,0.0,5.325737,,1676151945239,0.42142674,,187139806797341,7.2674546,Walk
Fix,FLP,37.3887694,-122.0895797,-4.319094142282438,0.12166813,20.674,192.28432,1676151947112,0.42142674,,187139806797341,0.98608166,Walk
Fix,GPS,37.3887694163,-122.0895907213,7.632337102644421,0.0,5.3319693,,1676151946239,0.45475313,,187140789054503,10.936647,Walk
Fix,FLP,37.3887691,-122.0895848,-5.007396761370892,0.30250838,13.001,255.99913,1676151948095,0.45475313,,187140789054503,1.0047473,Walk
Fix,GPS,37.3887627037,-122.0895815159,7.852350099184644,0.0,6.876193,,1676151947239,0.5874232,,187141814903910,15.67927,Walk
Fix,FLP,37.388767,-122.0895874,-5.187594099353554,0.29804906,10.702,237.51268,1676151949121,0.5874232,,187141814903910,1.0503405,Walk
Fix,NLP,37.3888186,-122.089656,-0.6999999284744263,,27.607,,1676151950080,,,187142774000000,1.0,Walk
Fix,GPS,37.3887529151,-122.0895882506,10.045877372483726,0.0,5.550072,,1676151948236,0.47454643,,187142868594747,11.3053875,Walk
Fix,FLP,37.3887587,-122.0895862,-5.465239067787316,0.45812127,9.279,194.6247,1676151950175,0.47454643,,187142868594747,1.0605705,Walk
Fix,FLP,37.3887594,-122.089588,-5.465239067787316,0.09807672,10.733,,1676151951129,,,187143823000000,1.0061611,Walk
Fix,GPS,37.3887729367,-122.0896054434,17.144092964539826,0.52651983,6.26822,145.47217,1676151949236,0.22655378,23.713594,187143824232280,10.183782,Walk
Fix,FLP,37.3887596,-122.0895865,-5.6585113971408205,0.17080471,15.022,140.81717,1676151951675,,,187144369669374,1.026477,Walk
Fix,GPS,37.3887787286,-122.0896106461,19.48034550073609,0.7213059,5.088107,142.96388,1676151950236,0.22186194,17.152218,187144836794089,8.487372,Walk
Fix,FLP,37.3887597,-122.089586,-6.002057092897843,0.25344533,15.222,133.15442,1676151952218,,,187144912154054,1.013612,Walk
Fix,FLP,37.3887593,-122.089585,-6.039380952168578,0.3618893,15.294,130.27188,1676151952761,,,187145454673707,1.0356671,Walk
Fix,FLP,37.3887588,-122.0895849,-6.039380952168578,0.4217333,16.249,130.16707,1676151953304,,,187145997179261,1.0356671,Walk
Fix,GPS,37.3887703153,-122.0896045926,20.646586880540536,0.6945363,4.0664473,157.43129,1676151951999,0.3017221,25.26672,187146608814597,6.6342115,Walk
Fix,FLP,37.3887587,-122.0895848,-6.027621397851057,0.4383398,16.06,130.14716,1676151953845,,,187146539688294,1.015203,Walk
Fix,FLP,37.3887576,-122.0895829,-6.027621397851057,0.4689291,17.45,129.39433,1676151954372,,,187147065884828,1.015203,Walk
Fix,GPS,37.3887591666,-122.0895970892,21.30133691816384,0.5712971,4.463249,131.83733,1676151952999,0.25532895,24.2684,187147596818911,6.2823014,Walk
Fix,FLP,37.3887577,-122.0895824,-6.532298112477925,0.48495147,17.192,128.47974,1676151954931,,,187147624706300,0.93482244,Walk
Fix,NLP,37.3887212,-122.0894658,-0.6000000238418579,,27.225,,1676151955022,,,187147716000000,1.0958039,Walk
Fix,FLP,37.3887551,-122.0895762,-5.812487587560376,0.51384187,17.5,126.886986,1676151955474,,,187148167208131,0.99417657,Walk
Fix,GPS,37.3887502188,-122.0895867443,21.38193920487501,0.98888063,4.1244984,134.06181,1676151953999,0.2535004,14.144209,187148532670000,6.0562367,Walk
Fix,FLP,37.3887525,-122.0895699,-6.102780006646036,0.54723793,14.937,125.59666,1676151956016,,,187148709734987,0.9571231,Walk
Fix,GPS,37.3887435413,-122.0895755685,21.64173927313926,0.6785145,4.1020126,148.50722,1676151954999,0.2796005,21.25465,187149532677000,5.88672,Walk
Fix,FLP,37.38875,-122.0895649,-6.027621397851057,0.5772983,13.691,124.74228,1676151956559,,,187149252236451,0.96752083,Walk
Fix,FLP,37.3887465,-122.0895582,-6.027621397851057,0.6086969,13.038,123.72275,1676151957100,,,187149794756288,0.95326245,Walk
Fix,GPS,37.3887369486,-122.089566282,21.08894107547622,0.7389957,4.5476193,131.74594,1676151955999,0.26488551,19.699722,187150532773000,5.7002177,Walk
Fix,FLP,37.3887445,-122.0895549,-6.062339902497151,0.6160504,12.708,123.60806,1676151957644,,,187150337290223,0.94830745,Walk
Fix,FLP,37.3887402,-122.0895479,-6.062339902497151,0.63089013,12.541,123.620804,1676151958186,,,187150879805055,0.94830745,Walk
Fix,GPS,37.3887281239,-122.0895531338,20.35002653097781,0.6489863,4.5476394,106.71535,1676151956999,0.2746264,25.372028,187151532712000,5.5690713,Walk
Fix,FLP,37.3887383,-122.0895447,-6.017345925689767,0.6400589,12.571,123.683205,1676151958728,,,187151422324891,0.99752486,Walk
Fix,FLP,37.3887335,-122.0895367,-6.017345925689767,0.6495277,12.49,123.58488,1676151959270,,,187151964845460,0.99752486,Walk
Fix,GPS,37.3887216837,-122.089537968,20.202933981733835,0.49166155,4.173346,118.493935,1676151957999,0.269653,31.993109,187152532728000,5.439583,Walk
Fix,FLP,37.3887318,-122.0895339,-5.908491077473045,0.65094113,12.508,123.115456,1676151959814,,,187152507364685,1.0484084,Walk
Fix,NLP,37.3887262,-122.0900014,-0.3999999463558197,,39.206,,1676151960043,,,187152737000000,1.0,Walk
Fix,FLP,37.3887278,-122.089532,-5.759747520426103,0.64965457,12.449,122.96523,1676151960344,,,187153037000000,1.0293252,Walk
Fix,FLP,37.3887243,-122.0895305,-5.759747520426103,0.64828354,12.51,123.22362,1676151960899,,,187153592410279,1.0293252,Walk
Fix,GPS,37.3887165706,-122.0895245097,19.826273796870563,0.92075074,4.814373,109.45014,1676151958999,0.23612311,15.542215,187153532850000,5.3461766,Walk
Fix,FLP,37.3887191,-122.0895285,-5.942236317191352,0.6632317,12.55,123.893394,1676151961441,,,187154134922304,0.9924333,Walk
Fix,GPS,37.388715554,-122.0895092589,19.397469305094276,0.76328427,4.7909765,106.63726,1676151959999,0.25613934,21.4722,187154532752000,5.2768617,Walk
Fix,FLP,37.3887161,-122.0895261,-5.942236317191352,0.678313,12.616,124.32292,1676151961983,,,187154677455507,1.0051577,Walk
Fix,FLP,37.3887107,-122.08952,-5.942236317191352,0.69788235,12.652,124.82986,1676151962525,,,187155219982850,1.0051577,Walk
Fix,GPS,37.3887151464,-122.0894979445,19.36970936153011,0.75861496,4.199409,113.13491,1676151960999,0.21633407,17.33427,187155532758000,5.150902,Walk
Fix,FLP,37.3887073,-122.0895124,-6.357862570685207,0.70880616,12.547,124.92849,1676151963069,,,187155762497499,0.9995121,Walk
Fix,FLP,37.3887048,-122.0895062,-6.357862570685207,0.71457106,12.5,125.0287,1676151963611,,,187156305036195,0.9995121,Walk
Fix,GPS,37.3887177759,-122.089487866,19.11060898934795,0.8318284,4.2930217,94.249016,1676151961999,0.1948964,13.252817,187156532774000,4.9645944,Walk
Fix,FLP,37.3887021,-122.0894968,-6.278658765336047,0.72784585,12.301,125.02502,1676151964154,,,187156847552247,1.032203,Walk
Fix,FLP,37.3886996,-122.0894901,-6.278658765336047,0.7363987,12.213,124.934296,1676151964697,,,187157390098451,1.032203,Walk
Fix,GPS,37.3887188898,-122.0894757341,17.841737046798627,0.9813414,4.6106443,117.50397,1676151962999,0.1896622,11.051413,187157532790000,4.8141456,Walk
Fix,FLP,37.388697,-122.0894804,-6.834869579058328,0.7572589,11.967,124.64963,1676151965238,,,187157932611390,0.96718884,Walk
Fix,GPS,37.3887122568,-122.0894597242,17.5538198407323,1.0850742,4.226969,122.20852,1676151963999,0.03277344,10.0,187158532807000,4.5540814,Walk
Fix,FLP,37.3886946,-122.0894732,-6.834869579058328,0.7707182,11.71,124.39254,1676151965782,,,187158475153627,0.96718884,Walk
Fix,NLP,37.3889332,-122.0892594,-0.6000000238418579,,23.129,,1676151965897,,,187158591000000,1.0,Walk
Fix,FLP,37.3886994,-122.0894553,-6.272115959476821,0.7951925,11.403,123.15879,1676151966324,,,187159017685121,0.9360578,Walk
Fix,GPS,37.3887009326,-122.0894455073,17.271635297670866,1.0870279,3.8660035,125.1872,1676151964999,0.19340116,10.38557,187159532830000,4.2767787,Walk
Fix,FLP,37.3887036,-122.0894469,-5.473733402644086,0.79866713,11.169,122.53063,1676151966866,,,187159560217225,0.9472809,Walk
Fix,FLP,37.3887078,-122.0894305,-5.473733402644086,0.80790734,10.729,119.911255,1676151967371,,,187160065884828,0.9472809,Walk
Fix,GPS,37.38869538,-122.0894300337,16.360373065842673,1.160726,3.865905,116.956474,1676151965999,0.02172136,10.0,187160532831000,3.974436,Walk
Fix,FLP,37.3887091,-122.0894251,-5.616901771381244,0.8162757,10.551,118.19614,1676151967952,,,187160645283265,0.95939857,Walk
Fix,FLP,37.3887081,-122.0894107,-5.616901771381244,0.8385736,10.193,115.7019,1676151968493,,,187161187817201,0.95939857,Walk
Fix,GPS,37.3886913953,-122.0894155874,15.587854877453818,1.4464327,4.5478287,120.716965,1676151966999,0.029767845,10.0,187161533011000,3.7524335,Walk
Fix,FLP,37.3887066,-122.0894018,-5.8193786104707215,0.8761736,10.075,114.25768,1676151969037,,,187161730353212,0.9636293,Walk
Fix,FLP,37.3887001,-122.0893907,-5.8193786104707215,0.90759766,9.777,114.28961,1676151969578,,,187162272886537,0.9636293,Walk
Fix,GPS,37.3886849183,-122.08939956,15.048350154158982,1.1788776,3.9509323,116.795334,1676151967999,0.027218621,10.0,187162532865000,3.5630114,Walk
Fix,NLP,37.3889839,-122.0891884,-0.1999998986721038,,24.033,,1676151970119,,,187162812000000,1.2293782,Walk
Fix,FLP,37.3886893,-122.0893779,-5.729207899788236,0.9545257,9.54,114.80785,1676151970122,,,187162815424195,0.9657323,Walk
Fix,GPS,37.3886796158,-122.0893858087,14.459360333089286,1.1495972,4.102176,119.30622,1676151968999,0.024577511,10.0,187163532892000,3.4015949,Walk
Fix,FLP,37.3886837,-122.0893588,-5.729207899788236,0.9766836,8.952,114.904434,1676151970663,,,187163357949586,0.9657323,Walk
Fix,FLP,37.3886803,-122.089341,-5.977179205646607,0.99616086,8.884,114.53325,1676151971207,,,187163900482728,1.0533,Walk
Fix,GPS,37.3886710673,-122.0893737371,14.238251632440363,1.1394216,4.5478826,126.060555,1676151969999,0.027977198,10.0,187164532932000,3.2805922,Walk
Fix,FLP,37.3886774,-122.0893337,-5.944134652165474,1.00948,8.789,114.4354,1676151971750,,,187164443031312,1.0102795,Walk
Fix,FLP,37.388667,-122.0893178,-5.944134652165474,1.0327896,8.553,114.8852,1676151972292,,,187164985568727,1.0102795,Walk
Fix,GPS,37.3886620605,-122.0893605913,14.15999386851768,1.1199663,3.9508696,124.642876,1676151970999,0.024704935,1.2232397,187165532915000,3.1687107,Walk
Fix,FLP,37.3886622,-122.0893127,-5.786655409485235,1.0439683,8.389,115.35895,1676151972835,,,187165528105714,1.0166107,Walk
Fix,FLP,37.3886472,-122.0892981,-5.786655409485235,1.0619571,8.051,116.5706,1676151973371,,,187166065884828,1.0166107,Walk
Fix,GPS,37.388654234,-122.0893441522,14.03788715082036,1.2265052,3.865316,119.78622,1676151971999,0.022488182,1.0303706,187166532930000,3.063598,Walk
Fix,FLP,37.3886428,-122.0892949,-5.803967484800047,1.0702525,7.912,116.98371,1676151973920,,,187166613183900,1.0114008,Walk
Fix,FLP,37.3886301,-122.0892814,-5.803967484800047,1.0855933,7.136,117.92492,1676151974461,,,187167155719788,1.0114008,Walk
Fix,GPS,37.3886461643,-122.0893304526,14.129389341048292,1.2582839,3.865218,125.85196,1676151972999,0.15107127,6.745839,187167532982000,3.0323043,Walk
Fix,NLP,37.3888988,-122.0889933,-0.5000001192092896,,39.936,,1676151975105,,,187167799000000,1.0,Walk
Fix,FLP,37.3886244,-122.089277,-6.061730874596748,1.102626,6.826,118.67757,1676151975004,,,187167698264894,0.99075586,Walk
Fix,FLP,37.3886209,-122.0892695,-6.061730874596748,1.1065967,6.667,118.674965,1676151975544,,,187168237000000,0.99075586,Walk
Fix,GPS,37.388638533,-122.089316211,13.96386583516752,1.2104872,3.86512,123.306145,1676151973999,0.02408402,1.1611686,187168532957000,3.0,Walk
Fix,FLP,37.3886162,-122.0892619,-6.14858146492336,1.1148148,6.086,119.04604,1676151976068,,,187168761000000,0.97381186,Walk
Fix,FLP,37.3886113,-122.0892546,-6.14858146492336,1.121693,5.874,119.44946,1676151976631,,,187169325879457,0.97381186,Walk
Fix,GPS,37.3886308665,-122.0893038203,13.837715862886409,1.1915047,3.8650215,124.81181,1676151974999,0.024503669,1.1980422,187169532983000,3.0,Walk
Fix,FLP,37.3886066,-122.0892494,-6.027986039001462,1.1299089,5.578,120.11545,1676151977145,,,187169838000000,0.9382401,Walk
Fix,FLP,37.3886022,-122.0892428,-6.027986039001462,1.133924,5.252,120.50016,1676151977722,,,187170416000000,0.9382401,Walk
Fix,GPS,37.3886230503,-122.0892941991,13.741155839994956,1.1823906,3.8649237,138.14035,1676151975999,0.022613954,1.0602733,187170533095000,3.0,Walk
Fix,FLP,37.3885983,-122.0892384,-6.03003118438847,1.1376003,5.056,121.28184,1676151978229,,,187170923000000,0.96276057,Walk
Fix,FLP,37.3885939,-122.0892326,-6.03003118438847,1.1362871,4.813,122.09792,1676151978803,,,187171496021973,0.96276057,Walk
Fix,GPS,37.3886145161,-122.0892833704,13.831820586439402,0.89626455,3.8648257,159.69328,1676151976999,0.1575948,10.323228,187171533050000,3.0,Walk
Fix,FLP,37.38859,-122.0892288,-6.006511982577457,1.1190112,4.747,123.36579,1676151979344,,,187172038575502,0.97327816,Walk
Fix,FLP,37.3885867,-122.0892251,-6.006511982577457,1.107181,4.757,123.58398,1676151979888,,,187172581114076,0.97327816,Walk
Fix,GPS,37.3886063677,-122.0892771273,14.142378480108638,1.0366253,3.864728,98.7091,1676151977999,0.15056957,7.558061,187172533243000,3.0,Walk
Fix,NLP,37.3887225,-122.0890756,-0.6999999284744263,,75.906,,1676151980157,,,187172850000000,1.4719312,Walk
Fix,FLP,37.3885838,-122.0892229,-6.070933988198391,1.0805391,4.803,123.63098,1676151980403,,,187173096000000,0.9391728,Walk
Fix,GPS,37.3885997468,-122.0892561903,14.953845731753692,1.026446,2.7687159,113.9957,1676151978999,0.12000904,6.626614,187173533071000,3.0,Walk
Fix,FLP,37.3885808,-122.0892174,-6.070933988198391,1.0710586,4.792,122.65907,1676151980972,,,187173666188294,0.9391728,Walk
Fix,FLP,37.3885782,-122.0892123,-5.659103835929514,1.0537174,4.841,120.945,1676151981515,,,187174208729371,1.0060322,Walk
Fix,GPS,37.3885965837,-122.0892431547,15.338224000247909,1.0890017,2.969923,126.75618,1676151979999,0.12513258,8.669131,187174533052000,3.0,Walk
Fix,FLP,37.3885772,-122.0892109,-5.863675716855717,1.0421059,4.885,119.6911,1676151982022,,,187174715627111,0.99159855,Walk
Fix,FLP,37.3885751,-122.0892062,-5.863675716855717,1.0402622,4.906,119.10448,1676151982600,,,187175293805299,0.99159855,Walk
Fix,GPS,37.3885923445,-122.0892347009,15.307586631871445,1.0146902,3.1900468,112.20437,1676151980999,0.15750317,12.104549,187175533047000,3.0,Walk
Fix,FLP,37.3885732,-122.0892027,-5.9066231621161975,1.0294044,5.003,117.70251,1676151983143,,,187175836331361,1.0011959,Walk
Fix,FLP,37.3885717,-122.0891985,-5.9066231621161975,1.015906,5.062,115.88913,1676151983685,,,187176378880677,1.0011959,Walk
Fix,GPS,37.3885899912,-122.0892210625,15.477003605923317,1.0666772,3.3085098,89.756386,1676151981999,0.14350522,7.6689553,187176533251000,3.0,Walk
Fix,FLP,37.3885716,-122.0891941,-5.978201752673435,0.9940214,5.161,112.17321,1676151984228,,,187176921406801,1.0904899,Walk
Fix,FLP,37.3885715,-122.0891883,-5.978201752673435,0.98344994,5.288,109.84533,1676151984770,,,187177463956605,1.0904899,Walk
Fix,GPS,37.3885889427,-122.0892020848,15.496394938615143,1.1948123,2.8938253,109.18234,1676151982999,0.025816655,1.1745937,187177533115000,3.0,Walk
Fix,NLP,37.3887561,-122.0891478,-0.5000001192092896,,66.42,,1676151985189,,,187177883000000,1.0,Walk
Fix,FLP,37.3885739,-122.0891834,-6.237245782345468,0.97356,5.511,104.85873,1676151985313,,,187178006494447,0.9690632,Walk
Fix,GPS,37.3885878735,-122.0891837995,15.967612437223025,1.2642496,3.0036244,121.61227,1676151983999,0.12614033,6.0490794,187178533103000,3.0,Walk
Fix,FLP,37.3885742,-122.0891786,-5.865720838245544,0.982483,5.603,105.157,1676151985855,,,187178549032655,1.0577006,Walk
Fix,FLP,37.3885752,-122.0891707,-5.865720838245544,0.99808407,5.805,106.091965,1676151986371,,,187179065884828,1.0577006,Walk
Fix,GPS,37.388582725,-122.0891678599,16.36269631456917,1.2950531,2.9536266,110.3,1676151984999,0.13399394,6.1415544,187179533106000,3.0,Walk
Fix,FLP,37.3885754,-122.0891683,-5.979224299575328,1.0086371,5.939,106.69132,1676151986940,,,187179634111695,1.0665534,Walk
Fix,FLP,37.3885748,-122.0891583,-5.979224299575328,1.027908,6.199,107.592064,1676151987482,,,187180176632508,1.0665534,Walk
Fix,GPS,37.3885787241,-122.0891527655,16.63813440146388,1.3003109,2.9622066,126.028885,1676151985999,0.1255109,5.9061,187180533118000,3.0,Walk
Fix,FLP,37.3885753,-122.089153,-5.979224299575328,1.0462892,6.281,108.30295,1676151988025,,,187180719184694,1.0761844,Walk
Fix,FLP,37.388574,-122.0891469,-5.979224299575328,1.0562539,6.424,108.82058,1676151988567,,,187181261722474,1.0761844,Walk
Fix,GPS,37.3885710653,-122.08914109,16.86731334790404,1.2950413,3.002592,134.08018,1676151986999,0.11543152,5.7472854,187181533151000,3.0,Walk
Fix,FLP,37.3885716,-122.0891405,-6.801311984068391,1.0747855,6.319,109.820076,1676151989111,,,187181804260255,1.0865644,Walk
Fix,GPS,37.3885636319,-122.0891293838,16.941833609183945,1.2871056,3.032793,122.56031,1676151987999,0.13185386,7.4588575,187182533211000,3.0,Walk
Fix,FLP,37.3885687,-122.0891332,-5.780847884810356,1.0849327,6.315,110.26287,1676151989653,,,187182346795045,1.0969744,Walk
Fix,NLP,37.3887245,-122.0891359,-0.5000001192092896,,72.885,,1676151990196,,,187182889000000,1.0138365,Walk
Fix,FLP,37.388565,-122.0891277,-5.389194181277361,1.1033126,6.149,111.087234,1676151990195,,,187182889335450,0.95362496,Walk
Fix,GPS,37.3885601328,-122.0891178578,16.97955660825109,1.2535431,3.0235748,93.21015,1676151988999,0.12244964,6.5537972,187183533234000,3.0,Walk
Fix,FLP,37.3885602,-122.0891196,-5.684076189161338,1.1193258,5.887,111.73589,1676151990737,,,187183431873109,0.95526975,Walk
Fix,FLP,37.3885561,-122.0891106,-5.684076189161338,1.1311846,5.654,111.73004,1676151991280,,,187183974410463,0.95526975,Walk
Fix,GPS,37.3885611355,-122.0891060329,17.13293619451906,1.2237741,2.8477285,95.682495,1676151989999,0.116019964,6.0600033,187184533229000,3.0,Walk
Fix,FLP,37.3885543,-122.0891051,-5.669386928699602,1.1342573,5.418,110.85139,1676151991822,,,187184516947877,0.98233104,Walk
Fix,FLP,37.3885521,-122.0890946,-5.669386928699602,1.1324835,5.234,109.47667,1676151992366,,,187185059484681,0.98233104,Walk
Fix,GPS,37.3885645938,-122.089096026,16.90585025489073,1.1960223,2.934196,83.43232,1676151990999,0.119991794,5.4383826,187185533199000,3.0,Walk
Fix,FLP,37.3885514,-122.089089,-5.559969698263913,1.130526,4.923,107.81385,1676151992908,,,187185602021424,0.992362,Walk
Fix,FLP,37.3885512,-122.0890781,-5.559969698263913,1.1200627,4.807,104.25738,1676151993450,,,187186144557924,0.992362,Walk
Fix,GPS,37.3885689227,-122.0890889621,16.69046507013478,1.1608806,2.9663796,70.44967,1676151991999,0.1202202,5.1875634,187186533225000,3.0,Walk
Fix,FLP,37.3885539,-122.0890727,-6.137547028199279,1.1039536,4.58,100.3273,1676151993994,,,187186687094362,0.97872627,Walk
Fix,FLP,37.3885566,-122.0890647,-6.137547028199279,1.0950727,4.543,98.152405,1676151994536,,,187187229630738,0.97872627,Walk
Fix,GPS,37.3885736202,-122.0890764092,16.708586482931377,1.1705502,3.0912886,55.493885,1676151992999,0.12663837,5.743285,187187533302000,3.0,Walk
Fix,FLP,37.3885622,-122.0890582,-6.716294678767511,1.0761011,4.41,94.104454,1676151995079,,,187187772163880,0.9914722,Walk
Fix,NLP,37.3886887,-122.0894088,-0.5000001192092896,,69.33,,1676151995213,,,187187907000000,1.3230478,Walk
Fix,FLP,37.3885675,-122.0890516,-5.280745348764839,1.0599564,4.453,90.3223,1676151995629,,,187188323000000,1.0131633,Walk
Fix,GPS,37.3885803193,-122.0890662559,16.33761081467388,1.1750324,3.333018,38.651955,1676151993999,0.12357064,4.5846615,187188533251000,3.0,Walk
Fix,FLP,37.3885737,-122.0890459,-6.113553135545416,1.0373067,4.453,86.571236,1676151996169,,,187188862000000,0.98775107,Walk
Fix,GPS,37.3885908529,-122.0890604775,15.998530212572255,1.1888968,3.4482772,39.56178,1676151994999,0.12954937,4.739784,187189533261000,3.0,Walk
Fix,FLP,37.3885806,-122.0890408,-6.322724172998363,1.003232,4.484,82.58868,1676151996706,,,187189399773256,1.1072372,Walk
Fix,FLP,37.3885856,-122.0890378,-6.322724172998363,0.9813385,4.475,80.366776,1676151997209,,,187189902000000,1.1072372,Walk
Fix,GPS,37.3886030084,-122.0890533314,15.925187345958603,1.2166321,3.5775537,36.80292,1676151995999,0.15580294,5.7883577,187190533278000,3.0,Walk
Fix,FLP,37.3885936,-122.089034,-4.518864039978709,0.93722516,4.497,75.80598,1676151997791,,,187190484843629,1.1143687,Walk
Fix,FLP,37.3886028,-122.0890289,-4.518864039978709,0.88150454,4.503,70.42951,1676151998333,,,187191027366761,1.1143687,Walk
Fix,GPS,37.3886108805,-122.0890415462,15.741672142937176,1.2232585,3.7304678,27.130863,1676151996999,0.28038386,19.328644,187191533307000,3.0,Walk
Fix,FLP,37.3886069,-122.0890296,-5.177460765291954,0.85360813,4.515,67.43407,1676151998876,,,187191569913209,1.1495262,Walk
Fix,NLP,37.389005,-122.0892844,-0.3999999463558197,,39.894,,1676151999019,,,187191712000000,1.8726977,Walk
Fix,FLP,37.3886175,-122.0890262,-5.177460765291954,0.8128442,4.509,61.428356,1676151999419,,,187192112444764,1.1169009,Walk
Fix,GPS,37.3886159096,-122.0890396433,15.721511832888355,1.1696627,3.9988754,22.467676,1676151997999,0.29390788,14.131525,187192533313000,3.0,Walk
Fix,FLP,37.3886214,-122.089025,-5.91462658562412,0.81528676,4.507,61.12775,1676151999961,,,187192654970826,1.0110399,Walk
Fix,FLP,37.3886294,-122.0890187,-5.91462658562412,0.83233017,4.521,59.531063,1676152000503,,,187193197516969,1.0110399,Walk
Fix,GPS,37.3886250376,-122.0890370513,15.689969422202122,1.1562729,4.3389893,30.344751,1676151998999,0.23612538,11.31096,187193533346000,3.0754168,Walk
Fix,FLP,37.388637,-122.0890159,-6.154419207712877,0.860097,4.561,57.00976,1676152001047,,,187193740051576,1.0507125,Walk
Fix,FLP,37.3886419,-122.0890123,-6.154419207712877,0.8754604,4.632,55.993626,1676152001589,,,187194282585756,1.0507125,Walk
Fix,GPS,37.3886357778,-122.0890274929,15.6277254891642,1.1751612,4.5956335,38.968082,1676151999999,0.26331878,14.348704,187194533367000,3.225809,Walk
Fix,FLP,37.3886486,-122.0890086,-7.229110613240877,0.90269566,4.749,54.382698,1676152002132,,,187194825119325,1.1085677,Walk
Fix,FLP,37.3886538,-122.0890038,-7.229110613240877,0.91746324,4.852,54.042896,1676152002673,,,187195367652833,1.1085677,Walk
Fix,GPS,37.3886474767,-122.0890137775,16.01939179735557,1.2176249,4.5937757,29.442078,1676152000999,0.23899226,10.0473,187195533389000,3.3207111,Walk
Fix,FLP,37.3886604,-122.0889985,-6.297673195838421,0.94344115,4.997,53.769215,1676152003217,,,187195910188417,1.0656694,Walk
Fix,FLP,37.3886649,-122.0889934,-6.297673195838421,0.95733595,5.173,53.818226,1676152003759,,,187196452717592,1.0656694,Walk
Fix,GPS,37.3886626664,-122.0890023698,16.423330029172696,1.26882,4.7026997,35.591427,1676152001999,0.23475178,12.59064,187196533351000,3.4230077,Walk
Fix,NLP,37.3889475,-122.089062,-0.6999999284744263,,37.145,,1676152004048,,,187196742000000,1.5609068,Walk
Fix,FLP,37.388674,-122.0889877,-5.595704405660896,0.98022753,5.46,53.74807,1676152004302,,,187196995248781,0.99804896,Walk
Fix,FLP,37.388679,-122.0889846,-5.595704405660896,0.98301256,5.692,53.532455,1676152004844,,,187197537776429,0.99804896,Walk
Fix,GPS,37.3886753807,-122.0889902184,16.63072555883436,1.3017169,4.773948,30.096563,1676152002999,0.21972074,9.754825,187197533444000,3.4953344,Walk
Fix,FLP,37.3886891,-122.0889793,-5.233193692336997,1.0002582,5.8,52.44659,1676152005371,,,187198065884828,1.0103705,Walk
Fix,FLP,37.3886944,-122.0889765,-5.233193692336997,1.0154526,6.016,51.549053,1676152005909,,,187198602000000,1.0103705,Walk
Fix,GPS,37.3886879065,-122.088983124,16.78345575901537,1.3127725,4.7896624,28.034529,1676152003999,0.24267197,10.383142,187198533554000,3.5498817,Walk
Fix,FLP,37.3887047,-122.0889719,-4.188043753893751,1.0395857,6.195,49.639263,1676152006472,,,187199165365541,0.9897559,Walk
Fix,GPS,37.3886987278,-122.0889760979,16.794204352325004,1.3101482,4.797362,22.26581,1676152004999,0.2473734,9.566448,187199533494000,3.5831711,Walk
Fix,FLP,37.3887169,-122.0889663,-0.6999999284744263,1.0665698,6.46,46.95882,1676152007013,,,187199707892518,1.0045342,Walk
Fix,GPS,37.3887103672,-122.0889693995,16.756876782070474,1.3146417,4.87426,22.469086,1676152005999,0.23716708,8.843023,187200533436000,3.6372874,Walk
Fix,FLP,37.3887239,-122.0889637,-0.6999999284744263,1.0769157,6.573,45.993225,1676152007556,,,187200250418947,1.0045342,Walk
Fix,FLP,37.3887344,-122.0889608,-0.6999999284744263,1.0953681,6.676,44.293495,1676152008098,,,187200792944337,0.93819565,Walk
Fix,GPS,37.3887201271,-122.0889612936,16.736432798729282,1.3088832,4.9942956,27.081593,1676152006999,0.22222978,9.902225,187201533739000,3.7013547,Walk
Fix,FLP,37.3887405,-122.0889583,-0.6999999284744263,1.1062676,6.745,43.524986,1676152008641,,,187201335468690,0.9579399,Walk
Fix,NLP,37.3892694,-122.0887334,-0.3999999463558197,,34.419,,1676152009041,,,187201734000000,1.2519875,Walk
Fix,FLP,37.3887479,-122.0889574,-0.3999999463558197,1.1239499,6.876,42.12454,1676152009184,,,187201877992433,0.9625151,Walk
Fix,GPS,37.38873123,-122.0889543447,16.723509255122707,1.3104668,5.0940475,30.004368,1676152007999,0.23751971,9.83372,187202533507000,3.7722135,Walk
Fix,FLP,37.3887641,-122.0889517,-0.3999999463558197,1.1396997,6.979,41.035885,1676152009727,,,187202420518067,1.009675,Walk
Fix,FLP,37.3887812,-122.0889467,-0.3999999463558197,1.1551018,7.027,39.710392,1676152010270,,,187202963037111,1.009675,Walk
Fix,GPS,37.3887438364,-122.0889457025,16.363750932383326,1.3312314,5.144676,32.45842,1676152008999,0.23145102,8.431643,187203533548000,3.829908,Walk
Fix,FLP,37.3887883,-122.0889447,-0.3999999463558197,1.1643423,7.028,38.75977,1676152010812,,,187203505558290,1.0209582,Walk
Fix,FLP,37.3888015,-122.0889399,-0.3999999463558197,1.1792928,7.029,37.186836,1676152011355,,,187204048078554,1.0209582,Walk
Fix,GPS,37.3887553071,-122.0889369414,16.157500795605845,1.3435366,5.192584,31.571976,1676152009999,0.22828329,8.344286,187204533544000,3.8923984,Walk
Fix,FLP,37.3888077,-122.0889378,1.8423292658047217,1.1882464,7.041,36.510178,1676152011897,,,187204590598024,1.0215605,Walk
Fix,FLP,37.3888203,-122.0889328,1.8423292658047217,1.2022437,7.046,35.371647,1676152012439,,,187205133116395,1.0215605,Walk
Fix,GPS,37.38876616,-122.0889260722,16.463024081754938,1.3569558,5.2262316,33.733837,1676152010999,0.23273955,9.875832,187205533519000,3.9560497,Walk
Fix,FLP,37.3888261,-122.0889314,1.482567775124636,1.2146516,7.015,34.57747,1676152012982,,,187205675634401,1.0296139,Walk
Fix,FLP,37.3888338,-122.0889279,1.482567775124636,1.2221822,7.0,34.13924,1676152013525,,,187206218151491,1.0296139,Walk
Fix,GPS,37.3887757788,-122.088914915,16.44058193538046,1.3595428,5.247791,35.25867,1676152011999,0.239235,11.751523,187206533808000,4.0218725,Walk
Fix,FLP,37.3888408,-122.0889258,1.4748916654813655,1.2336832,6.914,33.404163,1676152014095,,,187206788000000,1.0401071,Walk
Fix,NLP,37.389311,-122.0888214,-1.0000001192092896,,30.319,,1676152014101,,,187206794000000,1.0,Walk
Fix,FLP,37.3888523,-122.0889223,-3.0852752235145786,1.2457019,6.88,32.86013,1676152014609,,,187207303183717,1.0250692,Walk
Fix,GPS,37.3887847385,-122.088908988,16.24968585875803,1.3337605,5.272121,40.899593,1676152012999,0.24454579,15.296513,187207533676000,4.0926805,Walk
Fix,FLP,37.3888643,-122.0889192,-2.812826328091397,1.2565489,6.844,32.22031,1676152015152,,,187207845698427,0.9644901,Walk
Fix,GPS,37.3887944081,-122.0889030133,16.0561952895006,1.3168191,5.2717786,34.81727,1676152013999,0.24162662,11.438159,187208533549000,4.155559,Walk
Fix,FLP,37.3888746,-122.0889155,-3.076325631515644,1.265432,6.831,31.48401,1676152015695,,,187208388204041,0.9684576,Walk
Fix,FLP,37.3888801,-122.0889128,-3.076325631515644,1.2693832,6.813,31.19548,1676152016210,,,187208903000000,0.9684576,Walk
Fix,GPS,37.3888041892,-122.0888951695,15.789467968507006,1.3105613,5.317748,25.975609,1676152014999,0.24541272,9.752727,187209533578000,4.2154946,Walk
Fix,FLP,37.3888882,-122.0889089,-1.0000001192092896,1.2743312,6.801,30.726633,1676152016780,,,187209473239076,0.99272084,Walk
Fix,FLP,37.3889001,-122.0889019,-1.0000001192092896,1.2792242,6.808,30.361681,1676152017847,,,187210540000000,0.99272084,Walk
Fix,GPS,37.3888199446,-122.088886746,15.66641731550562,1.3533839,5.3520093,21.633064,1676152015999,0.27825585,9.46979,187210533609000,4.2778096,Walk
Fix,FLP,37.3889101,-122.088896,-1.0000001192092896,1.2836972,6.819,30.013844,1676152018372,,,187211065884828,0.9424032,Walk
Fix,GPS,37.3888344811,-122.0888798637,15.540258262785189,1.3789976,5.3980145,27.453255,1676152016999,0.27499363,10.358958,187211533610000,4.348891,Walk
Fix,FLP,37.3889116,-122.0888951,-1.0000001192092896,1.2882926,6.826,29.90785,1676152018950,,,187211643283754,0.9465838,Walk
Fix,NLP,37.3891776,-122.0888301,-1.3000000715255735,,32.374,,1676152019140,,,187211833000000,1.0,Walk
Fix,FLP,37.3889172,-122.0888918,-1.3000000715255735,1.2954768,6.843,29.604612,1676152019492,,,187212185793092,0.92291194,Walk
Fix,GPS,37.3888509622,-122.0888728108,15.391629152989882,1.4159564,5.4104786,29.928038,1676152017999,0.28200173,12.153829,187212533661000,4.414423,Walk
Fix,FLP,37.3889296,-122.0888849,-3.391960118025509,1.3045998,6.852,28.875519,1676152020035,,,187212728301881,0.9380284,Walk
Fix,GPS,37.3888645626,-122.0888705626,15.6163028239386,1.4171271,5.44813,25.982765,1676152018999,0.27975094,12.344684,187213533797000,4.485235,Walk
Fix,FLP,37.3889387,-122.0888809,-3.391960118025509,1.3104519,6.856,28.481415,1676152020577,,,187213270810426,0.9451452,Walk
Fix,FLP,37.3889459,-122.0888782,-3.192983294718701,1.3198221,6.863,27.951025,1676152021120,,,187213813318178,0.94268334,Walk
Fix,FLP,37.3889533,-122.0888739,-3.192983294718701,1.3257719,6.883,27.772352,1676152021662,,,187214355825563,0.94268334,Walk
Fix,GPS,37.3888780147,-122.0888687877,15.837555752368946,1.4166543,5.52551,23.83613,1676152019999,0.26290244,11.229661,187214533682000,4.571669,Walk
Fix,FLP,37.3889605,-122.0888703,-3.192983294718701,1.3345604,6.897,27.422861,1676152022204,,,187214898332338,0.95265335,Walk
Fix,FLP,37.3889677,-122.0888662,-3.192983294718701,1.3395514,6.907,27.282675,1676152022746,,,187215440838991,0.95265335,Walk
Fix,GPS,37.3888936616,-122.0888617786,15.39215306399086,1.4456601,5.5617733,23.165634,1676152020999,0.26044345,8.691166,187215533750000,4.636676,Walk
Fix,FLP,37.3889747,-122.0888622,-1.3000000715255735,1.3484797,6.928,27.238043,1676152023290,,,187215983344545,0.95259345,Walk
Fix,FLP,37.3889821,-122.0888574,-1.3000000715255735,1.3540553,6.959,27.408787,1676152023832,,,187216525846620,0.95259345,Walk
Fix,GPS,37.3889106984,-122.0888544236,15.051064079901348,1.4846509,5.579502,26.835705,1676152021999,0.25554773,8.848232,187216533705000,4.688229,Walk
Fix,FLP,37.3889899,-122.0888524,-1.3000000715255735,1.3645788,7.001,27.646954,1676152024372,,,187217065884828,0.96099037,Walk
Fix,NLP,37.3891578,-122.0887375,-0.3999999463558197,,30.877,,1676152024147,,,187216841000000,1.0,Walk
Fix,FLP,37.3890005,-122.0888455,-0.3999999463558197,1.3723211,7.055,27.71419,1676152024917,,,187217610858887,0.9258343,Walk
Fix,GPS,37.3889283654,-122.0888490089,14.821818319448756,1.5211841,5.4967785,28.459322,1676152022999,0.2626929,9.051967,187217533684000,4.71079,Walk
Fix,FLP,37.3890089,-122.0888403,-0.3999999463558197,1.3809944,7.101,27.827744,1676152025468,,,187218161000000,0.9876379,Walk
Fix,GPS,37.3889455445,-122.0888400847,14.515875691745572,1.5548326,5.3412075,28.720266,1676152023999,0.25532448,10.336018,187218533744000,4.690708,Walk
Fix,FLP,37.3890035,-122.0888369,-0.3999999463558197,1.3770739,7.254,28.26482,1676152026002,,,187218695866517,0.9913251,Walk
Fix,GPS,37.3889590725,-122.0888320622,14.364719440236392,1.5515865,5.2283564,27.454233,1676152024999,0.27579474,12.012165,187219533706000,4.6479125,Walk
Fix,FLP,37.388992,-122.0888333,-3.211233847161161,1.3620572,7.472,28.75642,1676152026545,,,187219238369874,1.0006517,Walk
Fix,FLP,37.3889881,-122.0888319,-3.211233847161161,1.3605107,7.544,28.835463,1676152027067,,,187219761000000,1.0006517,Walk
Fix,GPS,37.3889695736,-122.0888293679,14.287193428353412,1.5109142,5.1299124,24.494587,1676152025999,0.24531732,11.991299,187220533758000,4.6387453,Walk
Fix,FLP,37.388986,-122.0888274,-1.0000001192092896,1.3602796,7.692,28.812254,1676152027630,,,187220323375001,1.0126528,Walk
Fix,FLP,37.388987,-122.0888246,-1.0000001192092896,1.3624842,7.845,28.448738,1676152028172,,,187220865877199,1.0126528,Walk
Fix,GPS,37.3889777436,-122.088824756,14.501833120231488,1.4580041,5.2011943,21.386986,1676152026999,0.252221,12.55311,187221533765000,4.657751,Walk
Fix,FLP,37.3889892,-122.0888233,-1.0000001192092896,1.3651499,7.929,28.119415,1676152028714,,,187221408380128,1.0237908,Walk
Fix,FLP,37.3889929,-122.0888212,-1.0000001192092896,1.3653587,8.13,27.580513,1676152029256,,,187221950880128,1.0237908,Walk
Fix,NLP,37.3892868,-122.0888,-1.3000000715255735,,17.927,,1676152029158,,,187221851000000,1.0,Walk
Fix,GPS,37.3889879212,-122.0888181297,14.80345094670688,1.4314137,5.290891,19.015738,1676152027999,0.23882265,11.100746,187222533767000,4.6472516,Walk
Fix,FLP,37.3890049,-122.0888172,-1.3000000715255735,1.374484,8.211,27.19658,1676152029799,,,187222493381166,0.92672366,Walk
Fix,FLP,37.3890128,-122.0888135,-1.3000000715255735,1.3738265,8.363,26.847754,1676152030342,,,187223035881410,0.92672366,Walk
Fix,GPS,37.3890027528,-122.0888162808,14.782334691033052,1.4385488,5.2626643,20.305233,1676152028999,0.2411226,9.037529,187223533835000,4.6257873,Walk
Fix,FLP,37.389013,-122.0888124,-1.3000000715255735,1.3719004,8.437,26.642895,1676152030884,,,187223578381898,0.9391955,Walk
Fix,FLP,37.389017,-122.0888086,-1.3000000715255735,1.367964,8.312,26.292303,1676152031427,,,187224120881837,0.9391955,Walk
Fix,GPS,37.389015269,-122.0888092097,14.83455317268095,1.4359602,5.2166905,19.159025,1676152029999,0.26285905,9.447524,187224533841000,4.586055,Walk
Fix,FLP,37.3890201,-122.0888061,-1.3000000715255735,1.3678546,8.176,25.911596,1676152031969,,,187224663381105,0.93629396,Walk
Fix,FLP,37.3890254,-122.0888025,-1.3000000715255735,1.3706495,8.102,25.86844,1676152032512,,,187225205880372,0.93629396,Walk
Fix,GPS,37.3890261182,-122.0888008046,14.647273199136787,1.4271908,5.109766,20.347174,1676152030999,0.2493075,8.288952,187225533823000,4.5597,Walk
Fix,FLP,37.3890313,-122.0887973,-1.3000000715255735,1.3761077,7.938,25.959188,1676152033054,,,187225748377931,0.9417178,Walk
Fix,FLP,37.3890377,-122.0887923,-1.3000000715255735,1.3802881,7.846,26.125057,1676152033596,,,187226290878174,0.9417178,Walk
Fix,GPS,37.3890389769,-122.088793313,14.585003165662714,1.4299715,5.0611925,20.70996,1676152031999,0.23336501,9.365137,187226533800000,4.500479,Walk
Fix,FLP,37.3890447,-122.0887861,-1.3000000715255735,1.3868302,7.587,26.355219,1676152034140,,,187226833364685,0.93912596,Walk
Fix,FLP,37.3890514,-122.088781,-1.3000000715255735,1.3913172,7.499,26.403984,1676152034682,,,187227375874269,0.93912596,Walk
Fix,GPS,37.3890490222,-122.0887853327,14.395850217168189,1.4111803,4.9178247,25.459654,1676152032999,0.25179157,12.302278,187227533861000,4.4462047,Walk
Fix,FLP,37.3890593,-122.0887739,-1.3000000715255735,1.3971673,7.253,26.502491,1676152035225,,,187227918372255,0.96325827,Walk
Fix,FLP,37.3890663,-122.0887683,-1.3000000715255735,1.4003462,7.139,26.47291,1676152035767,,,187228460870119,0.96325827,Walk
Fix,GPS,37.3890566084,-122.0887783673,14.438503617334709,1.3711574,4.898883,26.354897,1676152033999,0.22627598,12.865921,187228533845000,4.417205,Walk
Fix,FLP,37.3890742,-122.0887607,-1.3000000715255735,1.4023716,6.882,26.448023,1676152036309,,,187229003367433,0.9647035,Walk
Fix,FLP,37.3890802,-122.0887553,-1.3000000715255735,1.4036362,6.816,26.510252,1676152036833,,,187229526000000,0.9647035,Walk
Fix,GPS,37.3890619959,-122.0887732922,14.321328645564314,1.3134716,4.892175,26.317045,1676152034999,0.23622094,11.31532,187229533860000,4.3727264,Walk
Fix,NLP,37.3892434,-122.088737,-1.0000001192092896,,26.475,,1676152036818,,,187229511000000,1.0,Walk
Fix,FLP,37.3890871,-122.0887481,-0.3999999463558197,1.4013859,6.678,26.654339,1676152037367,,,187230060000000,0.9775785,Walk
Fix,FLP,37.3890996,-122.0887384,-1.0000001192092896,1.3998144,6.552,26.751324,1676152037872,,,187230565000000,0.91622174,Walk
Fix,GPS,37.3890694451,-122.0887659221,14.375385301166384,1.2869593,4.9877405,24.297243,1676152035999,0.25454423,9.833846,187230533908000,4.355009,Walk
Fix,FLP,37.3891054,-122.0887326,-1.0000001192092896,1.3932635,6.453,26.727064,1676152038372,,,187231065884828,0.9244326,Walk
Fix,FLP,37.3891105,-122.0887285,-1.0000001192092896,1.388885,6.348,26.712603,1676152038912,,,187231605000000,0.9244326,Walk
Fix,GPS,37.3890801538,-122.0887578465,14.346821084625066,1.289732,5.0405087,27.951668,1676152036999,0.2556412,10.370873,187231533935000,4.34894,Walk
Fix,FLP,37.3891169,-122.0887227,-1.0000001192092896,1.380204,6.248,26.79698,1676152039460,,,187232153000000,0.9222672,Walk
Fix,GPS,37.3890882536,-122.0887482202,14.287223821495354,1.2808611,5.077883,31.415844,1676152037999,0.27459326,12.123139,187232533957000,4.353093,Walk
Fix,FLP,37.3891215,-122.0887185,-0.3999999463558197,1.3703709,6.086,26.953398,1676152040005,,,187232698000000,0.93174386,Walk
Fix,FLP,37.3891278,-122.0887143,-0.3999999463558197,1.367305,6.034,26.918978,1676152040531,,,187233225000000,0.93174386,Walk
Fix,GPS,37.3890975822,-122.0887406619,14.443697701686547,1.2747306,5.0946765,29.005795,1676152038999,0.25513425,9.556106,187233534029000,4.361826,Walk
Fix,FLP,37.3891361,-122.0887089,-1.0000001192092896,1.3517028,5.891,26.740528,1676152041084,,,187233777335939,0.99963963,Walk
Fix,GPS,37.3891080272,-122.0887314138,14.263727454556198,1.2858398,5.1302423,27.521582,1676152039999,0.25997156,8.911657,187234533957000,4.3730884,Walk
Fix,FLP,37.38914,-122.0887066,-1.0000001192092896,1.349135,5.818,26.667822,1676152041625,,,187234319831544,0.9554624,Walk
Fix,NLP,37.3891954,-122.0886843,-0.3999999463558197,,23.623,,1676152041863,,,187234556000000,1.0,Walk
Fix,FLP,37.3891426,-122.0887052,-0.3999999463558197,1.3443608,5.863,26.639605,1676152042168,,,187234862326784,0.9170305,Walk
Fix,GPS,37.3891190304,-122.0887264273,14.389128222848887,1.2878133,5.239772,30.140104,1676152040999,0.27323398,9.664494,187235533959000,4.422894,Walk
Fix,FLP,37.3891531,-122.0886988,-0.3999999463558197,1.3418251,5.891,26.67084,1676152042710,,,187235404821962,0.9253239,Walk
Fix,FLP,37.3891618,-122.0886936,-0.3999999463558197,1.3393829,5.954,26.721334,1676152043254,,,187235947316591,0.9253239,Walk
Fix,GPS,37.3891290414,-122.088718168,14.547531693724984,1.2938914,5.2780304,29.524036,1676152041999,0.26414174,8.502947,187236534012000,4.4654746,Walk
Fix,FLP,37.389165,-122.0886915,-1.3000000715255735,1.3390877,5.996,26.710745,1676152043795,,,187236489811525,0.9388798,Walk
Fix,FLP,37.3891741,-122.0886857,-1.3000000715255735,1.3348008,6.118,26.617918,1676152044338,,,187237032303285,0.9388798,Walk
Fix,GPS,37.3891418614,-122.0887092316,14.552060454673397,1.3237326,5.3590813,29.70873,1676152042999,0.2680814,8.255259,187237533994000,4.514195,Walk
Fix,FLP,37.3891772,-122.0886841,-0.3999999463558197,1.3352447,6.207,26.496813,1676152044881,,,187237574789979,0.94558895,Walk
Fix,FLP,37.3891887,-122.0886775,-0.3999999463558197,1.33364,6.413,26.400484,1676152045423,,,187238117294618,0.94558895,Walk
Fix,GPS,37.3891530285,-122.0887041131,14.502870158823274,1.3284917,5.408105,30.669533,1676152043999,0.2639158,8.378121,187238534036000,4.566791,Walk
Fix,FLP,37.3891928,-122.088675,-0.3999999463558197,1.3337092,6.537,26.447323,1676152045966,,,187238659779908,0.9496226,Walk
Fix,FLP,37.3892011,-122.0886703,-0.3999999463558197,1.3346435,6.689,26.449232,1676152046509,,,187239202282716,0.9496226,Walk
Fix,GPS,37.389164828,-122.0886962763,14.433313662688333,1.3417234,5.4648952,34.905804,1676152044999,0.2573822,10.109549,187239534115000,4.621975,Walk
Fix,FLP,37.3892064,-122.0886678,-0.3999999463558197,1.3361899,6.821,26.37726,1676152047051,,,187239744776369,0.9400896,Walk
Fix,NLP,37.3891477,-122.0885765,-1.0000001192092896,,15.18,,1676152046881,,,187239574000000,1.0,Walk
Fix,FLP,37.3892135,-122.0886604,-1.0000001192092896,1.3328367,6.921,26.458086,1676152047593,,,187240287269777,0.884679,Walk
Fix,GPS,37.3891756726,-122.0886887942,14.416177108570714,1.3414915,5.51139,35.635674,1676152045999,0.26784515,12.257283,187240534037000,4.6553116,Walk
Fix,FLP,37.3892153,-122.0886562,-1.0000001192092896,1.3291795,7.049,26.541414,1676152048136,,,187240829763185,0.9270062,Walk
Fix,FLP,37.3892209,-122.0886518,-1.0000001192092896,1.3290517,7.109,26.561832,1676152048678,,,187241372253419,0.9270062,Walk
Fix,GPS,37.389186911,-122.0886835801,14.097529369825946,1.3378919,5.504635,32.81061,1676152046999,0.28051707,11.1303835,187241534052000,4.6514955,Walk
Fix,FLP,37.3892257,-122.088648,-1.0000001192092896,1.3299506,7.218,26.586933,1676152049221,,,187241914749512,0.9560006,Walk
Fix,FLP,37.3892319,-122.0886437,-1.0000001192092896,1.3315156,7.258,26.679165,1676152049764,,,187242457242433,0.9560006,Walk
Fix,GPS,37.389200311,-122.0886808246,13.705788581729864,1.3514152,5.489456,30.707191,1676152047999,0.2985018,9.427583,187242534064000,4.6319613,Walk
Fix,FLP,37.3892385,-122.0886391,-2.8665201027073337,1.3349512,7.321,26.763857,1676152050306,,,187242999735048,0.9399142,Walk
Fix,FLP,37.389246,-122.0886342,-2.8665201027073337,1.3374649,7.383,26.626362,1676152050848,,,187243542227785,0.9399142,Walk
Fix,GPS,37.3892115349,-122.088674341,13.679529106793838,1.3538247,5.514572,30.123163,1676152048999,0.28524873,9.5268345,187243534073000,4.6115036,Walk
Fix,FLP,37.3892596,-122.088626,-1.0000001192092896,1.3419611,7.48,26.254044,1676152051888,,,187244581000000,0.9332983,Walk
Fix,GPS,37.3892215134,-122.088664851,13.971505395538028,1.3551576,5.5621424,32.129414,1676152049999,0.27758458,10.945889,187244534127000,4.596083,Walk
Fix,NLP,37.3892691,-122.0886166,-0.8999999761581421,,16.737,,1676152051915,,,187244608000000,1.0,Walk
Fix,FLP,37.3892762,-122.0886167,-0.3999999463558197,1.3416114,7.535,25.942997,1676152052476,,,187245169694214,0.90329987,Walk
Fix,GPS,37.3892298723,-122.0886571816,14.079868295847348,1.3354536,5.599944,29.403154,1676152050999,0.27425584,12.087772,187245534169000,4.600905,Walk
Fix,FLP,37.3892811,-122.0886142,-3.3381916382514447,1.3376963,7.5,25.797436,1676152053019,,,187245712194154,0.88762766,Walk
Fix,GPS,37.3892390142,-122.0886536196,14.270395083999247,1.3110509,5.559626,21.460648,1676152051999,0.26424778,9.714252,187246534192000,4.5896106,Walk
Fix,FLP,37.3892864,-122.088611,-3.3381916382514447,1.3370726,7.464,25.660545,1676152053561,,,187246254689149,0.88762766,Walk
Fix,FLP,37.3892919,-122.0886077,-3.137443194986467,1.333698,7.365,25.515331,1676152054104,,,187246797182130,0.89937514,Walk
Fix,GPS,37.3892486085,-122.0886479921,14.481988502017488,1.2982359,5.569097,18.668257,1676152052999,0.2769805,9.322759,187247534187000,4.587419,Walk
Fix,FLP,37.3892975,-122.0886042,-3.137443194986467,1.3325369,7.306,25.531353,1676152054646,,,187247339674744,0.89937514,Walk
Fix,FLP,37.3893027,-122.0886008,-3.1214666219437746,1.3276674,7.184,25.597767,1676152055189,,,187247882167726,0.89370596,Walk
Fix,GPS,37.3892595069,-122.0886424249,14.65712985087174,1.2954242,5.5415535,16.454096,1676152053999,0.26804718,10.198578,187248534185000,4.571237,Walk
Fix,FLP,37.3893068,-122.0885979,-3.5499289231834226,1.3267975,7.104,25.797901,1676152055731,,,187248424660280,0.90103465,Walk
Fix,FLP,37.3893117,-122.0885944,-3.5499289231834226,1.3216028,6.931,26.116707,1676152056274,,,187248967153017,0.90103465,Walk
Fix,GPS,37.3892673817,-122.0886377141,14.84233101959434,1.2630675,5.5489135,18.006832,1676152054999,0.2696265,15.118554,187249534221000,4.578146,Walk
Fix,FLP,37.3893158,-122.0885917,-3.3332039068757524,1.3208545,6.848,26.165615,1676152056816,,,187249509645509,0.92184347,Walk
Fix,NLP,37.389563,-122.088735,-1.0000001192092896,,14.974,,1676152056933,,,187249627000000,1.0,Walk
Fix,FLP,37.3893272,-122.0885887,-1.0000001192092896,1.3218254,6.634,26.056236,1676152057359,,,187250052135255,0.92373866,Walk
Fix,GPS,37.389274024,-122.0886300078,14.789075236871524,1.2362694,5.493188,19.248014,1676152055999,0.26070404,12.573945,187250534350000,4.560716,Walk
Fix,FLP,37.3893343,-122.0885876,-1.0000001192092896,1.3268353,6.637,25.897839,1676152057901,,,187250594622011,0.93078667,Walk
Fix,FLP,37.3893442,-122.0885859,-1.0000001192092896,1.3248433,6.625,25.641714,1676152058444,,,187251137122560,0.93078667,Walk
Fix,GPS,37.3892789397,-122.0886189002,14.342580123478175,1.2233845,5.510194,18.906672,1676152056999,0.2692167,10.672775,187251534252000,4.578101,Walk
Fix,FLP,37.389349,-122.0885854,-1.0000001192092896,1.3137401,6.627,25.503508,1676152058986,,,187251679614686,0.9432784,Walk
Fix,FLP,37.3893539,-122.088583,-1.0000001192092896,1.3091147,6.674,25.553783,1676152059529,,,187252222095033,0.9432784,Walk
Fix,GPS,37.389288457,-122.0886105706,14.04251089930429,1.2273635,5.5507026,18.179012,1676152057999,0.27547538,9.440793,187252534296000,4.5878143,Walk
Fix,FLP,37.3893577,-122.0885812,0.878141638698672,1.2986357,6.759,25.726465,1676152060070,,,187252764598634,0.9999286,Walk
Fix,GPS,37.389307772,-122.0885965402,13.347362579882311,1.3217857,5.5205073,19.78797,1676152058999,0.2543904,9.219177,187253534258000,4.555526,Walk
Fix,FLP,37.3893632,-122.088578,0.878141638698672,1.2888597,6.903,25.908768,1676152060614,,,187253307089296,1.0056058,Walk
Fix,FLP,37.3893661,-122.0885759,0.878141638698672,1.2897782,6.989,25.922857,1676152061144,,,187253838000000,1.0056058,Walk
Fix,GPS,37.3893189961,-122.0885907336,13.215157661800609,1.3199143,5.638621,20.209764,1676152059999,0.2569917,11.241204,187254534292000,4.5810075,Walk
Fix,FLP,37.3893722,-122.0885719,-1.0000001192092896,1.2904304,7.189,25.823278,1676152061698,,,187254392063661,1.0156258,Walk
Fix,FLP,37.3893765,-122.0885692,-1.0000001192092896,1.2920493,7.359,25.718544,1676152062212,,,187254905000000,1.0156258,Walk
Fix,NLP,37.3895547,-122.0888105,-1.399999976158142,,13.82,,1676152061952,,,187254646000000,1.0,Walk
Fix,GPS,37.3893310961,-122.0885846265,13.086743665956524,1.3231547,5.620392,21.239489,1676152060999,0.2556305,12.945664,187255534363000,4.5993605,Walk
Fix,FLP,37.3893897,-122.0885678,-1.399999976158142,1.2974691,7.544,25.241325,1676152062783,,,187255477056093,0.9267842,Walk
Fix,FLP,37.3894045,-122.0885686,-1.399999976158142,1.3049037,7.685,24.889502,1676152063326,,,187256019547304,0.9267842,Walk
Fix,GPS,37.3893387941,-122.0885799127,12.791413742535507,1.2866054,5.637927,19.29624,1676152061999,0.25644773,13.39387,187256534359000,4.6049604,Walk
Fix,FLP,37.3894093,-122.0885683,-1.399999976158142,1.3099291,7.777,24.847105,1676152063869,,,187256562038331,0.93256754,Walk
Fix,FLP,37.3894216,-122.0885646,-1.399999976158142,1.3134571,7.95,24.81227,1676152064372,,,187257065884828,0.93256754,Walk
Fix,GPS,37.3893461169,-122.0885750202,12.56929308152403,1.2496891,5.6628237,17.605844,1676152062999,0.25756553,14.067025,187257534332000,4.6218343,Walk
Fix,FLP,37.3894255,-122.0885631,-1.399999976158142,1.315915,8.039,24.82317,1676152064954,,,187257647020326,0.9076109,Walk
Fix,FLP,37.3894371,-122.0885568,-1.399999976158142,1.3152899,8.145,24.856047,1676152065496,,,187258189510927,0.9076109,Walk
Fix,GPS,37.3893577423,-122.0885621767,12.250970726138265,1.2747025,5.5722847,20.29229,1676152063999,0.24618089,14.863766,187258534374000,4.592555,Walk
Fix,FLP,37.389446,-122.0885508,-1.399999976158142,1.3131435,8.123,24.883146,1676152066037,,,187258731998780,0.9189033,Walk
Fix,FLP,37.3894508,-122.0885475,-1.399999976158142,1.3141887,8.085,24.869444,1676152066581,,,187259274492372,0.9189033,Walk
Fix,GPS,37.3893692399,-122.0885521729,12.02877990024848,1.2843051,5.571598,22.968878,1676152064999,0.22753134,13.693482,187259534354000,4.518828,Walk
Fix,FLP,37.3894585,-122.088542,-1.399999976158142,1.3139012,7.932,24.90792,1676152067123,,,187259816982851,0.9200923,Walk
Fix,NLP,37.3894851,-122.0886308,-1.399999976158142,,27.915,,1676152067006,,,187259699000000,1.0,Walk
Fix,FLP,37.3894676,-122.0885363,-1.399999976158142,1.3141589,7.771,24.937565,1676152067665,,,187260359473390,0.861589,Walk
Fix,GPS,37.3893809643,-122.0885460601,11.832957904888158,1.2819045,5.4218264,25.222652,1676152065999,0.23032947,13.847355,187260534315000,4.4716296,Walk
Fix,FLP,37.3894736,-122.0885325,-1.399999976158142,1.3128521,7.6,25.03643,1676152068207,,,187260901963624,0.865407,Walk
Fix,FLP,37.3894791,-122.0885288,-1.399999976158142,1.3127981,7.509,25.083239,1676152068751,,,187261444454103,0.865407,Walk
Fix,GPS,37.3893918523,-122.0885381418,11.637795628331506,1.279134,5.354041,26.332184,1676152066999,0.23087555,13.226288,187261534357000,4.455539,Walk
Fix,FLP,37.3894852,-122.0885244,-0.8999999761581421,1.3106501,7.3,25.152502,1676152069293,,,187261986944520,0.87497014,Walk
Fix,FLP,37.389491,-122.0885206,-0.8999999761581421,1.3106749,7.115,25.212887,1676152069835,,,187262529434511,0.87497014,Walk
Fix,GPS,37.3894004895,-122.0885303542,11.519784622837308,1.2632706,5.2390203,26.27718,1676152067999,0.2269109,9.811791,187262534425000,4.4261265,Walk
Fix,FLP,37.3894971,-122.0885162,-1.399999976158142,1.308465,7.084,25.360832,1676152070384,,,187263078000000,0.89870554,Walk
Fix,FLP,37.3895032,-122.0885123,-1.399999976158142,1.307856,6.869,25.425642,1676152070890,,,187263584000000,0.89870554,Walk
Fix,GPS,37.3894109865,-122.0885215246,11.610725083851335,1.2700493,5.23613,25.362673,1676152068999,0.23862454,8.74469,187263534372000,4.41751,Walk
Fix,FLP,37.3895098,-122.088508,-1.399999976158142,1.3049815,6.867,25.461264,1676152071445,,,187264139000000,0.90582967,Walk
Fix,GPS,37.3894272414,-122.0885158563,12.0685801258323,1.312751,5.188595,26.836645,1676152069999,0.2735799,10.381997,187264534433000,4.4068775,Walk
Fix,NLP,37.3896526,-122.0887431,-0.3999999463558197,,16.314,,1676152072003,,,187264697000000,1.0,Walk
Fix,FLP,37.3895136,-122.0885051,-0.3999999463558197,1.2982845,6.8,25.409348,1676152072006,,,187264699395509,0.87363464,Walk
Fix,FLP,37.389523,-122.0885058,-0.3999999463558197,1.3025843,6.765,25.13798,1676152072511,,,187265204000000,0.87363464,Walk
Fix,GPS,37.3894395697,-122.0885066789,12.498421861645657,1.3294096,5.192483,24.674196,1676152070999,0.2723183,10.808941,187265534426000,4.3850565,Walk
Fix,FLP,37.3895366,-122.0885065,-0.3999999463558197,1.3036286,6.637,24.783249,1676152073091,,,187265784375185,0.876057,Walk
Fix,GPS,37.3894520511,-122.0885002978,12.651555420774262,1.3350443,5.19182,29.265642,1676152071999,0.2810233,13.257074,187266534427000,4.371865,Walk
Fix,FLP,37.3895425,-122.0885042,-0.3999999463558197,1.3053408,6.575,24.771355,1676152073633,,,187266326864870,0.876057,Walk
Fix,FLP,37.3895492,-122.0885007,-0.3999999463558197,1.3065587,6.492,24.91257,1676152074176,,,187266869357667,0.89247394,Walk
Fix,GPS,37.3894643885,-122.0884945356,12.569077131113431,1.3412578,5.087354,26.333467,1676152072999,0.24750777,8.588509,187267534475000,4.3222504,Walk
Fix,FLP,37.3895544,-122.0884974,-0.3999999463558197,1.3086607,6.418,25.042797,1676152074718,,,187267411844179,0.89247394,Walk
Fix,FLP,37.3895608,-122.0884926,-0.3999999463558197,1.3097879,6.343,25.335379,1676152075261,,,187267954333986,0.91945237,Walk
Fix,GPS,37.389479053,-122.0884873186,12.436682418574462,1.3715765,5.0802164,26.555433,1676152073999,0.23701236,7.6263075,187268534494000,4.279007,Walk
Fix,FLP,37.3895644,-122.0884899,-0.3999999463558197,1.3123469,6.297,25.46257,1676152075802,,,187268496811952,0.9298973,Walk
Fix,FLP,37.3895705,-122.0884845,-0.3999999463558197,1.3139633,6.216,25.677502,1676152076345,,,187269039312685,0.9298973,Walk
Fix,GPS,37.3894914226,-122.0884802,12.3995313377862,1.3795353,5.0147824,32.717567,1676152074999,0.24674973,9.819515,187269534534000,4.236426,Walk
Fix,FLP,37.3895736,-122.0884818,-0.3999999463558197,1.3172225,6.195,25.760632,1676152076888,,,187269581801942,0.93280673,Walk
Fix,NLP,37.3897016,-122.0886224,-1.399999976158142,,19.698,,1676152077020,,,187269713000000,1.0,Walk
Fix,FLP,37.3895825,-122.0884773,-0.8999999761581421,1.3215007,6.138,25.798912,1676152077431,,,187270124291138,0.8699442,Walk
Fix,GPS,37.3895023503,-122.0884714893,12.436130039624055,1.3808323,5.0243225,34.50224,1676152075999,0.25985745,10.34225,187270534544000,4.213411,Walk
Fix,FLP,37.3895864,-122.0884761,-0.8999999761581421,1.3239347,6.154,25.741257,1676152077972,,,187270666780458,0.90316963,Walk
Fix,FLP,37.3895954,-122.0884711,-0.8999999761581421,1.326527,6.195,25.760754,1676152078515,,,187271209267457,0.90316963,Walk
Fix,GPS,37.3895161683,-122.08846472,12.45820115099677,1.4013296,5.0275197,32.316933,1676152076999,0.27521986,8.690954,187271534551000,4.214315,Walk
Fix,FLP,37.3895991,-122.088468,-0.8999999761581421,1.3305353,6.232,25.869837,1676152079058,,,187271751758179,0.9072487,Walk
Fix,FLP,37.3896049,-122.088463,-0.8999999761581421,1.3332593,6.272,25.98347,1676152079601,,,187272294249635,0.9072487,Walk
Fix,GPS,37.3895316545,-122.0884565263,12.349322064707742,1.4384042,5.0630674,31.012283,1676152077999,0.25996354,8.003173,187272534571000,4.222721,Walk
Fix,FLP,37.3896082,-122.0884585,-1.399999976158142,1.338988,6.327,26.162884,1676152080150,,,187272843000000,0.89224494,Walk
Fix,FLP,37.3896149,-122.0884528,-1.399999976158142,1.3429196,6.373,26.301899,1676152080686,,,187273379224976,0.89224494,Walk
Fix,GPS,37.3895455584,-122.0884476496,12.282781271041936,1.4613101,5.06495,31.608807,1676152078999,0.2578683,8.642522,187273534757000,4.219009,Walk
Fix,FLP,37.3896237,-122.0884442,-0.8999999761581421,1.3547462,6.477,26.674774,1676152081751,,,187274445000000,0.90912366,Walk
Fix,GPS,37.3895586397,-122.0884363913,12.25382031826371,1.4801292,5.171434,35.599407,1676152079999,0.25936025,10.935696,187274534578000,4.213849,Walk
Fix,NLP,37.3897754,-122.0883795,-1.399999976158142,,25.271,,1676152082059,,,187274753000000,1.0,Walk
Fix,FLP,37.3896275,-122.088439,0.6590555945935677,1.367737,6.566,27.075144,1676152082313,,,187275006691102,0.8799681,Walk
Fix,GPS,37.3895681012,-122.0884286222,12.202221967293152,1.4570454,5.2092724,37.44091,1676152080999,0.29120132,12.664385,187275534659000,4.1944404,Walk
Fix,FLP,37.3896359,-122.0884319,-1.399999976158142,1.3727566,6.666,27.213,1676152082856,,,187275549179384,0.8910506,Walk
Fix,GPS,37.3895776709,-122.0884220889,11.996700504537676,1.4333484,5.2733016,31.095963,1676152081999,0.30656976,11.121094,187276534631000,4.1910644,Walk
Fix,FLP,37.3896488,-122.0884224,-3.2390152363926887,1.3801038,6.802,27.153305,1676152083941,,,187276634156251,0.89582664,Walk
Fix,GPS,37.3895868135,-122.088415981,11.696370891889597,1.4063158,5.3774266,27.982256,1676152082999,0.32511634,11.666721,187277534616000,4.210166,Walk
Fix,FLP,37.3896594,-122.0884141,-3.2390152363926887,1.3834894,6.919,27.06269,1676152084483,,,187277176633180,0.89582664,Walk
Fix,FLP,37.3896628,-122.0884106,-3.0636920977743145,1.3845531,6.964,27.058937,1676152085025,,,187277719123108,0.91313326,Walk
Fix,GPS,37.389597024,-122.0884080233,11.731533815963664,1.3965461,5.4651127,28.710823,1676152083999,0.33119342,11.027769,187278534663000,4.2389884,Walk
Fix,FLP,37.3896693,-122.0884051,-3.0636920977743145,1.3841429,7.018,27.225925,1676152085568,,,187278261620789,0.91313326,Walk
Fix,FLP,37.3896729,-122.0884017,-3.0636920977743145,1.3836117,7.066,27.489649,1676152086111,,,187278804108826,0.9069488,Walk
Fix,FLP,37.3896789,-122.0883971,-3.0636920977743145,1.3836116,7.122,27.729397,1676152086653,,,187279346597108,0.9069488,Walk
Fix,GPS,37.3896108271,-122.0883974514,11.730958796089553,1.4207615,5.515993,36.081425,1676152084999,0.2708065,12.268408,187279534671000,4.2698994,Walk
Fix,FLP,37.3896834,-122.0883934,-3.040164692235564,1.3844222,7.207,28.055979,1676152087196,,,187279889084840,0.9175799,Walk
Fix,NLP,37.3897352,-122.0882493,-1.8000000715255735,,18.413,,1676152087081,,,187279774000000,1.0,Walk
Fix,FLP,37.389692,-122.0883844,-1.8000000715255735,1.3866955,7.287,28.277727,1676152087738,,,187280431570008,0.8758422,Walk
Fix,GPS,37.389621271,-122.0883877462,11.72726462875976,1.4135993,5.627681,37.811264,1676152085999,0.29403883,15.35719,187280534682000,4.3092165,Walk
Fix,FLP,37.3896984,-122.088377,-3.954311718723204,1.3883489,7.362,28.283745,1676152088281,,,187280974063355,0.88324213,Walk
Fix,GPS,37.3896329621,-122.0883834542,11.565304937705465,1.396945,5.584925,27.167934,1676152086999,0.2616273,15.800597,187281534708000,4.347116,Walk
Fix,FLP,37.3897031,-122.0883731,-3.4858345109973854,1.3901833,7.419,28.087946,1676152088823,,,187281516536745,0.878907,Walk
Fix,FLP,37.3897104,-122.088368,-3.4858345109973854,1.3907506,7.53,27.622942,1676152089366,,,187282059036256,0.878907,Walk
Fix,GPS,37.3896444841,-122.0883819707,11.540223657815655,1.374704,5.540195,19.185022,1676152087999,0.2823559,15.895185,187282534708000,4.3732514,Walk
Fix,FLP,37.3897156,-122.0883648,-6.272523521398703,1.3920606,7.624,27.409412,1676152089908,,,187282601523866,0.8813681,Walk
Fix,FLP,37.3897244,-122.0883599,-6.272523521398703,1.3927755,7.818,27.141321,1676152090451,,,187283144011658,0.8813681,Walk
Fix,GPS,37.389655483,-122.0883824022,11.457184092271378,1.3506383,5.5026584,15.583133,1676152088999,0.2537422,11.925446,187283534688000,4.403981,Walk
Fix,FLP,37.3897304,-122.0883564,-6.404941547285127,1.3900807,8.002,27.15152,1676152090993,,,187283686499207,0.89239705,Walk
Fix,FLP,37.3897375,-122.0883531,-6.404941547285127,1.3914231,8.092,27.183369,1676152091507,,,187284200000000,0.89239705,Walk
Fix,GPS,37.3896704531,-122.0883784877,11.43389285174774,1.3669174,5.4184475,17.368668,1676152089999,0.23998694,9.845864,187284534722000,4.4120383,Walk
Fix,FLP,37.3897448,-122.0883498,-6.272523521398703,1.39081,8.252,27.310663,1676152092030,,,187284723000000,0.90411,Walk
Fix,NLP,37.3898044,-122.0883809,-1.8000000715255735,,20.948,,1676152092129,,,187284823000000,1.0,Walk
Fix,GPS,37.3896886923,-122.0883753513,11.40770000303541,1.4082388,5.387836,22.2433,1676152090999,0.23890786,10.904222,187285534772000,4.427809,Walk
Fix,FLP,37.389758,-122.088346,-1.8000000715255735,1.3938156,8.394,27.291248,1676152092620,,,187285313961854,0.86186975,Walk
Fix,FLP,37.3897715,-122.0883438,-1.8000000715255735,1.400766,8.317,26.979115,1676152093163,,,187285856437440,0.86186975,Walk
Fix,GPS,37.3897034285,-122.0883702891,11.478600389861493,1.4178967,5.3293943,28.10117,1676152091999,0.24135076,13.533028,187286534777000,4.434951,Walk
Fix,FLP,37.3897779,-122.088342,-1.8000000715255735,1.4053582,8.254,26.865847,1676152093705,,,187286398935242,0.89439535,Walk
Fix,FLP,37.3897899,-122.0883381,-1.8000000715255735,1.4097937,8.09,26.677032,1676152094248,,,187286941424318,0.89439535,Walk
Fix,GPS,37.3897145299,-122.0883633849,11.514590111987705,1.4020462,5.271559,28.967607,1676152092999,0.24571142,13.71336,187287534774000,4.4277263,Walk
Fix,FLP,37.3897949,-122.0883362,0.8587549713803924,1.4136205,7.988,26.748428,1676152094789,,,187287483911806,0.89827806,Walk
Fix,FLP,37.3898055,-122.0883314,0.8587549713803924,1.4147525,7.765,26.919033,1676152095333,,,187288026391786,0.89827806,Walk
Fix,GPS,37.3897264861,-122.0883592968,11.297862147754186,1.3878516,5.176761,24.3122,1676152093999,0.24318658,12.673564,187288534786000,4.4113803,Walk
Fix,FLP,37.3898091,-122.0883296,0.8587549713803924,1.4167485,7.657,27.020338,1676152095875,,,187288568886415,0.9081778,Walk
Fix,FLP,37.3898189,-122.0883243,0.8587549713803924,1.4146147,7.426,26.973196,1676152096417,,,187289111373720,0.9081778,Walk
Fix,GPS,37.3897380374,-122.0883517102,10.889491702328844,1.3793858,5.1244135,21.15034,1676152094999,0.24910235,13.77199,187289534828000,4.3737593,Walk
Fix,FLP,37.3898222,-122.0883227,-3.989625300002359,1.4151771,7.32,26.72798,1676152096959,,,187289653861024,0.9181878,Walk
Fix,NLP,37.3898062,-122.0883456,-2.0999999046325684,,20.833,,1676152097158,,,187289851000000,1.0,Walk
Fix,FLP,37.3898294,-122.0883182,-2.0999999046325684,1.412674,7.079,26.520311,1676152097503,,,187290196347780,0.8796703,Walk
Fix,GPS,37.3897524054,-122.088345512,10.470756546851886,1.3893738,5.155501,19.087532,1676152095999,0.24839284,13.185094,187290534840000,4.3376675,Walk
Fix,FLP,37.3898384,-122.0883112,-3.8412944511577294,1.4035835,6.86,26.880735,1676152098044,,,187290738831972,0.8825022,Walk
Fix,FLP,37.3898431,-122.0883073,-3.8412944511577294,1.4020177,6.832,27.243425,1676152098588,,,187291281321961,0.8825022,Walk
Fix,GPS,37.3897666567,-122.0883400153,10.47165979381542,1.3959277,5.118969,31.259914,1676152096999,0.23134351,13.7185335,187291534830000,4.3094788,Walk
