Fix,Provider,LatitudeDegrees,LongitudeDegrees,AltitudeMeters,SpeedMps,AccuracyMeters,BearingDegrees,UnixTimeMillis,SpeedAccuracyMps,BearingAccuracyDegrees,elapsedRealtimeNanos,VerticalAccuracyMeters,TransitType
Fix,FLP,37.392324,-122.0792911,-8.100000381469727,0.6853,10.792,335.0071,1678506895261,0.29913437,66.33769,1941710138000000,0.8075391,Walk
Fix,GPS,37.3923291654,-122.0793046734,-0.6532628870776542,0.72590786,8.626703,335.36502,1678506892999,0.30947676,30.648428,1941710658686000,10.810382,Walk
Fix,FLP,37.3923278,-122.0792975,-8.100000381469727,0.71983945,10.25,334.95615,1678506895780,0.30947676,30.648428,1941710658686000,0.8123193,Walk
Fix,GPS,37.3923300072,-122.0793231502,2.684541655995073,0.922398,8.557764,335.36502,1678506893999,0.31663346,49.259544,1941711658729000,10.298181,Walk
Fix,FLP,37.392332,-122.0793079,-8.100000381469727,0.8203397,9.545,336.07736,1678506896781,0.31663346,49.259544,1941711658729000,0.82196873,Walk
Fix,GPS,37.3923289511,-122.0793353847,5.176325423868866,0.93784523,8.891231,335.36502,1678506894999,0.44756386,50.22486,1941712658738000,10.169158,Walk
Fix,FLP,37.3923364,-122.0793176,-8.100000381469727,0.90634894,9.463,335.55695,1678506897781,0.44756386,50.22486,1941712658738000,0.83142376,Walk
Fix,FLP,37.39234,-122.0793214,-8.100000381469727,0.64535856,10.102,308.66257,1678506898486,,,1941713364992033,0.83142376,Walk
Fix,GPS,37.3923349977,-122.0793502496,7.255841364441554,1.0754447,9.297271,344.90924,1678506895999,0.65283275,28.03264,1941713658801000,10.118555,Walk
Fix,FLP,37.392342,-122.0793202,-8.100000381469727,0.72675675,11.141,274.0759,1678506899030,,,1941713907518095,0.84152806,Walk
Fix,NLP,37.3923724,-122.0792592,-8.100000381469727,,16.925,,1678506895261,,,1941710138000000,1.0,Walk
Fix,GPS,37.3923427885,-122.0793553106,8.96232418981666,1.180962,9.740777,341.44815,1678506896999,0.8303899,29.333351,1941714658773000,10.112478,Walk
Fix,FLP,37.3923437,-122.0793182,-8.100000381469727,0.54475826,11.874,303.99738,1678506899573,,,1941714450033476,0.8515906,Walk
Fix,FLP,37.3923467,-122.0793128,-8.100000381469727,0.5319972,12.356,352.11383,1678506900106,,,1941714983000000,0.8515906,Walk
Fix,GPS,37.3923551841,-122.0793657975,9.958847616820933,1.2800213,10.127668,321.34232,1678506897999,0.60316813,25.0,1941715658815000,10.096654,Walk
Fix,FLP,37.3923533,-122.0793025,-9.837061151451884,0.86488676,13.792,20.156677,1678506900658,,,1941715535062345,0.8573828,Walk
Fix,FLP,37.3923621,-122.0792899,-9.837061151451884,1.0777361,15.51,28.888842,1678506901160,,,1941716037600126,0.8573828,Walk
Fix,GPS,37.3923659285,-122.0793772752,10.924298750204631,1.2133824,10.481815,316.0096,1678506898999,0.5717157,25.0,1941716658806000,10.086836,Walk
Fix,FLP,37.3923645,-122.0792851,-12.21884937809484,1.1401727,16.446,28.995373,1678506901743,,,1941716620089262,0.8757611,Walk
Fix,FLP,37.3923715,-122.0792734,-12.21884937809484,1.1612966,16.614,35.51979,1678506902285,,,1941717162618254,0.8757611,Walk
Fix,GPS,37.3923740915,-122.0793925188,12.259111544197424,0.6605579,10.729773,316.0096,1678506899999,0.5539887,180.0,1941717658868000,10.033093,Walk
Fix,FLP,37.3923789,-122.079257,-8.100000381469727,1.1984303,17.528,41.41361,1678506902828,,,1941717705138761,0.88573235,Walk
Fix,FLP,37.3923854,-122.0792456,-8.100000381469727,0.98546606,18.216,40.695553,1678506903345,,,1941718222000000,0.88573235,Walk
Fix,GPS,37.3923865996,-122.0794094286,13.588727779862037,0.8041216,10.907444,316.0096,1678506900999,0.5958505,25.0,1941718658869000,9.966965,Walk
Fix,FLP,37.3923917,-122.0792322,-5.483327432413617,0.8099658,18.607,39.88816,1678506903912,,,1941718790170378,0.895667,Walk
Fix,FLP,37.3924019,-122.079216,-5.483327432413617,0.78678966,18.878,38.67056,1678506904455,,,1941719332688139,0.895667,Walk
Fix,GPS,37.3923992652,-122.0794300082,14.512237883307002,0.7891636,11.031237,316.0096,1678506901999,0.561171,82.45388,1941719658891000,9.895143,Walk
Fix,FLP,37.3924108,-122.0792043,-1.326364705078909,0.77459425,19.167,31.451466,1678506904998,,,1941719875205107,0.90567464,Walk
Fix,FLP,37.3924178,-122.0791953,-1.326364705078909,0.7924453,19.237,33.478565,1678506905540,,,1941720417722257,0.90567464,Walk
Fix,NLP,37.3925517,-122.0796998,-8.200000762939453,,16.165,,1678506905449,,,1941720327000000,1.0,Walk
Fix,GPS,37.3924140471,-122.079452823,14.984209838244787,0.65969163,11.111705,316.0096,1678506902999,0.56653935,26.973469,1941720658858000,9.842856,Walk
Fix,FLP,37.3924329,-122.0791832,-1.3989479357269303,0.6700583,20.198,8.702744,1678506906083,,,1941720960226469,0.8096051,Walk
Fix,FLP,37.3924369,-122.0791858,-1.3989479357269303,0.66636074,21.263,1.4947693,1678506906625,,,1941721502755461,0.8096051,Walk
Fix,GPS,37.3924225111,-122.0794723085,15.280377957140049,0.51338524,11.174494,316.0096,1678506903999,0.5491525,85.70667,1941721658887000,9.776815,Walk
Fix,FLP,37.3924445,-122.0791909,-0.7057514934406939,0.6245322,23.362,359.96063,1678506907160,,,1941722037600126,0.8196757,Walk
Fix,FLP,37.3924482,-122.0791932,-0.7057514934406939,0.59630847,24.544,359.99463,1678506907710,,,1941722587787626,0.8196757,Walk
Fix,GPS,37.3924344283,-122.0794936114,15.623902789304903,0.82442594,11.138994,316.0096,1678506904999,0.5211896,73.385635,1941722658960000,9.707277,Walk
Fix,FLP,37.3924553,-122.0791997,1.2472706376660485,0.65861404,26.416,351.02597,1678506908253,,,1941723130303495,0.82551646,Walk
Fix,GPS,37.392443776,-122.0795122519,15.42029405325483,0.46359816,11.134702,316.0096,1678506905999,0.5379614,180.0,1941723658911000,9.666005,Walk
Fix,FLP,37.3924625,-122.0792086,-0.5439019817990811,0.75115114,29.41,346.3166,1678506908795,,,1941723672818937,0.8438681,Walk
Fix,FLP,37.3924718,-122.079218,-0.5439019817990811,0.6727905,31.865,349.32047,1678506909338,,,1941724215334257,0.8438681,Walk
Fix,GPS,37.3924531791,-122.0795477271,16.347328597056794,0.6379729,11.015122,316.0096,1678506906999,0.5873104,64.12912,1941724659000000,9.636208,Walk
Fix,FLP,37.3924732,-122.0792212,-0.6331682627926725,0.6217854,33.145,349.57468,1678506909880,,,1941724757849150,0.8537708,Walk
Fix,FLP,37.3924781,-122.0792289,-0.6331682627926725,0.6160099,34.137,339.4864,1678506910405,,,1941725282000000,0.8537708,Walk
Fix,NLP,37.3925145,-122.0796898,-8.200000762939453,,12.013,,1678506910499,,,1941725377000000,1.0,Walk
Fix,GPS,37.3924610691,-122.0795819309,17.27462618973507,1.244261,10.969112,246.45349,1678506907999,0.5351394,25.699436,1941725658979000,9.630492,Walk
Fix,FLP,37.3925008,-122.0793362,-3.756924997317981,0.6784793,35.952,327.93393,1678506910965,,,1941725842878507,0.8132379,Walk
Fix,FLP,37.3925225,-122.0794501,-3.756924997317981,0.9921561,33.006,303.42322,1678506911508,,,1941726385392302,0.8132379,Walk
Fix,GPS,37.3924677955,-122.0796238925,18.19410727887487,0.92384744,10.8474865,246.45349,1678506908999,0.49350452,25.0,1941726658996000,9.641751,Walk
Fix,FLP,37.3925322,-122.0795119,-1.5452537205494323,1.0721847,30.648,293.2615,1678506912050,,,1941726927906523,0.8232034,Walk
Fix,FLP,37.3925347,-122.0795362,-1.5452537205494323,1.0600007,28.238,290.92795,1678506912593,,,1941727470419644,0.8232034,Walk
Fix,GPS,37.3924772697,-122.079657089,18.052000969968404,0.4084432,10.804835,246.45349,1678506909999,0.46985483,142.63112,1941727659248000,9.653435,Walk
Fix,FLP,37.3925349,-122.0795684,-1.5452537205494323,0.8387779,25.81,285.91605,1678506913135,,,1941728012933378,0.82911,Walk
Fix,FLP,37.3925343,-122.079584,-1.5452537205494323,0.711204,23.263,284.74753,1678506913678,,,1941728555446257,0.82911,Walk
Fix,GPS,37.3924808391,-122.0796867198,17.897812346484933,0.60227805,10.755963,246.45349,1678506910999,0.50589174,49.856422,1941728659010000,9.633095,Walk
Fix,FLP,37.3925304,-122.0796072,-1.5452537205494323,0.65647715,21.067,288.36887,1678506914219,,,1941729097958951,0.8391822,Walk
Fix,FLP,37.3925284,-122.0796199,-1.5452537205494323,0.66088957,18.194,288.85016,1678506914763,,,1941729640471463,0.8391822,Walk
Fix,GPS,37.39249182,-122.0797113696,19.207669001237846,0.5492424,10.696402,246.45349,1678506911999,0.467957,54.174534,1941729659227000,9.668262,Walk
Fix,FLP,37.3925245,-122.0796379,-1.5452537205494323,0.6278064,15.119,286.74954,1678506915305,,,1941730182983854,0.84598625,Walk
Fix,NLP,37.3924776,-122.0798187,-8.200000762939453,,20.448,,1678506915530,,,1941730407000000,1.0,Walk
Fix,GPS,37.3924935606,-122.0797335537,20.20361777883077,0.78489554,10.652262,246.45349,1678506912999,0.39081943,52.698666,1941730659069000,9.678981,Walk
Fix,FLP,37.3925154,-122.0796551,-2.2604273459845885,0.64278555,13.403,285.348,1678506915848,,,1941730725495877,0.81294703,Walk
Fix,FLP,37.3925043,-122.0796786,-2.2604273459845885,0.74095386,13.066,264.37378,1678506916391,,,1941731268007902,0.81294703,Walk
Fix,GPS,37.392489066,-122.079751058,21.87026291618,0.97104543,10.631336,246.45349,1678506913999,0.41379896,54.07592,1941731659306000,9.735174,Walk
Fix,FLP,37.3924997,-122.079685,-2.2604273459845885,0.76322687,12.937,257.74704,1678506916933,,,1941731810518766,0.8239537,Walk
Fix,FLP,37.3924892,-122.0797018,-2.2604273459845885,0.84966075,12.682,241.96808,1678506917476,,,1941732353030302,0.8239537,Walk
Fix,GPS,37.3924798838,-122.0797707375,23.21063526114101,1.0489496,10.656614,183.95828,1678506914999,0.44678268,25.0,1941732659349000,9.789713,Walk
Fix,FLP,37.3924796,-122.0797117,-2.33301057663261,0.9282768,12.331,230.8048,1678506918018,,,1941732895540982,0.8339407,Walk
Fix,FLP,37.3924688,-122.0797194,-2.33301057663261,0.94805527,12.076,220.32625,1678506918561,,,1941733438053495,0.8339407,Walk
Fix,GPS,37.3924633411,-122.0797834397,23.657911567705547,0.7059022,10.76955,183.95828,1678506915999,0.51244175,74.33317,1941733659077000,9.858411,Walk
Fix,FLP,37.3924514,-122.0797274,-1.9212377410323145,0.87312543,11.442,207.35896,1678506919103,,,1941733980561978,0.84293926,Walk
Fix,FLP,37.3924406,-122.0797321,-1.9212377410323145,0.82844824,10.951,201.81119,1678506919646,,,1941734523070097,0.84293926,Walk
Fix,GPS,37.392452211,-122.0797977215,24.63694090838663,0.59908694,10.986073,183.95828,1678506916999,0.59435785,63.419147,1941734659432000,9.944333,Walk
Fix,FLP,37.3924242,-122.0797375,-2.8092098009071904,0.76805085,10.4,198.31694,1678506920160,,,1941735037600126,0.8486977,Walk
Fix,NLP,37.3924186,-122.0796816,-8.200000762939453,,10.687,,1678506920520,,,1941735397000000,1.0,Walk
Fix,FLP,37.3924097,-122.0797397,-2.8092098009071904,0.7726297,9.441,196.93074,1678506920731,,,1941735608092069,0.80585235,Walk
Fix,GPS,37.3924410863,-122.0798110809,25.475491179106392,0.82096547,11.118391,183.95828,1678506917999,0.5420959,58.607475,1941735659155000,10.03303,Walk
Fix,FLP,37.3923982,-122.0797413,0.3195672388250088,0.8384688,8.869,201.6177,1678506921272,,,1941736150601042,0.80574125,Walk
Fix,FLP,37.3923903,-122.0797443,0.3195672388250088,0.8610071,8.415,203.46835,1678506921816,,,1941736693110075,0.80574125,Walk
Fix,GPS,37.3924235232,-122.079829252,26.48973118122026,1.0684477,11.173396,182.22263,1678506918999,0.52349716,25.0,1941736659154000,10.081106,Walk
Fix,FLP,37.3923802,-122.0797487,0.3195672388250088,0.9525072,7.919,204.55763,1678506922358,,,1941737235618802,0.82410246,Walk
Fix,FLP,37.3923727,-122.0797525,0.3195672388250088,1.0157094,7.375,205.65718,1678506922901,,,1941737778126005,0.82410246,Walk
Fix,GPS,37.3924175025,-122.0798483665,27.03266391050037,0.6106697,11.29738,182.22263,1678506919999,0.5988802,82.85238,1941737659175000,10.173959,Walk
Fix,FLP,37.392364,-122.0797573,-3.985518940481121,0.8805014,6.98,205.00127,1678506923429,,,1941738306000000,0.833094,Walk
Fix,GPS,37.392407753,-122.0798653193,27.41384654521657,0.557809,11.410379,182.22263,1678506920999,0.5358672,112.72984,1941738659163000,10.238708,Walk
Fix,FLP,37.3923579,-122.0797611,-3.985518940481121,0.7856823,6.528,205.875,1678506923990,,,1941738867000000,0.833094,Walk
Fix,FLP,37.3923496,-122.0797664,-5.368763233196084,0.6782757,6.37,205.57857,1678506924528,,,1941739405651640,0.84405303,Walk
Fix,GPS,37.3923986624,-122.0798772564,27.83760952821497,0.79765785,11.489058,182.22263,1678506921999,0.5377008,68.38098,1941739659139000,10.304324,Walk
Fix,FLP,37.392341,-122.0797717,-6.08561289760376,0.69132894,5.994,206.72314,1678506925070,,,1941739948159452,0.85298944,Walk
Fix,NLP,37.3923061,-122.0799384,-7.799999713897705,,29.404,,1678506925591,,,1941740468000000,1.0,Walk
Fix,FLP,37.3923378,-122.0797735,1.0517946050088227,0.73183215,5.937,206.37317,1678506925612,,,1941740490666165,0.81028736,Walk
Fix,GPS,37.392387734,-122.0798918005,28.202855459618807,0.6971433,11.536938,182.22263,1678506922999,0.53705674,51.584484,1941740659170000,10.374231,Walk
Fix,FLP,37.3923267,-122.0797805,-5.352917515456269,0.7584982,6.108,205.08974,1678506926156,,,1941741033173796,0.80809563,Walk
Fix,GPS,37.3923817189,-122.0799044676,28.845388636922245,0.62169534,11.575285,182.22263,1678506923999,0.53611577,84.52908,1941741659232000,10.459576,Walk
Fix,FLP,37.3923221,-122.0797835,-1.738107477165137,0.75450784,6.158,204.83803,1678506926698,,,1941741575680388,0.81811625,Walk
Fix,FLP,37.3923129,-122.0797897,-1.738107477165137,0.71460265,6.267,204.41306,1678506927240,,,1941742118187467,0.81811625,Walk
Fix,GPS,37.3923742481,-122.0799200118,29.034438059620545,0.51183134,11.609961,182.22263,1678506924999,0.5249217,58.52825,1941742659575000,10.524154,Walk
Fix,FLP,37.3923089,-122.0797923,-1.538603512536028,0.7002259,6.32,205.22662,1678506927783,,,1941742660693814,0.82497865,Walk
Fix,FLP,37.3922999,-122.0797986,-1.538603512536028,0.63441616,6.433,206.2941,1678506928326,,,1941743203186308,0.82497865,Walk
Fix,GPS,37.3923657827,-122.0799332628,29.13213878306132,0.331264,11.668309,182.22263,1678506925999,0.53831315,90.81086,1941743659231000,10.589157,Walk
Fix,FLP,37.3922963,-122.0798013,-1.538603512536028,0.60974497,6.492,206.15027,1678506928868,,,1941743745706511,0.8381483,Walk
Fix,FLP,37.3922871,-122.0798079,-1.538603512536028,0.50096196,6.617,203.30984,1678506929411,,,1941744288212614,0.8381483,Walk
Fix,GPS,37.3923567567,-122.0799422192,29.629639230670318,0.6301677,11.695417,182.22263,1678506926999,0.5312238,88.057884,1941744659215000,10.64636,Walk
Fix,FLP,37.3922842,-122.0798101,-1.738107477165137,0.46492034,6.706,203.24606,1678506929953,,,1941744830718289,0.85231173,Walk
Fix,FLP,37.3922752,-122.0798167,-1.738107477165137,0.519366,6.921,206.9951,1678506930496,,,1941745373224089,0.85231173,Walk
Fix,GPS,37.3923533216,-122.0799471866,29.426231375508262,0.62896687,11.710091,182.22263,1678506927999,0.49667633,56.930134,1941745659438000,10.668133,Walk
Fix,NLP,37.3922056,-122.0800417,-7.799999713897705,,22.959,,1678506930613,,,1941745490000000,1.0,Walk
Fix,FLP,37.3922646,-122.0798267,-1.1682166357770285,0.60040855,7.138,207.90599,1678506931038,,,1941745915729155,0.81308043,Walk
Fix,FLP,37.3922585,-122.079833,-1.1682166357770285,0.6483329,7.287,208.29977,1678506931581,,,1941746458234526,0.81308043,Walk
Fix,GPS,37.3923419233,-122.0799556187,29.63425979811333,0.9397538,11.728909,182.22263,1678506928999,0.47973078,43.486904,1941746659520000,10.678246,Walk
Fix,FLP,37.3922494,-122.0798424,-1.1523709180372137,0.8483715,7.441,212.47276,1678506932123,,,1941747000739470,0.82299703,Walk
Fix,FLP,37.3922431,-122.0798485,-1.1523709180372137,0.91287905,7.61,213.51735,1678506932666,,,1941747543244718,0.82299703,Walk
Fix,GPS,37.3923278556,-122.0799725494,29.68536759216948,0.0,11.737757,182.22263,1678506929999,0.5152901,180.0,1941747659511000,10.695143,Walk
Fix,FLP,37.3922355,-122.0798562,0.8332966412051661,0.5350195,7.778,206.57019,1678506933208,,,1941748085749173,0.82787997,Walk
Fix,FLP,37.3922315,-122.0798601,0.8332966412051661,0.33202717,7.962,201.0324,1678506933751,,,1941748628254118,0.82787997,Walk
Fix,GPS,37.3923204251,-122.0799821623,29.93665633128054,0.5243785,11.441669,182.22263,1678506930999,0.49162763,73.13836,1941748659278000,10.659244,Walk
Fix,FLP,37.3922254,-122.0798665,-0.4734796021971874,0.36874682,8.157,211.20299,1678506934293,,,1941749170757962,0.83798325,Walk
Fix,FLP,37.3922209,-122.0798712,-0.4734796021971874,0.44524258,8.358,215.11035,1678506934836,,,1941749713262602,0.83798325,Walk
Fix,GPS,37.3923076151,-122.0799852163,30.37540709703156,1.0827588,11.467899,174.42192,1678506931999,0.45063013,25.0,1941749659315000,10.697427,Walk
Fix,FLP,37.3922129,-122.0798807,3.5636475388077784,0.73419964,8.643,219.02335,1678506935377,,,1941750255766507,0.8478669,Walk
Fix,NLP,37.3921888,-122.0799647,-7.799999713897705,,15.945,,1678506935662,,,1941750539000000,1.0,Walk
Fix,FLP,37.3922067,-122.0798907,1.2339658428690825,0.85717297,8.893,219.80783,1678506935921,,,1941750798270658,0.8022282,Walk
Fix,GPS,37.3922910744,-122.0799893436,30.65230609868786,0.5009748,11.459413,174.42192,1678506932999,0.5121062,180.0,1941750659319000,10.777706,Walk
Fix,FLP,37.3921989,-122.0799036,1.2339658428690825,0.69472,9.018,220.3653,1678506936463,,,1941751340774260,0.8115531,Walk
Fix,GPS,37.3922851976,-122.079990062,30.765093894385394,0.59301114,11.446484,174.42192,1678506933999,0.48171273,49.299755,1941751659332000,10.792323,Walk
Fix,FLP,37.3921941,-122.0799127,2.0776680361356625,0.6237831,9.222,221.8801,1678506937006,,,1941751883278044,0.82155806,Walk
Fix,FLP,37.3921893,-122.0799201,2.0776680361356625,0.6228148,9.326,222.42455,1678506937548,,,1941752425781401,0.82155806,Walk
Fix,GPS,37.3922799529,-122.0800021271,32.03641167288774,0.88551575,11.415178,174.42192,1678506934999,0.46552417,25.0,1941752659523000,10.782003,Walk
Fix,FLP,37.392184,-122.0799292,-1.633228281410311,0.7122895,9.522,222.36623,1678506938067,,,1941752944000000,0.83153754,Walk
Fix,FLP,37.392179,-122.079936,-1.633228281410311,0.7866089,9.641,220.58276,1678506938628,,,1941753505000000,0.83153754,Walk
Fix,GPS,37.39226643,-122.080013545,32.80404588103046,0.76880443,11.352606,174.42192,1678506935999,0.44812724,25.0,1941753659668000,10.7881565,Walk
Fix,FLP,37.392173,-122.0799447,1.2181201251292677,0.8084163,9.851,218.1845,1678506939136,,,1941754013000000,0.84152514,Walk
Fix,FLP,37.3921677,-122.0799511,1.2181201251292677,0.7967853,9.976,216.03175,1678506939718,,,1941754595793912,0.84152514,Walk
Fix,GPS,37.3922440597,-122.0800218486,32.11502249047438,1.0410317,11.334259,156.13933,1678506936999,0.4762578,25.0,1941754659581000,10.772124,Walk
Fix,FLP,37.3921614,-122.0799592,-1.6173825636704962,0.88200605,10.183,214.32956,1678506940261,,,1941755138297270,0.851468,Walk
Fix,NLP,37.3921704,-122.0799019,-7.799999713897705,,11.395,,1678506940651,,,1941755528000000,1.0,Walk
Fix,FLP,37.392156,-122.079965,-1.6173825636704962,0.9491268,10.425,214.03981,1678506940790,,,1941755667000000,0.851468,Walk
Fix,GPS,37.3922349747,-122.0800226109,31.29214244556463,1.3372524,11.321605,160.70322,1678506937999,0.49558744,25.0,1941755659456000,10.736092,Walk
Fix,FLP,37.392144,-122.0799719,1.360362238933675,1.1190459,10.881,211.71721,1678506941346,,,1941756223303007,0.80754447,Walk
Fix,GPS,37.3922114263,-122.0800300586,32.19518820879283,0.9699135,11.351213,160.70322,1678506938999,0.49163187,37.132885,1941756659425000,10.728748,Walk
Fix,FLP,37.392143,-122.0799696,0.4579346911590818,1.1766871,10.822,212.23871,1678506941888,,,1941756765805326,0.81366223,Walk
Fix,FLP,37.392133,-122.0799725,0.4579346911590818,1.1210877,10.914,213.43013,1678506942429,,,1941757308308378,0.81366223,Walk
Fix,GPS,37.3921979663,-122.0800339586,32.75926273643448,0.47582918,11.394791,160.70322,1678506939999,0.5098627,159.40764,1941757659606000,10.743352,Walk
Fix,FLP,37.3921322,-122.0799719,-2.2409388886201285,1.079606,10.902,213.8082,1678506942973,,,1941757850796659,0.8274874,Walk
Fix,GPS,37.3921861883,-122.0800390257,32.744219927455255,0.86570805,11.492727,160.70322,1678506940999,0.53245884,25.0,1941758659434000,10.786374,Walk
Fix,FLP,37.3921231,-122.0799775,-2.2409388886201285,0.78770864,10.981,212.47572,1678506943516,,,1941758393312651,0.8274874,Walk
Fix,FLP,37.3921189,-122.0799805,-2.300986893291139,0.76300544,11.003,214.86012,1678506944058,,,1941758935814847,0.84163284,Walk
Fix,GPS,37.3921669731,-122.0800461905,33.666009898657066,0.9811303,11.49798,160.70322,1678506941999,0.56147146,25.0,1941759659467000,10.783572,Walk
Fix,FLP,37.3921156,-122.0799832,-5.745045739629376,0.80536515,11.02,216.05144,1678506944600,,,1941759478317045,0.85167795,Walk
Fix,FLP,37.3921093,-122.0799894,-5.745045739629376,0.88929707,11.062,217.71056,1678506945143,,,1941760020816007,0.85167795,Walk
Fix,GPS,37.3921533357,-122.0800534277,34.4122862076731,0.6787804,11.518296,160.70322,1678506942999,0.53933173,75.05118,1941760659637000,10.802081,Walk
Fix,FLP,37.3921064,-122.0799922,-0.6866748219267009,0.9241807,11.013,217.73944,1678506945686,,,1941760563321012,0.86169904,Walk
Fix,NLP,37.3921343,-122.0799178,-7.599999904632568,,11.506,,1678506945733,,,1941760610000000,1.0,Walk
Fix,FLP,37.3920985,-122.0799939,-0.5210600468327229,0.9450442,10.924,216.8853,1678506946228,,,1941761105811247,0.8118527,Walk
Fix,GPS,37.3921449579,-122.0800577029,35.05479348799049,0.0,11.590945,160.70322,1678506943999,0.557746,180.0,1941761659813000,10.844326,Walk
Fix,FLP,37.3920966,-122.0799916,-0.5210600468327229,0.94260234,10.909,216.08412,1678506946771,,,1941761648324858,0.81655777,Walk
Fix,FLP,37.3920932,-122.0799901,-0.5210600468327229,0.46313855,10.927,193.3418,1678506947291,,,1941762168000000,0.81655777,Walk
Fix,GPS,37.3921449579,-122.0800577029,35.51666469070457,0.0,11.451424,160.70322,1678506944999,0.6355152,174.59477,1941762659691000,10.833209,Walk
Fix,FLP,37.3920896,-122.0799885,-0.6866748219267009,0.21537721,10.895,185.41988,1678506947856,,,1941762733327848,0.82784015,Walk
Fix,FLP,37.3920839,-122.0799884,-0.6866748219267009,0.110806815,10.883,181.35664,1678506948397,,,1941763275828824,0.82784015,Walk
Fix,GPS,37.3921326586,-122.0800693295,35.00271722770447,0.57482433,11.369642,160.70322,1678506945999,0.6502309,53.605045,1941763659532000,10.781799,Walk
Fix,FLP,37.3920812,-122.079989,-0.8605639473388962,0.0915603,10.889,,1678506948941,,,1941763818330412,0.83776164,Walk
Fix,FLP,37.3920737,-122.0799911,-0.8605639473388962,0.26697972,10.876,205.12863,1678506949483,,,1941764360830290,0.83776164,Walk
Fix,GPS,37.3921179212,-122.080073473,34.54604077048652,0.7881702,11.473768,160.70322,1678506946999,0.5652801,48.105583,1941764659688000,10.79252,Walk
Fix,FLP,37.3920653,-122.0799954,-4.445485355630545,0.4574332,10.833,203.65538,1678506950026,,,1941764903332731,0.8424617,Walk
Fix,FLP,37.3920601,-122.0799982,-4.445485355630545,0.5283033,10.625,203.71492,1678506950568,,,1941765445833708,0.8424617,Walk
Fix,NLP,37.3920832,-122.0799465,-7.400000095367432,,10.739,,1678506950756,,,1941765633000000,1.0,Walk
Fix,GPS,37.3921076797,-122.0800771501,35.18726864384688,0.7387123,11.518857,160.70322,1678506947999,0.5792032,112.5205,1941765659545000,10.832814,Walk
Fix,FLP,37.3920512,-122.0799998,-0.4262581423055351,0.62509996,10.493,204.23509,1678506951111,,,1941765988334867,0.8105925,Walk
Fix,FLP,37.392046,-122.0800002,-0.4262581423055351,0.64348096,10.497,204.27072,1678506951653,,,1941766530835599,0.8105925,Walk
Fix,GPS,37.3920948429,-122.0800771237,36.28642771273438,0.7968755,11.490603,160.70322,1678506948999,0.53322476,46.90971,1941766659569000,10.916322,Walk
Fix,FLP,37.3920386,-122.0800019,-0.4262581423055351,0.67385006,10.301,204.25659,1678506952160,,,1941767037600126,0.82060605,Walk
Fix,FLP,37.392034,-122.0800034,-0.4262581423055351,0.6877644,10.253,203.02278,1678506952738,,,1941767615839384,0.82060605,Walk
Fix,GPS,37.3920722733,-122.0800738067,36.82572631406048,1.538719,11.510723,148.63914,1678506949999,0.5319416,25.0,1941767659624000,10.953091,Walk
Fix,FLP,37.3920254,-122.0800066,-1.096046856525625,0.7559079,10.117,200.77058,1678506953281,,,1941768158338284,0.83106345,Walk
Fix,FLP,37.3920192,-122.080009,-1.096046856525625,0.8092305,10.015,199.91907,1678506953823,,,1941768700834257,0.83106345,Walk
Fix,GPS,37.3920443971,-122.0800691704,36.881303141037336,1.6767272,11.575771,150.68561,1678506950999,0.5523816,25.0,1941768659644000,10.964995,Walk
Fix,FLP,37.3920135,-122.0800136,-0.1936193087510318,0.8770856,10.588,196.37448,1678506954366,,,1941769243339689,0.8406129,Walk
Fix,FLP,37.3920108,-122.0800168,-0.1936193087510318,0.8989776,11.183,193.61801,1678506954908,,,1941769785839200,0.8406129,Walk
Fix,GPS,37.3920319884,-122.0800690969,36.9995161648258,0.9695763,11.654694,150.68561,1678506951999,0.5706759,46.570503,1941769660205000,10.981795,Walk
Fix,FLP,37.3920081,-122.0800221,-0.5722215164513713,0.90543246,12.252,188.6867,1678506955451,,,1941770328340483,0.8463247,Walk
Fix,NLP,37.3919866,-122.0800473,-7.400000095367432,,16.38,,1678506955753,,,1941770630000000,1.0,Walk
Fix,GPS,37.3920290813,-122.0800721057,37.89692821254945,0.4826055,11.707402,150.68561,1678506952999,0.54759985,142.16953,1941770659641000,11.002824,Walk
Fix,FLP,37.3920081,-122.0800326,-3.171834571505073,0.88340926,13.214,184.54738,1678506955993,,,1941770870840970,0.8072683,Walk
Fix,FLP,37.3920042,-122.0800365,-3.171834571505073,0.8832124,13.411,184.74867,1678506956535,,,1941771413341764,0.8072683,Walk
Fix,GPS,37.3920278267,-122.0800759506,38.77438888468516,0.34565228,11.704215,150.68561,1678506953999,0.55171454,155.53882,1941771659681000,11.022072,Walk
Fix,FLP,37.392003,-122.0800413,-0.8053099079366532,0.84149307,14.314,183.52045,1678506957053,,,1941771930000000,0.81239545,Walk
Fix,FLP,37.392,-122.0800412,-0.8053099079366532,0.8074499,15.006,181.94765,1678506957607,,,1941772484000000,0.81239545,Walk
Fix,GPS,37.3920224203,-122.0800791712,39.38835073431501,0.54507256,11.684754,150.68561,1678506954999,0.5371029,50.310585,1941772659908000,11.050547,Walk
Fix,FLP,37.3919978,-122.0800368,2.9593771074968416,0.76163703,16.155,178.65869,1678506958112,,,1941772989000000,0.83061713,Walk
Fix,FLP,37.391994,-122.0800324,2.9593771074968416,0.7482892,16.652,176.8396,1678506958647,,,1941773524000000,0.83061713,Walk
Fix,GPS,37.392027126,-122.0800809649,39.38899267327855,0.73508954,11.643294,150.68561,1678506955999,0.5245357,117.2052,1941773659668000,11.04937,Walk
Fix,FLP,37.3919891,-122.0800222,1.7617634592459837,0.7362874,17.444,173.42151,1678506959153,,,1941774030000000,0.8405616,Walk
Fix,FLP,37.3919835,-122.0800155,1.7617634592459837,0.73746246,17.118,171.66661,1678506959682,,,1941774559839262,0.8405616,Walk
Fix,GPS,37.3920317111,-122.0800887055,38.92939373162313,0.41969118,11.476738,150.68561,1678506956999,0.50710183,180.0,1941774659942000,11.006989,Walk
Fix,FLP,37.3919767,-122.0800029,-1.7084530395215296,0.72496104,16.359,169.1054,1678506960235,,,1941775112000000,0.8510651,Walk
Fix,FLP,37.3919702,-122.0799951,-1.7084530395215296,0.7123184,15.544,168.04413,1678506960767,,,1941775644842436,0.8510651,Walk
Fix,GPS,37.3920334006,-122.0800867722,37.950044347553394,0.28564113,11.359328,150.68561,1678506957999,0.52697724,180.0,1941775659950000,10.975764,Walk
Fix,FLP,37.3919598,-122.0799796,-1.7084530395215296,0.6770112,16.036,165.5198,1678506961309,,,1941776187340116,0.86103016,Walk
Fix,GPS,37.3920255513,-122.0800945705,36.48261586541106,0.61468935,11.214911,150.68561,1678506958999,0.5390314,40.82928,1941776659706000,10.902674,Walk
Fix,FLP,37.3919577,-122.0799757,-1.5231259969385815,0.6680023,15.895,164.84789,1678506961852,,,1941776729841948,0.86641395,Walk
Fix,GPS,37.3920104736,-122.0801020896,35.53403624986937,0.8200826,11.129582,150.68561,1678506959999,0.5275437,36.314285,1941777660204000,10.826968,Walk
Fix,FLP,37.3919479,-122.0799649,-2.4537738058198717,0.66006494,14.639,163.11479,1678506962937,,,1941777814841641,0.8766516,Walk
Fix,FLP,37.3919383,-122.079952,-2.4537738058198717,0.6672324,13.485,160.1278,1678506963480,,,1941778357341459,0.8766516,Walk
Fix,GPS,37.3919845736,-122.0800968565,35.3553588850533,1.0158437,11.102255,137.7262,1678506960999,0.52840567,27.095354,1941778659763000,10.819126,Walk
Fix,NLP,37.3918273,-122.0800172,-7.400000095367432,,17.345,,1678506963862,,,1941778739000000,1.0,Walk
Fix,FLP,37.3919308,-122.079949,-2.259938769619197,0.6846694,12.83,158.52998,1678506964022,,,1941778899837919,0.8024494,Walk
Fix,FLP,37.3919242,-122.0799478,-2.259938769619197,0.6878865,12.372,158.6857,1678506964565,,,1941779442345121,0.8024494,Walk
Fix,GPS,37.3919773371,-122.0801071388,34.41159384303509,0.29473013,11.091953,137.7262,1678506961999,0.5001973,141.6249,1941779660340000,10.764379,Walk
Fix,FLP,37.3919198,-122.0799461,-1.5905996133298856,0.6669445,12.054,158.45055,1678506965107,,,1941779984840483,0.81963617,Walk
Fix,FLP,37.3919157,-122.0799441,-1.5905996133298856,0.64742374,11.904,158.38812,1678506965650,,,1941780527340238,0.81963617,Walk
Fix,GPS,37.3919667205,-122.0801129291,34.21153222055762,0.71443164,11.031762,137.7262,1678506962999,0.4991036,58.782494,1941780659818000,10.745275,Walk
Fix,FLP,37.3919125,-122.0799409,-3.433388857878441,0.6311909,11.633,157.06856,1678506966160,,,1941781037600126,0.8299039,Walk
Fix,FLP,37.3919088,-122.0799382,-3.433388857878441,0.6351449,11.442,156.03394,1678506966735,,,1941781612339506,0.8299039,Walk
Fix,GPS,37.3919594762,-122.0801231429,34.188926236758725,0.98972625,11.115371,137.7262,1678506963999,0.584839,68.517914,1941781659813000,10.828194,Walk
Fix,FLP,37.3919041,-122.0799352,-5.0266194178015695,0.65475625,11.586,154.10915,1678506967277,,,1941782154838835,0.839915,Walk
Fix,GPS,37.3919459344,-122.0801280224,34.82288621468813,0.64078957,11.179586,137.7262,1678506964999,0.54351056,72.660736,1941782660254000,10.805676,Walk
Fix,FLP,37.3919006,-122.0799332,-7.400000095367432,0.6711628,11.794,153.18732,1678506967820,,,1941782697338835,0.84993935,Walk
Fix,FLP,37.3918956,-122.0799299,-7.400000095367432,0.6839044,12.284,151.79723,1678506968362,,,1941783239835233,0.8509793,Walk
Fix,GPS,37.3919381985,-122.0801376401,35.81577651291928,0.54796064,11.283309,137.7262,1678506965999,0.570582,102.00728,1941783659786000,10.806039,Walk
Fix,FLP,37.3918932,-122.0799281,-5.630484173876404,0.6822091,12.707,151.19522,1678506968905,,,1941783782323209,0.8598734,Walk
Fix,FLP,37.3918878,-122.0799251,-5.630484173876404,0.6747199,13.931,150.51367,1678506969446,,,1941784324837308,0.8598734,Walk
Fix,GPS,37.3919259211,-122.0801528301,36.98033943538756,0.5095192,11.458409,137.7262,1678506966999,0.6574874,29.384037,1941784659869000,10.785933,Walk
Fix,FLP,37.3918854,-122.0799243,-7.400000095367432,0.6697115,14.354,150.51901,1678506969989,,,1941784867336820,0.86650586,Walk
Fix,FLP,37.391879,-122.0799228,-7.400000095367432,0.65764284,16.098,150.92313,1678506970531,,,1941785409835843,0.86650586,Walk
Fix,GPS,37.3919199003,-122.0801641238,36.74114880820467,0.4929131,11.490505,137.7262,1678506967999,0.5656486,76.03565,1941785659838000,10.76818,Walk
Fix,FLP,37.3918735,-122.0799239,-7.599999904632568,0.6429668,17.668,152.01361,1678506971074,,,1941785952335600,0.8791634,Walk
Fix,FLP,37.3918691,-122.0799254,-7.599999904632568,0.6315556,18.54,153.79051,1678506971595,,,1941786472000000,0.8791634,Walk
Fix,GPS,37.3919155856,-122.080189096,36.38679474155393,0.66201824,11.486319,137.7262,1678506968999,0.58225316,25.0,1941786659890000,10.705432,Walk
Fix,FLP,37.3918612,-122.0799319,-4.768387353294024,0.61565286,20.097,158.28284,1678506972160,,,1941787037334379,0.8855205,Walk
Fix,FLP,37.391856,-122.0799352,-4.768387353294024,0.61326414,20.858,160.5443,1678506972670,,,1941787547000000,0.8855205,Walk
Fix,GPS,37.3919105817,-122.0801990157,36.44581089733464,0.5958296,11.635481,137.7262,1678506969999,0.67839813,180.0,1941787660258000,10.7931595,Walk
Fix,FLP,37.3918463,-122.0799463,-3.417032757944789,0.6071366,22.121,165.94742,1678506973233,,,1941788110000000,0.89947194,Walk
Fix,GPS,37.3919083675,-122.0802154808,37.74365614280249,0.40492114,11.6454,137.7262,1678506970999,0.59076416,180.0,1941788660134000,10.794814,Walk
Fix,FLP,37.391836,-122.0799595,-0.6457454232874156,0.60386693,23.097,171.55634,1678506973787,,,1941788664832669,0.9135976,Walk
Fix,FLP,37.3917929,-122.0800508,-0.6457454232874156,0.6353622,22.345,176.03969,1678506974288,,,1941789165000000,0.9135976,Walk
Fix,GPS,37.3919087186,-122.0802238054,38.186934927964586,0.4158159,11.657246,137.7262,1678506971999,0.5787103,28.320868,1941789660221000,10.79927,Walk
Fix,FLP,37.3917708,-122.0800954,-1.3825581959680306,0.63330394,20.539,179.85522,1678506974872,,,1941789749831938,0.9239654,Walk
Fix,FLP,37.3917567,-122.0801187,-1.3825581959680306,0.62308514,18.183,183.02652,1678506975415,,,1941790292331694,0.9239654,Walk
Fix,GPS,37.3919059696,-122.0802246839,43.25627511521053,0.0,11.6770115,137.7262,1678506972999,0.5900712,73.66867,1941790660081000,9.742315,Walk
Fix,FLP,37.3917533,-122.0801248,-7.400000095367432,0.61956304,17.355,184.2504,1678506975957,,,1941790834831204,0.93398637,Walk
Fix,FLP,37.3917417,-122.0801359,-7.400000095367432,0.612507,14.19,186.42218,1678506976500,,,1941791377331266,0.93398637,Walk
Fix,GPS,37.3919006974,-122.080238613,43.04450728289464,0.555557,11.495186,137.7262,1678506973999,0.59835315,61.649307,1941791660148000,9.552227,Walk
Fix,FLP,37.3917368,-122.0801422,-4.191389890820076,0.60616934,12.411,187.94943,1678506977042,,,1941791919828153,0.94396925,Walk
Fix,FLP,37.3917326,-122.0801459,-4.191389890820076,0.6076638,10.037,188.64265,1678506977584,,,1941792462319303,0.9539601,Walk
Fix,GPS,37.391889813,-122.0802432499,42.54203199060608,0.74478436,11.514479,137.7262,1678506974999,0.58005595,102.168686,1941792660071000,9.432675,Walk
Fix,FLP,37.391729,-122.0801506,-7.400000095367432,0.6115243,8.646,190.06131,1678506978126,,,1941793004830229,0.9496357,Walk
Fix,GPS,37.3918781394,-122.0802444217,42.54382612978584,0.96872526,11.610613,137.7262,1678506975999,0.6132076,92.885765,1941793660128000,9.345742,Walk
Fix,FLP,37.3917256,-122.0801538,-5.373078535046304,0.61847204,6.27,191.0622,1678506978670,,,1941793547330290,0.9596275,Walk
Fix,FLP,37.3917227,-122.0801593,-7.400000095367432,0.6353547,6.404,193.11554,1678506979212,,,1941794089829434,0.9590583,Walk
Fix,GPS,37.3918696814,-122.0802502724,42.587342873400615,0.73699856,11.657304,137.7262,1678506976999,0.6145466,49.22279,1941794660007000,9.28827,Walk
Fix,FLP,37.3917214,-122.0801624,-2.99892888588294,0.64817214,6.512,194.27217,1678506979755,,,1941794632329313,0.9742168,Walk
Fix,FLP,37.3917202,-122.0801692,-2.99892888588294,0.6578976,6.698,196.62134,1678506980297,,,1941795174828702,0.9742168,Walk
Fix,GPS,37.3918608458,-122.0802609804,42.51843142455143,0.61169887,11.675001,137.7262,1678506977999,0.5937218,123.62089,1941795660094000,9.224646,Walk
Fix,FLP,37.3917203,-122.0801726,-0.6657499766253281,0.6587736,6.9,197.75969,1678506980840,,,1941795717328520,0.979697,Walk
Fix,FLP,37.3917207,-122.0801811,-0.6657499766253281,0.64945275,7.35,200.16061,1678506981382,,,1941796259816007,0.979697,Walk
Fix,GPS,37.3918534817,-122.0802711493,42.63518337197437,0.9585541,11.861656,137.7262,1678506978999,0.7958668,25.0,1941796660174000,9.1807165,Walk
Fix,FLP,37.3917219,-122.0801849,0.7496254505137401,0.64388394,7.588,201.27342,1678506981925,,,1941796802315641,0.9978585,Walk
Fix,FLP,37.3917242,-122.0801955,0.7496254505137401,0.646017,8.005,203.8895,1678506982467,,,1941797344826811,0.9978585,Walk
Fix,GPS,37.3918428753,-122.0802793203,42.8511759533623,1.3280234,14.415895,175.60048,1678506979999,1.2127348,25.0,1941797660276000,9.1883135,Walk
Fix,FLP,37.3917296,-122.0802056,-3.292215165469621,0.67487746,8.343,206.33505,1678506983010,,,1941797887323148,1.0081028,Walk
Fix,FLP,37.3917299,-122.0802119,-3.292215165469621,0.69789314,8.488,207.26372,1678506983551,,,1941798429825101,1.0081028,Walk
Fix,GPS,37.3918399163,-122.0802890859,42.61110047199858,0.7938918,12.082154,175.60048,1678506980999,0.6305927,180.0,1941798660183000,9.229812,Walk
Fix,FLP,37.3917341,-122.0802221,-3.52217989177926,0.71727955,8.699,209.26677,1678506984095,,,1941798972324613,1.0181168,Walk
Fix,FLP,37.3917342,-122.0802296,-3.52217989177926,0.7160417,8.826,210.60269,1678506984637,,,1941799514826566,1.0181168,Walk
Fix,GPS,37.3918432793,-122.0802989753,42.39200305156899,0.6921426,12.082571,175.60048,1678506981999,0.60087174,74.17889,1941799660664000,9.328815,Walk
Fix,FLP,37.3917386,-122.0802408,-1.2904663244554868,0.70628583,8.812,213.22939,1678506985160,,,1941800037600126,1.0280981,Walk
Fix,FLP,37.3917384,-122.0802491,-1.2904663244554868,0.7013472,8.823,214.5526,1678506985722,,,1941800599818449,1.0280981,Walk
Fix,GPS,37.3918339961,-122.0803127976,42.433990067359616,0.79089725,12.069835,175.60048,1678506982999,0.586286,29.105762,1941800660517000,9.436075,Walk
Fix,FLP,37.3917415,-122.0802609,-4.885445725392749,0.69551575,8.746,217.18182,1678506986265,,,1941801142308744,1.0338463,Walk
Fix,FLP,37.3917416,-122.0802688,-4.885445725392749,0.6941648,8.647,218.76608,1678506986807,,,1941801684819242,1.0338463,Walk
Fix,GPS,37.3918341205,-122.0803299309,42.0959902784213,1.0074147,12.014571,178.89221,1678506983999,0.57932556,25.0,1941801660215000,9.552359,Walk
Fix,FLP,37.3917428,-122.0802877,-3.5051647363175675,0.6995238,8.504,223.26047,1678506987886,,,1941802763000000,1.0437554,Walk
Fix,GPS,37.3918308614,-122.080340505,42.122142359691566,0.62140816,11.989068,178.89221,1678506984999,0.59097314,52.388874,1941802660317000,9.670675,Walk
Fix,GPS,37.3918270793,-122.0803488431,41.74349002479372,0.62505084,12.008785,178.89221,1678506985999,0.6216259,180.0,1941803660241000,9.811672,Walk
Fix,FLP,37.3917457,-122.0803081,-5.00196253060453,0.684577,8.444,230.12643,1678506988977,,,1941803854813321,1.0636717,Walk
Fix,FLP,37.3917507,-122.0803292,-5.00196253060453,0.62948877,8.485,240.38708,1678506989519,,,1941804397311857,1.0636717,Walk
Fix,GPS,37.3918180706,-122.0803618261,41.40788790778675,0.5451037,11.847454,178.89221,1678506986999,0.54589194,63.881435,1941804660511000,9.923621,Walk
Fix,FLP,37.3917563,-122.0803424,-0.5969681402010565,0.5985689,8.519,248.95822,1678506990062,,,1941804939806730,1.0777237,Walk
Fix,GPS,37.3918165741,-122.0803748444,41.17690909047391,0.0,11.808907,178.89221,1678506987999,0.5350927,180.0,1941805660220000,9.985186,Walk
Fix,FLP,37.391759,-122.08035,-4.347380320674063,0.59034026,8.535,252.46616,1678506990605,,,1941805482295072,1.092237,Walk
Fix,FLP,37.3917632,-122.0803592,-4.347380320674063,0.5686244,8.538,253.3179,1678506991146,,,1941806024806241,1.092237,Walk
Fix,GPS,37.3918165741,-122.0803748444,40.48755525360784,0.0,11.344954,178.89221,1678506988999,0.50263476,116.41223,1941806660286000,10.00782,Walk
Fix,FLP,37.3917697,-122.080371,-7.400000095367432,0.5230105,8.604,254.42574,1678506991690,,,1941806567304533,1.1022019,Walk
Fix,FLP,37.3917746,-122.0803813,-7.400000095367432,0.48079368,8.7,255.39241,1678506992231,,,1941807109802153,1.1022019,Walk
Fix,GPS,37.3917938153,-122.080396561,39.15892546148368,0.72625697,10.885163,178.89221,1678506989999,0.48361188,152.8836,1941807660198000,10.043549,Walk
Fix,FLP,37.3917773,-122.0803868,-4.479813990192703,0.4640213,8.777,256.70764,1678506992775,,,1941807652299955,1.1122142,Walk
Fix,FLP,37.3917822,-122.0803987,-4.479813990192703,0.4569912,8.951,261.43643,1678506993317,,,1941808194797575,1.1122142,Walk
Fix,GPS,37.3917947517,-122.0804078176,45.20489779239976,0.0,10.738404,178.89221,1678506990999,0.47472304,112.06865,1941808660493000,8.732506,Walk
Fix,FLP,37.3917847,-122.0804046,-3.0018812704213573,0.46752405,9.034,264.5049,1678506993859,,,1941808737295378,1.1221763,Walk
Fix,GPS,37.3917947517,-122.0804078176,45.29427820097164,0.0,10.22126,178.89221,1678506991999,0.46918538,123.96908,1941809660526000,8.548552,Walk
Fix,FLP,37.3917891,-122.0804197,-5.074321915220111,0.46693096,9.26,267.8992,1678506994945,,,1941809822298307,1.1278613,Walk
Fix,FLP,37.3917902,-122.080432,-5.074321915220111,0.44262868,9.594,268.93185,1678506995487,,,1941810364787686,1.1278613,Walk
Fix,GPS,37.3917947517,-122.0804078176,46.01010356856275,0.0,9.866228,178.89221,1678506992999,0.48426333,75.68166,1941810660364000,8.405266,Walk
Fix,FLP,37.3917895,-122.0804404,-7.400000095367432,0.4181579,9.833,269.31354,1678506996029,,,1941810907285551,1.141594,Walk
Fix,FLP,37.3917891,-122.0804465,-7.400000095367432,0.407539,10.015,269.463,1678506996572,,,1941811449782315,1.141594,Walk
Fix,GPS,37.3917947517,-122.0804078176,46.47391510137772,0.0,9.697935,178.89221,1678506993999,0.5460642,180.0,1941811660393000,8.275018,Walk
Fix,FLP,37.3917892,-122.0804551,-2.7001722660567467,0.38548517,10.413,269.6676,1678506997115,,,1941811992279386,1.1522827,Walk
Fix,FLP,37.3917891,-122.0804606,-2.7001722660567467,0.37614152,10.531,269.8071,1678506997653,,,1941812530000000,1.1522827,Walk
Fix,GPS,37.3917947517,-122.0804078176,46.25650698937248,0.0,9.493121,178.89221,1678506994999,0.54181975,65.30995,1941812660562000,8.140251,Walk
Fix,FLP,37.3917895,-122.0804682,-2.0455900561262794,0.3560504,10.642,269.90952,1678506998224,,,1941813101000000,1.1579196,Walk
Fix,GPS,37.3917629357,-122.0804281185,45.64849350004056,0.4032865,9.299255,178.89221,1678506995999,0.5584433,94.26253,1941813660340000,8.01238,Walk
Fix,FLP,37.3917899,-122.0804748,-1.3206521039806915,0.3363251,10.707,269.96494,1678506998742,,,1941813619756559,1.1763175,Walk
Fix,FLP,37.391787,-122.0804788,-1.3206521039806915,0.34106842,10.751,269.9664,1678506999273,,,1941814150000000,1.1763175,Walk
Fix,GPS,37.391734802,-122.0804415445,44.90309263608579,0.97899467,9.385296,178.89221,1678506996999,0.5391467,91.673225,1941814660857000,7.9672437,Walk
Fix,FLP,37.3917829,-122.0804846,-2.5817074222973844,0.34952712,10.717,269.91995,1678506999827,,,1941814704764798,1.1873176,Walk
Fix,FLP,37.3917766,-122.0804884,-2.5817074222973844,0.37338504,10.687,269.07098,1678507000369,,,1941815247262174,1.1873176,Walk
Fix,GPS,37.3917112768,-122.080453609,44.6171627233087,0.8754802,9.477247,178.89221,1678506997999,0.543654,59.127167,1941815660326000,7.936166,Walk
Fix,FLP,37.3917687,-122.0804921,-1.852711061246353,0.41784754,10.521,267.519,1678507000911,,,1941815789758329,1.1963017,Walk
Fix,FLP,37.3917602,-122.0804923,-1.852711061246353,0.430126,10.513,265.74057,1678507001455,,,1941816332255522,1.1963017,Walk
Fix,GPS,37.391687872,-122.0804608689,44.13366237933534,0.6441986,9.61464,178.89221,1678506998999,0.5644644,118.87728,1941816660365000,7.9355893,Walk
Fix,FLP,37.3917323,-122.080481,0.3677891342031927,0.44138527,10.264,260.10333,1678507002507,,,1941817384000000,1.206298,Walk
Fix,GPS,37.391667735,-122.0804673375,44.11040728573602,0.6066347,9.741626,178.89221,1678506999999,0.56746674,70.592896,1941817660455000,7.9611616,Walk
Fix,FLP,37.3916957,-122.0804545,-3.175640537311132,0.40935385,9.484,252.3476,1678507003082,,,1941817959742033,1.211966,Walk
Fix,FLP,37.3916848,-122.0804498,-3.175640537311132,0.4041425,9.001,249.5785,1678507003625,,,1941818502241911,1.211966,Walk
Fix,GPS,37.3916507377,-122.0804730942,43.53646495641847,0.0,9.843992,178.89221,1678507000999,0.5269052,180.0,1941818660408000,7.9789815,Walk
Fix,FLP,37.3916722,-122.0804465,-5.244464076885791,0.36483887,8.293,244.94862,1678507004160,,,1941819037600126,1.2214792,Walk
Fix,GPS,37.3916285884,-122.0804821112,42.5255747608794,0.44865337,9.584728,178.89221,1678507001999,0.5838864,135.5117,1941819660836000,7.918789,Walk
Fix,FLP,37.3916659,-122.0804471,-3.366221355954337,0.33606339,7.89,242.56992,1678507004710,,,1941819587234953,1.23646,Walk
Fix,FLP,37.391657,-122.0804493,-3.366221355954337,0.31533018,7.236,238.53755,1678507005251,,,1941820129731352,1.23646,Walk
Fix,FLP,37.3916513,-122.0804524,-3.366221355954337,0.32163814,6.442,236.65318,1678507005795,,,1941820672228178,1.23646,Walk
Fix,GPS,37.3916062478,-122.0804866656,41.7287258586334,0.0,9.676969,178.89221,1678507002999,0.5571451,180.0,1941820660439000,7.9680824,Walk
Fix,FLP,37.3916428,-122.0804573,-4.604717950061477,0.30576497,5.913,232.95235,1678507006337,,,1941821214724454,1.24235,Walk
Fix,GPS,37.3916062478,-122.0804866656,41.305500577509655,0.0,9.485107,178.89221,1678507003999,0.574725,76.53594,1941821660419000,7.963479,Walk
Fix,FLP,37.3916384,-122.0804599,-4.4123328639453945,0.2883259,5.55,230.75453,1678507006880,,,1941821757221037,1.2605203,Walk
Fix,FLP,37.3916292,-122.0804662,-4.4123328639453945,0.26181868,4.973,227.04056,1678507007422,,,1941822299715421,1.2605203,Walk
Fix,GPS,37.3915761737,-122.0804918978,40.80344498940102,0.3340959,9.356646,178.89221,1678507004999,0.57373273,113.9017,1941822660398000,7.9714637,Walk
Fix,FLP,37.3916244,-122.0804696,-3.809840511715038,0.25247744,5.008,225.54071,1678507007965,,,1941822842214018,1.270444,Walk
Fix,FLP,37.3916142,-122.0804771,-3.809840511715038,0.25186992,4.669,222.71565,1678507008506,,,1941823384710294,1.270444,Walk
Fix,GPS,37.3915723098,-122.0804944362,42.630302110092046,0.0,9.576271,178.89221,1678507005999,0.6314776,112.956314,1941823660454000,7.568525,Walk
Fix,FLP,37.3916053,-122.080483,-4.489533010937571,0.24066216,4.721,216.77176,1678507009050,,,1941823927206938,1.2804041,Walk
Fix,FLP,37.3915975,-122.0804871,-4.489533010937571,0.21216892,4.854,202.95164,1678507009591,,,1941824469703215,1.2804041,Walk
Fix,GPS,37.3915569482,-122.0804917775,42.35663998162614,0.63837594,9.43083,178.89221,1678507006999,0.5741555,45.063007,1941824660566000,7.464639,Walk
Fix,FLP,37.391589,-122.0804908,-4.489533010937571,0.22076647,5.005,195.35886,1678507010110,,,1941824987000000,1.2904261,Walk
Fix,FLP,37.3915815,-122.0804928,-4.489533010937571,0.24142979,5.206,193.64201,1678507010677,,,1941825554695890,1.2904261,Walk
Fix,GPS,37.3915371632,-122.0804856894,42.03044312557647,0.43132946,9.612235,178.89221,1678507007999,0.56325394,25.0,1941825660466000,7.4618306,Walk
Fix,FLP,37.3915712,-122.0804954,0.7910775673931525,0.27029693,5.398,191.78296,1678507011220,,,1941826097192594,1.3004467,Walk
Fix,FLP,37.3915649,-122.0804969,0.7910775673931525,0.28314352,5.51,191.6866,1678507011731,,,1941826608000000,1.3004467,Walk
Fix,GPS,37.3915210705,-122.0804886479,41.71010385811811,0.92463875,9.800337,178.89221,1678507008999,0.56656164,103.01128,1941826660460000,7.475966,Walk
Fix,FLP,37.3915551,-122.0804999,-2.700263898288185,0.32124496,5.67,192.03922,1678507012311,,,1941827188000000,1.306077,Walk
Fix,GPS,37.3915034836,-122.080492218,41.24233963458694,0.5630772,9.972511,178.89221,1678507009999,0.5640828,97.5688,1941827660477000,7.5127554,Walk
Fix,FLP,37.3915469,-122.080503,-7.400000095367432,0.37239122,5.829,193.40157,1678507012846,,,1941827724680814,1.3198551,Walk
Fix,FLP,37.3915387,-122.0805072,-7.400000095367432,0.38753062,5.896,194.45439,1678507013390,,,1941828267177336,1.3198551,Walk
Fix,GPS,37.391492352,-122.0804946076,40.86798195975797,0.61953616,10.15196,178.89221,1678507010999,0.57287824,146.2792,1941828660542000,7.572431,Walk
Fix,FLP,37.3915309,-122.0805122,-7.400000095367432,0.40737644,6.104,196.53511,1678507013932,,,1941828809673001,1.3298732,Walk
Fix,FLP,37.3915199,-122.0805191,-7.400000095367432,0.42790145,6.339,198.81168,1678507014475,,,1941829352169340,1.3298732,Walk
Fix,GPS,37.3914861053,-122.0804992612,40.5772939748902,0.4164024,10.300683,178.89221,1678507011999,0.6031138,143.99907,1941829660557000,7.653849,Walk
Fix,FLP,37.3915119,-122.0805244,-4.603695006326134,0.43812233,6.423,200.76216,1678507015017,,,1941829894664641,1.3370446,Walk
Fix,FLP,37.3915056,-122.0805283,-4.603695006326134,0.4420894,6.504,201.52185,1678507015560,,,1941830437160978,1.3370446,Walk
Fix,GPS,37.3914726572,-122.0805049239,40.48389791443232,1.0632029,10.407908,240.89195,1678507012999,0.54765177,26.229893,1941830660535000,7.739451,Walk
Fix,FLP,37.3914975,-122.0805328,-4.588671219359277,0.4716646,6.527,203.15448,1678507016102,,,1941830979653898,1.3501359,Walk
Fix,FLP,37.3914918,-122.0805364,-4.588671219359277,0.5004047,6.553,204.13603,1678507016645,,,1941831522152738,1.3501359,Walk
Fix,GPS,37.3914640721,-122.0805140472,40.74680669124155,1.1831051,10.579891,250.47815,1678507013999,0.5713454,25.244087,1941831660557000,7.854465,Walk
Fix,FLP,37.3914849,-122.0805404,-5.43105076246286,0.5530574,6.519,205.76889,1678507017160,,,1941832037600126,1.3646371,Walk
Fix,FLP,37.3914796,-122.0805444,-5.43105076246286,0.5812831,6.506,206.9211,1678507017730,,,1941832607144438,1.3646371,Walk
Fix,GPS,37.3914552929,-122.0805243797,40.94956760147038,1.2344441,10.762017,234.80437,1678507014999,0.61400765,25.0,1941832660567000,8.013726,Walk
Fix,FLP,37.3914732,-122.0805495,-7.400000095367432,0.63190943,6.472,208.93065,1678507018272,,,1941833149639798,1.3744998,Walk
Fix,GPS,37.3914444332,-122.0805455872,40.58706875252252,1.2608318,10.719728,254.07372,1678507015999,0.52154255,25.0,1941833660550000,8.170891,Walk
Fix,FLP,37.3914694,-122.0805534,-7.400000095367432,0.6571449,6.439,210.08736,1678507018815,,,1941833692135649,1.3845105,Walk
Fix,FLP,37.3914624,-122.0805604,-7.400000095367432,0.70298654,6.397,212.31248,1678507019357,,,1941834234617033,1.3845105,Walk
Fix,GPS,37.3914406016,-122.0805726033,40.2127377701939,0.86049694,10.651734,254.07372,1678507016999,0.50516814,25.0,1941834660555000,8.336502,Walk
Fix,FLP,37.3914596,-122.0805642,-7.400000095367432,0.7204073,6.423,213.84473,1678507019900,,,1941834777129545,1.3945118,Walk
Fix,FLP,37.3914536,-122.0805736,-7.400000095367432,0.72855824,6.419,217.2485,1678507020442,,,1941835319619657,1.3945118,Walk
Fix,GPS,37.3914446709,-122.0805997441,39.86461811751847,0.5578267,10.595911,254.07372,1678507017999,0.52233976,173.39268,1941835660717000,8.510297,Walk
Fix,FLP,37.3914493,-122.0805834,-5.181752737415813,0.68534076,6.429,222.21907,1678507020985,,,1941835862118559,1.400198,Walk
Fix,FLP,37.3914473,-122.080591,-5.181752737415813,0.66127974,6.482,225.05547,1678507021527,,,1941836404613919,1.400198,Walk
Fix,GPS,37.391449128,-122.0806158632,39.81619367460054,0.41440102,10.652439,254.07372,1678507018999,0.6028068,163.47675,1941836660780000,8.687545,Walk
Fix,FLP,37.3914434,-122.0806048,-7.400000095367432,0.63645667,6.597,227.88625,1678507022587,,,1941837464000000,1.4140117,Walk
Fix,GPS,37.3914526971,-122.080632059,39.43132195333881,0.3009718,10.624239,254.07372,1678507019999,0.55736345,157.74025,1941837660813000,8.8560295,Walk
Fix,FLP,37.3914366,-122.080621,-7.400000095367432,0.5778226,6.8,225.13249,1678507023697,,,1941838574596036,1.4245366,Walk
Fix,GPS,37.3914547814,-122.0806353124,40.82686421983523,0.0,10.593107,254.07372,1678507020999,0.5289429,136.92278,1941838660856000,7.9253097,Walk
Fix,FLP,37.3914317,-122.0806263,-7.400000095367432,0.48288563,6.964,213.13443,1678507024236,,,1941839113000000,1.4303652,Walk
Fix,GPS,37.3914547814,-122.0806353124,40.807254485811214,0.0,16.163437,254.07372,1678507021999,0.9052485,180.0,1941839661012000,7.83173,Walk
Fix,FLP,37.3914273,-122.0806281,-7.400000095367432,0.43018436,7.106,200.04553,1678507024782,,,1941839659585600,1.4487789,Walk
Fix,GPS,37.3914547814,-122.0806353124,40.9757538671844,0.0,10.277975,254.07372,1678507022999,0.61917186,180.0,1941840660674000,7.7580953,Walk
Fix,FLP,37.3914199,-122.0806294,-7.400000095367432,0.41875422,7.298,194.62192,1678507025866,,,1941840744574063,1.4586791,Walk
Fix,GPS,37.3914532628,-122.0806266466,41.05379428862795,0.5416916,10.441411,254.07372,1678507023999,0.62193185,180.0,1941841660715000,7.780211,Walk
Fix,FLP,37.3914124,-122.0806288,-10.7176383654228,0.41294795,7.598,190.47241,1678507026952,,,1941841829568204,1.4685948,Walk
Fix,GPS,37.3914539262,-122.0806240538,41.19133648709981,0.5466109,10.593302,254.07372,1678507024999,0.623334,180.0,1941842660739000,7.821065,Walk
Fix,FLP,37.3914068,-122.0806263,-11.03045660810736,0.40707153,8.013,186.80122,1678507027495,,,1941842372063627,1.4785879,Walk
Fix,GPS,37.3914515686,-122.0806233425,41.26443848800012,0.5073752,10.734828,254.07372,1678507025999,0.5875653,120.78982,1941843660778000,7.8769336,Walk
Fix,FLP,37.3914027,-122.0806235,-13.509945372771732,0.41070184,8.588,183.41258,1678507028580,,,1941843457055387,1.4842867,Walk
Fix,GPS,37.3914512537,-122.0806240194,41.45519241149992,0.5073752,10.90402,254.07372,1678507026999,0.6464316,180.0,1941844660856000,7.948005,Walk
Fix,FLP,37.3914004,-122.0806205,-7.400000095367432,0.41307536,9.099,180.2527,1678507029665,,,1941844542043608,1.4986863,Walk
Fix,GPS,37.3914482376,-122.0806345163,41.620584956271664,0.5076406,11.096152,254.07372,1678507027999,0.6368322,30.156162,1941845660775000,8.022627,Walk
Fix,FLP,37.3913994,-122.0806172,-14.068493362000453,0.41436774,9.573,177.34085,1678507030750,,,1941845627033537,1.5081788,Walk
Fix,GPS,37.3914506471,-122.0806374681,41.65456420364728,0.0,11.285391,254.07372,1678507028999,0.6885655,180.0,1941846660780000,7.807168,Walk
Fix,FLP,37.3914018,-122.080616,-10.899103729308244,0.40914425,9.499,174.94986,1678507031835,,,1941846712022856,1.5143044,Walk
Fix,FLP,37.3914039,-122.0806155,-10.899103729308244,0.40509018,9.373,172.99878,1678507032377,,,1941847254520170,1.5143044,Walk
Fix,GPS,37.3914506471,-122.0806374681,41.28711083434984,0.0,10.638965,254.07372,1678507029999,0.5860958,111.787704,1941847660759000,7.707797,Walk
Fix,FLP,37.3914063,-122.0806154,-10.200669025148713,0.40600458,9.312,172.29225,1678507032920,,,1941847797011747,1.52841,Walk
Fix,FLP,37.3914071,-122.0806153,-10.200669025148713,0.40659258,9.214,173.33809,1678507033462,,,1941848339504483,1.52841,Walk
Fix,GPS,37.3914490477,-122.0807067178,41.08972049485486,1.6160364,10.414366,218.14702,1678507030999,0.49661413,25.0,1941848660776000,7.703026,Walk
Fix,FLP,37.3914088,-122.0806192,-12.31696127064183,0.4529104,9.007,175.52359,1678507034005,,,1941848882000639,1.5428427,Walk
Fix,FLP,37.3914085,-122.0806223,-12.31696127064183,0.4973845,8.833,176.35382,1678507034547,,,1941849424483305,1.5428427,Walk
Fix,GPS,37.3914392754,-122.0807364509,41.16924213006224,1.7163798,10.252781,213.58012,1678507031999,0.49619445,25.0,1941849660840000,7.744076,Walk
Fix,FLP,37.3914087,-122.0806308,-13.068603154008173,0.57489866,9.625,179.31268,1678507035089,,,1941849966989592,1.5527127,Walk
Fix,FLP,37.3914077,-122.0806383,-13.068603154008173,0.6114616,10.396,181.41031,1678507035631,,,1941850509483731,1.5527127,Walk
Fix,GPS,37.391429087,-122.080756441,41.226160380517165,0.81045115,10.234592,213.58012,1678507032999,0.5236023,97.65701,1941850661083000,7.825382,Walk
Fix,FLP,37.3914078,-122.0806542,-1.7314404439598263,0.6472757,11.606,185.26953,1678507036160,,,1941851037600126,1.5627056,Walk
Fix,FLP,37.3914062,-122.0806642,-1.7314404439598263,0.64957154,12.319,187.42117,1678507036717,,,1941851594471953,1.5627056,Walk
Fix,GPS,37.3914194732,-122.0807681181,41.21125870270613,1.1852868,10.247427,178.74615,1678507033999,0.51188546,25.0,1941851660831000,7.9298725,Walk
Fix,FLP,37.3914051,-122.0806836,-0.5810739749679854,0.67094153,12.943,188.72592,1678507037259,,,1941852136966764,1.5727904,Walk
Fix,FLP,37.3914031,-122.0806937,-0.5810739749679854,0.6889469,13.743,188.26173,1678507037802,,,1941852679460538,1.5727904,Walk
Fix,GPS,37.3914072371,-122.0807767478,40.83364479372416,0.8557125,10.259547,178.74615,1678507034999,0.52034193,137.68799,1941852660857000,8.067072,Walk
Fix,FLP,37.3914015,-122.0807145,-1.5815649558778162,0.70903647,14.051,187.36728,1678507038330,,,1941853208000000,1.5784259,Walk
Fix,GPS,37.3913960927,-122.080785394,40.11699114377803,1.1545132,10.266681,194.28229,1678507035999,0.52740324,25.0,1941853660862000,8.217287,Walk
Fix,FLP,37.3913983,-122.0807253,-1.5815649558778162,0.71235293,14.593,186.75557,1678507038887,,,1941853764437100,1.5784259,Walk
Fix,GPS,37.3913780092,-122.080798401,39.57821643736663,1.2462839,10.203793,204.98584,1678507036999,0.504039,25.0,1941854660930000,8.352628,Walk
Fix,FLP,37.3913938,-122.0807434,2.27690604075206,0.7351567,14.743,185.34457,1678507039972,,,1941854849436612,1.6027484,Walk
Fix,FLP,37.3913869,-122.0807538,2.27690604075206,0.78304124,13.388,184.77185,1678507040514,,,1941855391930754,1.6027484,Walk
Fix,GPS,37.3913530879,-122.0808194798,39.04670768849312,1.0366032,9.981014,196.33142,1678507037999,0.52909017,26.111277,1941855661141000,8.468259,Walk
Fix,FLP,37.3913816,-122.0807595,2.159608623105129,0.8100073,12.452,184.29045,1678507041057,,,1941855934424649,1.6084883,Walk
Fix,FLP,37.3913756,-122.0807623,2.159608623105129,0.8212345,11.367,183.97575,1678507041599,,,1941856476918608,1.6084883,Walk
Fix,GPS,37.3913357715,-122.0808321174,38.4634875893647,1.0665358,9.855109,193.97914,1678507038999,0.5267024,25.072893,1941856660922000,8.600702,Walk
Fix,FLP,37.3913678,-122.0807673,-7.400000095367432,0.8428571,10.992,183.53067,1678507042142,,,1941857019411832,1.6269739,Walk
Fix,GPS,37.3913180944,-122.0808438623,37.810116796132895,1.3556771,9.710273,196.42746,1678507039999,0.51489866,25.0,1941857661175000,8.751804,Walk
Fix,FLP,37.3913614,-122.0807697,-7.400000095367432,0.85629505,10.165,183.39624,1678507042684,,,1941857561906094,1.6370124,Walk
Fix,FLP,37.3913514,-122.080775,-7.400000095367432,0.89080226,9.424,183.26894,1678507043227,,,1941858104388089,1.6370124,Walk
Fix,GPS,37.3912977233,-122.0808556968,37.22127689763212,1.891753,9.692563,190.11156,1678507040999,0.54589313,25.0,1941858660933000,8.900088,Walk
Fix,FLP,37.3913442,-122.0807777,-9.2602230129742,0.91369593,9.21,183.1542,1678507043769,,,1941858646893705,1.6468198,Walk
Fix,FLP,37.3913329,-122.0807836,-9.2602230129742,0.97502893,8.916,183.07117,1678507044312,,,1941859189386746,1.6468198,Walk
Fix,GPS,37.3912742739,-122.0808594261,36.85317924553196,1.400089,9.742797,190.99939,1678507041999,0.59327996,25.0,1941859660930000,9.045237,Walk
Fix,FLP,37.391325,-122.0807865,-9.2602230129742,1.015112,8.706,183.06104,1678507044854,,,1941859731880949,1.656828,Walk
Fix,FLP,37.3913132,-122.0807937,-9.2602230129742,1.0697899,8.413,183.27238,1678507045375,,,1941860252000000,1.656828,Walk
Fix,GPS,37.391257437,-122.0808667974,36.844101936494816,0.9475339,9.707156,190.99939,1678507042999,0.55145085,105.31774,1941860661301000,9.176715,Walk
Fix,FLP,37.3913054,-122.0807974,-7.400000095367432,1.0878917,8.217,183.15404,1678507045939,,,1941860816868071,1.6667241,Walk
Fix,GPS,37.39124037,-122.0808672451,37.195573266739785,1.7106405,9.682759,174.4072,1678507043999,0.55602336,25.0,1941861661115000,9.301421,Walk
Fix,FLP,37.3912889,-122.0808082,-4.489686013422691,1.1137612,8.021,182.71022,1678507046482,,,1941861359364347,1.6766839,Walk
Fix,FLP,37.3912817,-122.0808139,-4.489686013422691,1.1425173,7.909,182.68712,1678507047028,,,1941861905000000,1.6766839,Walk
Fix,FLP,37.3912674,-122.0808216,-4.489686013422691,1.1916026,7.757,182.34067,1678507047567,,,1941862444337004,1.6766839,Walk
Fix,GPS,37.3912204142,-122.0808630881,37.30459602862224,1.1772348,9.6523695,172.77625,1678507044999,0.5342243,25.837914,1941862661331000,9.379458,Walk
Fix,FLP,37.3912549,-122.0808274,-10.109246519896132,1.2175043,7.623,181.75807,1678507048109,,,1941862986830656,1.6864698,Walk
Fix,FLP,37.3912448,-122.0808304,-10.109246519896132,1.2228067,7.553,181.6088,1678507048652,,,1941863529335538,1.6864698,Walk
Fix,GPS,37.3912054217,-122.0808612821,38.218894482324295,1.2130202,9.676685,177.59415,1678507045999,0.5353792,25.0,1941863661089000,9.460968,Walk
Fix,FLP,37.3912308,-122.0808359,-4.987801675279535,1.2321706,7.423,181.43965,1678507049160,,,1941864037600126,1.6925257,Walk
Fix,FLP,37.391221,-122.0808384,-4.987801675279535,1.2383527,7.363,181.19168,1678507049737,,,1941864614322844,1.6925257,Walk
Fix,GPS,37.3911921414,-122.0808587482,38.487023486796566,1.3067762,9.7292385,161.57022,1678507046999,0.55484176,25.0,1941864661067000,9.557511,Walk
Fix,FLP,37.3912065,-122.0808445,2.6697691688749714,1.2517444,7.234,180.99605,1678507050279,,,1941865156816557,1.7066942,Walk
Fix,FLP,37.3911961,-122.0808477,2.6697691688749714,1.260724,7.163,180.97084,1678507050822,,,1941865699306974,1.7066942,Walk
Fix,GPS,37.3911794303,-122.0808555459,39.08334080473089,1.8114269,9.820752,151.72163,1678507047999,0.57273436,25.0,1941865661079000,9.657393,Walk
Fix,FLP,37.3911827,-122.0808539,2.055195305632857,1.2927421,6.979,181.22604,1678507051368,,,1941866245000000,1.7210796,Walk
Fix,GPS,37.391164761,-122.0808495028,40.00433455491478,1.6705741,9.912006,157.23569,1678507048999,0.57346296,25.0,1941866661383000,9.72804,Walk
Fix,FLP,37.3911739,-122.0808571,-5.391674891712469,1.3178533,6.946,181.52647,1678507051907,,,1941866784284941,1.7309846,Walk
Fix,FLP,37.3911573,-122.08086,-5.391674891712469,1.3630224,7.505,180.85464,1678507052449,,,1941867326790617,1.7309846,Walk
Fix,GPS,37.3911503296,-122.0808415594,40.01700778754465,1.6822679,10.031402,158.32417,1678507049999,0.5952089,25.0,1941867661400000,9.792311,Walk
Fix,FLP,37.3911496,-122.0808569,-7.400000095367432,1.3774922,8.739,178.79799,1678507052991,,,1941867869283780,1.7409134,Walk
Fix,FLP,37.391143,-122.0808555,-7.400000095367432,1.3867735,9.429,178.02219,1678507053534,,,1941868411777189,1.7409134,Walk
