Fix,Provider,LatitudeDegrees,LongitudeDegrees,AltitudeMeters,SpeedMps,AccuracyMeters,BearingDegrees,UnixTimeMillis,SpeedAccuracyMps,BearingAccuracyDegrees,elapsedRealtimeNanos,VerticalAccuracyMeters,TransitType
Fix,FLP,37.3909652,-122.0812815,-13.645873191864595,2.4638,45.279,256.07532,1676154028430,,,189221123000000,1.6103643,Walk
Fix,FLP,37.3909501,-122.0812507,-13.292305028684217,1.9585272,52.738,249.06288,1676154029542,,,189222235000000,1.4944669,Walk
Fix,FLP,37.3909422,-122.0812306,-13.292305028684217,1.7209605,58.873,244.12926,1676154030083,,,189222777000000,1.4944669,Walk
Fix,GPS,37.3908620333,-122.0810877794,0.0110896462575861,0.0,47.497353,,1676154029076,0.695139,,189223616150330,76.11424,Walk
Fix,FLP,37.3909324,-122.0812125,-12.37465081780897,1.4996636,60.408,237.99403,1676154030621,,,189223314585634,1.6543663,Walk
Fix,FLP,37.3909553,-122.0811115,-12.37465081780897,0.38406938,61.472,189.91493,1676154031169,,,189223863000000,1.6543663,Walk
Fix,FLP,37.3909605,-122.0811032,-12.37465081780897,0.24495512,62.349,190.32849,1676154031686,,,189224380000000,1.6543663,Walk
Fix,FLP,37.3909656,-122.0810959,-13.127389592457334,0.11224028,70.895,196.88826,1676154032249,,,189224942122010,1.7016762,Walk
Fix,GPS,37.3909696538,-122.0810364019,-8.931834500344658,0.0,35.663597,,1676154031076,0.7641273,,189225686913107,59.61335,Walk
Fix,FLP,37.3909635,-122.0810886,-12.757986470045635,0.098861985,70.87,,1676154032791,,,189225484632936,1.7294306,Walk
Fix,FLP,37.3909596,-122.081076,-12.757986470045635,0.07861163,70.62,,1676154033334,,,189226027147096,1.7294306,Walk
Fix,GPS,37.3909738339,-122.0808341477,7.314671927296873,0.0,14.709012,,1676154032076,1.0810001,,189226706865663,24.4974,Walk
Fix,FLP,37.3909589,-122.0810707,-14.582499131438937,0.0558023,70.44,,1676154033860,,,189226553198854,1.7425371,Walk
Fix,FLP,37.3909563,-122.0810586,-14.582499131438937,0.024265299,69.488,,1676154034419,,,189227112173707,1.7425371,Walk
Fix,GPS,37.3909543876,-122.0808224196,10.335190986249636,0.0,24.998652,,1676154033076,0.81604415,,189227713813458,40.125217,Walk
Fix,FLP,37.3909547,-122.0810517,-13.601724963089882,0.016581342,68.86,,1676154034961,,,189227654685670,1.7380176,Walk
Fix,FLP,37.3909506,-122.0810381,-13.601724963089882,0.021197813,67.152,,1676154035503,,,189228197200562,1.7380176,Walk
Fix,FLP,37.3909484,-122.0810317,-13.81876249654044,0.024850974,66.319,,1676154036046,,,189228739710817,1.7121837,Walk
Fix,FLP,37.3909463,-122.0810257,-13.81876249654044,0.0280473,65.486,,1676154036588,,,189229282223451,1.7121837,Walk
Fix,GPS,37.3908639665,-122.0807840235,5.872263816352842,0.0,21.624784,,1676154035076,0.76048654,,189229703024071,34.796814,Walk
Fix,FLP,37.3909389,-122.0810011,-22.233807198653125,0.04278405,63.487,,1676154037131,,,189229824733766,1.4867302,Walk
Fix,FLP,37.3909342,-122.0809841,-22.233807198653125,0.052646402,61.512,,1676154037673,,,189230367245180,1.4867302,Walk
Fix,GPS,37.3908715773,-122.0809499545,29.67473679972854,0.0,6.5937157,,1676154036076,0.84671223,,189230724342797,12.044646,Walk
Fix,FLP,37.3909187,-122.0809674,-15.51010810845004,0.057953425,55.59,,1676154038215,,,189230909753785,1.7275416,Walk
Fix,FLP,37.3909127,-122.0809652,-15.51010810845004,0.056055874,51.781,,1676154038758,,,189231452263734,1.7275416,Walk
Fix,GPS,37.3908564823,-122.080947971,31.56291207320739,0.0,11.975613,,1676154037076,0.9887832,,189231720198185,21.992712,Walk
Fix,FLP,37.3909022,-122.0809626,-6.499999523162842,0.05220542,43.816,,1676154039301,,,189231994770631,1.7561843,Walk
Fix,FLP,37.3908978,-122.0809602,-6.499999523162842,0.051159777,40.315,,1676154039844,,,189232537281983,1.7561843,Walk
Fix,GPS,37.3908491456,-122.0809502912,31.7851866976505,0.0,39.645603,,1676154038076,0.9741853,,189232738307927,85.88774,Walk
Fix,FLP,37.390891,-122.0809543,-4.14156535859405,0.050633818,33.219,,1676154040367,,,189233061000000,1.851737,Walk
Fix,FLP,37.3908873,-122.0809496,-4.14156535859405,0.05137195,31.844,,1676154040951,,,189233644000000,1.851737,Walk
Fix,GPS,37.3908373872,-122.0809582391,32.16368648119982,0.0,33.6506,,1676154039076,0.94250315,,189233729661158,65.3855,Walk
Fix,FLP,37.3908783,-122.0809388,-3.575681497308146,0.05170817,22.328,,1676154041471,,,189234164782533,1.2443755,Walk
Fix,GPS,37.3908284798,-122.080963137,32.411046291185976,0.0,33.524483,,1676154040076,1.0040215,,189234731325669,63.962685,Walk
Fix,FLP,37.390875,-122.080935,-2.674217547728233,0.052073315,19.159,,1676154042014,,,189234707299135,1.5471781,Walk
Fix,FLP,37.3908679,-122.0809265,-2.674217547728233,0.05407308,15.127,,1676154042556,,,189235249800844,1.5471781,Walk
Fix,GPS,37.3908252424,-122.0809641364,32.11161932447402,0.0,21.04755,,1676154041076,0.82188267,,189235711603786,47.073704,Walk
Fix,FLP,37.3908645,-122.0809226,-6.0,0.05505188,15.001,,1676154043099,,,189235792306763,1.7287425,Walk
Fix,FLP,37.3908579,-122.0809146,-6.0,0.057016782,12.632,,1676154043641,,,189236334803773,1.7287425,Walk
Fix,GPS,37.3908223059,-122.0809629423,32.08829333422196,0.0,40.546314,,1676154042076,0.86975205,,189236723989732,91.991035,Walk
Fix,FLP,37.3908519,-122.0809082,-6.0,0.057574153,12.848,,1676154044184,,,189236877307801,1.7902786,Walk
Fix,FLP,37.3908469,-122.0809049,-6.0,0.057675853,13.018,,1676154044726,,,189237419803468,1.7902786,Walk
Fix,GPS,37.3908134301,-122.0809825032,32.46672604087484,0.0,20.383854,,1676154043076,0.8938916,,189237737090156,42.770004,Walk
Fix,FLP,37.3908364,-122.0809012,-3.973612586256316,0.055078216,13.242,,1676154045269,,,189237962295716,1.272942,Walk
Fix,GPS,37.3908051338,-122.0809871661,32.48861204100475,0.0,40.243855,,1676154044077,0.89623845,,189238731860461,92.037895,Walk
Fix,FLP,37.3908302,-122.0808995,-3.973612586256316,0.053926345,13.437,,1676154045811,,,189238504799744,1.272942,Walk
Fix,FLP,37.3908191,-122.0808989,-2.7155576588980423,0.05038689,13.737,,1676154046354,,,189239047297792,1.2845289,Walk
Fix,GPS,37.390778469,-122.0812055602,47.58160136570115,0.0,26.077312,,1676154045077,20.0,,189239717261299,43.24613,Walk
Fix,FLP,37.3908132,-122.0808989,-2.0271783859043424,0.050300654,14.055,,1676154046859,,,189239553198854,1.7137047,Walk
Fix,FLP,37.3908007,-122.0809046,-2.0271783859043424,0.048697747,14.644,,1676154047438,,,189240132289552,1.7137047,Walk
Fix,GPS,37.390747357,-122.0812328919,53.20159808488397,0.0,18.290321,,1676154046077,20.0,,189240709866687,30.427364,Walk
Fix,FLP,37.390793,-122.0809096,-0.3247781897003179,0.054310907,15.01,,1676154047981,,,189240674783388,1.6300554,Walk
Fix,FLP,37.3907726,-122.08093,-0.3247781897003179,0.070230976,15.428,,1676154048523,,,189241217281495,1.6300554,Walk
Fix,GPS,37.3907267266,-122.0812473581,57.55768054165712,0.0,14.933327,,1676154047000,20.0,,189241632031523,23.829649,Walk
Fix,FLP,37.3907475,-122.0809615,-0.9702486569677616,0.089629084,15.413,,1676154049066,,,189241759770692,1.7931362,Walk
Fix,FLP,37.390733,-122.0809802,-0.9702486569677616,0.10122977,15.316,181.14542,1676154049609,,,189242302264589,1.7931362,Walk
Fix,GPS,37.3907066349,-122.0812717835,60.24597234079616,0.0,12.229389,,1676154048000,20.0,,189242613042266,19.719074,Walk
Fix,FLP,37.39071,-122.0810114,-2.616721416465829,0.11752406,15.018,182.19337,1676154050151,,,189242844757265,1.3766965,Walk
Fix,FLP,37.3906978,-122.0810274,-2.616721416465829,0.12636681,14.9,182.90338,1676154050693,,,189243387248048,1.3766965,Walk
Fix,GPS,37.3906972554,-122.0812758651,61.09921925313392,0.0,11.118488,,1676154049000,20.0,,189243635833160,17.900007,Walk
Fix,FLP,37.390678,-122.0810541,-0.8471679267503944,0.13864933,14.502,184.03262,1676154051236,,,189243929737794,1.2108974,Walk
Fix,FLP,37.390667,-122.0810678,-0.8471679267503944,0.14567465,14.199,184.72038,1676154051779,,,189244472228700,1.2108974,Walk
Fix,GPS,37.3906959074,-122.0812815993,60.871935325198784,0.0,10.501653,,1676154050000,20.0,,189244564446000,16.380096,Walk
Fix,FLP,37.3906493,-122.0810905,-6.0,0.15469083,13.419,185.72046,1676154052321,,,189245014717226,1.7991244,Walk
Fix,FLP,37.3906396,-122.0811017,-6.0,0.15983987,12.948,186.2287,1676154052860,,,189245553198854,1.7991244,Walk
Fix,GPS,37.3907030447,-122.0812748209,61.095495203869966,0.0,9.807743,,1676154051000,20.0,,189245564419000,15.139748,Walk
Fix,FLP,37.3906271,-122.0811176,-1.661696411469272,0.16172008,11.967,186.83142,1676154053406,,,189246099694704,1.6499294,Walk
Fix,FLP,37.3906209,-122.0811251,-1.661696411469272,0.16210698,11.514,187.20706,1676154053948,,,189246642171754,1.6499294,Walk
Fix,GPS,37.390705879,-122.0812689043,59.2803292818472,0.0,9.913848,,1676154052000,20.0,,189246564464000,14.59163,Walk
Fix,FLP,37.3906135,-122.0811358,-0.2570272279629364,0.1569935,11.344,187.74739,1676154054491,,,189247184669801,1.3350571,Walk
Fix,GPS,37.3907076669,-122.0812601407,58.47542927685604,0.0,9.747819,,1676154053000,0.45022255,,189247564556000,13.870965,Walk
Fix,FLP,37.39061,-122.0811409,-6.0,0.15421972,11.262,188.06738,1676154055034,,,189247727157838,1.4084848,Walk
Fix,FLP,37.390608,-122.0811474,-6.0,0.1426495,11.142,188.55026,1676154055576,,,189248269642946,1.4084848,Walk
Fix,GPS,37.3907090739,-122.0812502186,58.01325688316289,0.0,9.600493,,1676154054000,0.41560024,,189248564432000,13.270908,Walk
Fix,FLP,37.390614,-122.0811502,-4.194305647901288,0.12253781,10.957,189.15564,1676154056108,,,189248801000000,1.5457789,Walk
Fix,NLP,37.3901081,-122.0814167,-5.099999904632568,,41.031,,1676154056225,,,189248918000000,2.8875394,Walk
Fix,FLP,37.3906193,-122.0811521,-2.7896364643949525,0.10562502,10.797,189.528,1676154056661,,,189249354614198,1.0418123,Walk
Fix,GPS,37.3907096883,-122.0812426477,57.12757772139066,0.0,9.661848,,1676154055000,20.0,,189249564601000,12.997813,Walk
Fix,FLP,37.3906259,-122.0811528,-1.920975120467212,0.08879775,10.459,,1676154057164,,,189249858000000,1.0066787,Walk
Fix,FLP,37.3906276,-122.0811539,-1.920975120467212,0.08243906,10.278,,1676154057710,,,189250403000000,1.0066787,Walk
Fix,GPS,37.3907045369,-122.0812488366,55.47413950432031,0.0,9.22333,,1676154056000,20.0,,189250564649000,12.763048,Walk
Fix,FLP,37.3906317,-122.0811561,-1.654581391436828,0.06698256,9.597,,1676154058288,,,189250982070680,1.1428936,Walk
Fix,GPS,37.3907051928,-122.0812501649,54.21391268367873,0.9986346,9.111767,216.46275,1676154057000,0.45779118,22.630157,189251564462000,12.480677,Walk
Fix,FLP,37.3906308,-122.0811577,-3.068924714578827,0.06539656,9.397,,1676154058831,,,189251524554384,1.2585973,Walk
Fix,FLP,37.3906288,-122.0811628,-3.068924714578827,0.1006128,8.664,198.67657,1676154059374,,,189252067040407,1.2585973,Walk
Fix,GPS,37.39070582,-122.0812576161,53.1412902222163,0.97163445,8.880314,216.2734,1676154058000,0.47168446,25.48586,189252564500000,12.275311,Walk
Fix,FLP,37.3906263,-122.0811657,-2.780065028204333,0.13785028,8.488,201.72646,1676154059916,,,189252609524110,1.443201,Walk
Fix,FLP,37.3906212,-122.0811713,-2.780065028204333,0.20954502,7.558,205.31496,1676154060458,,,189253152009706,1.443201,Walk
Fix,GPS,37.3907012135,-122.0812752644,51.08488993973327,0.8900086,8.619011,220.25206,1676154059000,0.56097347,30.555557,189253564541000,12.08977,Walk
Fix,FLP,37.3906183,-122.0811737,-2.6609226014192515,0.2435343,7.179,206.11325,1676154061001,,,189253694492860,1.4753429,Walk
Fix,NLP,37.3903532,-122.0812377,-5.0,,41.126,,1676154061246,,,189253939000000,3.3469424,Walk
Fix,FLP,37.3906111,-122.0811793,-0.2887342746665382,0.33080155,6.117,207.78802,1676154061543,,,189254236977967,1.1403103,Walk
Fix,GPS,37.3906974526,-122.0812900919,49.25868623399582,0.84947306,8.498001,218.62932,1676154060000,0.5634694,32.078682,189254564608000,11.890073,Walk
Fix,FLP,37.3906081,-122.0811835,-1.693403458172874,0.37658376,5.959,208.66463,1676154062086,,,189254779457643,1.3884732,Walk
Fix,FLP,37.3906039,-122.0811859,-2.922159004490922,0.4003013,5.747,208.78542,1676154062628,,,189255321945192,1.2349613,Walk
Fix,GPS,37.3906873496,-122.0812918182,49.04293505711726,0.7727626,8.166501,204.4635,1676154061000,0.49051535,32.382713,189255564613000,11.461231,Walk
Fix,FLP,37.3905998,-122.0811888,-0.6160258714046734,0.43710315,5.634,208.99664,1676154063170,,,189255864427370,0.9987504,Walk
Fix,FLP,37.3905957,-122.0811916,-0.6160258714046734,0.4552698,5.607,209.03896,1676154063713,,,189256406911256,0.9987504,Walk
Fix,GPS,37.3906801204,-122.0812860836,48.37701646960231,0.46405858,7.914973,204.4635,1676154062000,0.48324177,53.73536,189256564625000,11.180955,Walk
Fix,FLP,37.3905915,-122.0811947,-5.0,0.4702919,5.603,208.7049,1676154064255,,,189256949392945,1.9093896,Walk
Fix,GPS,37.3906743489,-122.0812906625,49.01802127344637,0.41632536,7.7183204,204.4635,1676154063000,0.47489586,47.91999,189257564621000,10.945741,Walk
Fix,FLP,37.3905877,-122.0811975,-5.0,0.47255066,5.642,208.54305,1676154064798,,,189257491876283,1.0642798,Walk
Fix,FLP,37.3905842,-122.081201,-5.0,0.4710344,5.689,208.48047,1676154065341,,,189258034357239,1.0571057,Walk
Fix,GPS,37.3906715079,-122.0813011346,48.4141991151771,0.3272082,7.5493164,204.4635,1676154064000,0.44149274,180.0,189258564606000,10.794743,Walk
Fix,FLP,37.390581,-122.0812038,-0.944110851155024,0.4715053,5.762,208.4371,1676154065860,,,189258553198854,1.0500157,Walk
Fix,NLP,37.3904444,-122.0809685,-5.199999809265137,,25.232,,1676154066310,,,189259003000000,3.3107564,Walk
Fix,FLP,37.3905782,-122.0812064,-5.199999809265137,0.4626011,5.825,207.7268,1676154066425,,,189259119317018,2.0355568,Walk
Fix,GPS,37.3906637654,-122.0813128029,49.12857935794117,0.0,7.381515,204.4635,1676154065000,0.433421,63.222095,189259564661000,10.662532,Walk
Fix,FLP,37.3905737,-122.0812086,-5.199999809265137,0.4588314,5.902,206.95473,1676154066967,,,189259661802369,1.8338988,Walk
Fix,FLP,37.390567,-122.0812105,-5.199999809265137,0.438318,5.988,204.78787,1676154067511,,,189260204282105,1.8338988,Walk
Fix,GPS,37.3906557245,-122.081322381,49.46044665267207,0.59986097,7.189835,204.4635,1676154066000,0.47311375,12.770564,189260564672000,10.533833,Walk
Fix,FLP,37.3905625,-122.0812119,-1.3978946552538003,0.4206037,6.017,203.24472,1676154068052,,,189260746764283,1.0908031,Walk
Fix,FLP,37.3905545,-122.0812146,-1.3978946552538003,0.41662985,6.101,202.49,1676154068596,,,189261289243471,1.0908031,Walk
Fix,GPS,37.3906471022,-122.0813303565,49.64454440626766,0.66577977,7.0340385,210.69084,1676154067000,0.49602845,37.903797,189261564660000,10.456588,Walk
Fix,FLP,37.3905479,-122.081217,0.782722952927358,0.44285247,6.155,203.52817,1676154069138,,,189261831724733,1.0629921,Walk
Fix,FLP,37.3905425,-122.0812196,0.782722952927358,0.4586672,6.216,203.94534,1676154069681,,,189262374203920,1.0629921,Walk
Fix,GPS,37.3906343986,-122.0813392467,50.36672243744163,0.7026271,7.0136275,210.69084,1676154068000,0.58468246,20.9576,189262564897000,10.40555,Walk
Fix,FLP,37.3905349,-122.0812228,-1.3417162036817911,0.4865091,6.279,204.61217,1676154070223,,,189262916684510,1.4849697,Walk
Fix,FLP,37.3905291,-122.0812257,-1.3417162036817911,0.50206554,6.333,204.82874,1676154070766,,,189263459160279,1.4849697,Walk
Fix,GPS,37.3906216318,-122.0813448682,50.45745489104552,0.69851524,7.063604,210.69084,1676154069000,0.62733734,22.034187,189263564683000,10.363274,Walk
Fix,FLP,37.3905217,-122.0812287,-0.2250378654299183,0.5265072,6.445,205.11269,1676154071307,,,189264001642884,1.7273,Walk
Fix,NLP,37.3904235,-122.080911,-5.199999809265137,,25.796,,1676154071319,,,189264012000000,3.7553334,Walk
Fix,FLP,37.3905145,-122.08123,-2.858145039270965,0.54043347,6.517,204.96065,1676154071831,,,189264524000000,2.6726575,Walk
Fix,GPS,37.3906124374,-122.0813495868,50.89284428166327,0.5654883,7.132019,210.69084,1676154070000,0.5621846,32.544308,189264564684000,10.514877,Walk
Fix,FLP,37.3905073,-122.0812307,-1.3417162036817911,0.5472846,6.615,204.32607,1676154072363,,,189265057000000,2.249502,Walk
Fix,FLP,37.3905014,-122.0812322,-1.3417162036817911,0.55260617,6.657,203.86629,1676154072868,,,189265562000000,2.249502,Walk
Fix,GPS,37.390605944,-122.0813554736,50.45247661584044,0.6723723,7.1843534,214.5846,1676154071000,0.52053237,37.2594,189265564685000,10.429046,Walk
Fix,FLP,37.3904945,-122.0812336,-2.670417776883582,0.56428635,6.741,203.62154,1676154073370,,,189266063060121,2.3596892,Walk
Fix,FLP,37.390489,-122.0812356,-2.670417776883582,0.5742056,6.785,203.71945,1676154073910,,,189266604000000,2.3596892,Walk
Fix,GPS,37.3905946034,-122.0813606004,50.10385104592652,0.7253788,7.239474,215.29868,1676154072000,0.5058744,36.11278,189266564690000,10.359818,Walk
Fix,FLP,37.3904815,-122.0812378,-3.230517462008024,0.59157264,6.831,203.93286,1676154074455,,,189267148017641,1.5309069,Walk
Fix,FLP,37.3904758,-122.0812398,-3.230517462008024,0.60259384,6.86,203.94652,1676154074969,,,189267662000000,1.5309069,Walk
Fix,GPS,37.3905853747,-122.0813687515,49.68627298577558,0.42355376,7.2743034,215.29868,1676154073000,0.47323963,46.858532,189267564852000,10.314026,Walk
Fix,FLP,37.390468,-122.0812422,-5.199999809265137,0.6050142,6.9,203.57806,1676154075528,,,189268221000000,2.7954555,Walk
Fix,GPS,37.3905770675,-122.0813753364,49.30966055794329,0.58488095,7.3052616,215.29868,1676154074000,0.5476755,46.838478,189268564800000,10.227174,Walk
Fix,NLP,37.3901474,-122.0811809,-4.900000095367432,,27.346,,1676154076333,,,189269026000000,2.0867724,Walk
Fix,FLP,37.3904599,-122.0812451,-4.900000095367432,0.59283257,6.914,203.22575,1676154076082,,,189268775459779,2.6355543,Walk
Fix,GPS,37.3905609898,-122.0813841637,50.3372453368142,0.43949872,7.3532367,215.29868,1676154075000,0.47953367,41.956696,189269564827000,10.2283535,Walk
Fix,FLP,37.3904489,-122.0812488,-4.900000095367432,0.60356057,6.925,203.12018,1676154076624,,,189269317940736,2.6355543,Walk
Fix,FLP,37.3904353,-122.0812528,4.058903768423384,0.60976267,6.932,202.7014,1676154077166,,,189269860421692,1.0244318,Walk
Fix,GPS,37.3905477661,-122.0813924149,50.96871802238464,0.31139022,7.378425,215.29868,1676154076000,0.550242,53.160538,189270564834000,10.239447,Walk
Fix,FLP,37.390429,-122.0812552,-2.1144310593788305,0.60935694,6.935,202.494,1676154077709,,,189270402901490,2.5817983,Walk
Fix,FLP,37.3904173,-122.0812595,-2.1144310593788305,0.59802645,6.934,201.87213,1676154078252,,,189270945383606,2.5817983,Walk
Fix,GPS,37.3905407725,-122.081397006,50.647871921854495,0.0,7.4932575,215.29868,1676154077000,0.56406486,28.17668,189271564817000,10.274895,Walk
Fix,FLP,37.3904122,-122.0812618,-4.900000095367432,0.59038657,6.941,201.45908,1676154078794,,,189271487863405,2.6492496,Walk
Fix,FLP,37.3904016,-122.0812665,-4.900000095367432,0.55779386,6.94,199.86722,1676154079337,,,189272030345155,2.6492496,Walk
Fix,GPS,37.3905326136,-122.0813996099,50.540227501664,0.0,7.5447073,215.29868,1676154078000,0.5066703,180.0,189272564853000,10.178986,Walk
Fix,FLP,37.3903968,-122.0812689,-4.900000095367432,0.53691125,6.94,198.63521,1676154079860,,,189272553198854,2.672118,Walk
Fix,FLP,37.3903869,-122.0812736,-4.900000095367432,0.49656022,6.934,196.26067,1676154080421,,,189273115306031,2.672118,Walk
Fix,GPS,37.390517064,-122.0813962492,50.15726626545394,0.0,7.4888577,215.29868,1676154079000,0.43580937,180.0,189273564860000,9.986413,Walk
Fix,FLP,37.3903825,-122.0812759,-4.900000095367432,0.4799288,6.937,194.9592,1676154080964,,,189273657783631,2.6340806,Walk
Fix,NLP,37.3901211,-122.0811323,-4.900000095367432,,20.541,,1676154081402,,,189274096000000,2.781305,Walk
Fix,FLP,37.3903749,-122.08128,-4.900000095367432,0.44748464,6.959,192.98436,1676154081507,,,189274200266175,1.9071496,Walk
Fix,GPS,37.3905092102,-122.0813937012,49.237293369962565,0.0,7.3837147,215.29868,1676154080000,0.5142983,180.0,189274564874000,9.800189,Walk
Fix,FLP,37.3903623,-122.0812842,-4.900000095367432,0.408037,6.983,190.5493,1676154082049,,,189274742744936,2.4790993,Walk
Fix,FLP,37.3903539,-122.0812858,-4.900000095367432,0.40076318,7.035,189.66399,1676154082592,,,189275285225953,2.4790993,Walk
Fix,GPS,37.3905098356,-122.081394014,48.01387973053757,0.0,7.3204756,215.29868,1676154081000,0.49967447,54.21848,189275564879000,8.672425,Walk
Fix,FLP,37.390344,-122.0812886,-4.900000095367432,0.38117456,7.109,188.37053,1676154083134,,,189275827704713,2.5732028,Walk
Fix,FLP,37.3903375,-122.0812914,-4.900000095367432,0.37223333,7.179,187.93837,1676154083677,,,189276370185426,2.5732028,Walk
Fix,GPS,37.390508832,-122.0813933898,47.49877983648839,0.0,7.2337375,215.29868,1676154082000,0.47113192,180.0,189276565102000,8.441804,Walk
Fix,FLP,37.3903304,-122.0812958,-4.900000095367432,0.3507155,7.267,187.2902,1676154084218,,,189276912663637,2.5932229,Walk
Fix,FLP,37.3903251,-122.0812991,-4.900000095367432,0.34091008,7.369,187.11996,1676154084762,,,189277455144288,2.5932229,Walk
Fix,GPS,37.3905076195,-122.0813934665,47.195679263531,0.0,7.156065,215.29868,1676154083000,0.5182424,180.0,189277564932000,8.267703,Walk
Fix,FLP,37.3903196,-122.0813047,-4.900000095367432,0.31793898,7.482,187.02458,1676154085304,,,189277997618287,2.6078098,Walk
Fix,FLP,37.3903154,-122.081309,-4.900000095367432,0.30700022,7.609,187.1857,1676154085846,,,189278540101869,2.6078098,Walk
Fix,GPS,37.3905020417,-122.0813923138,46.99338622041839,0.0,7.117592,215.29868,1676154084000,0.37932464,38.901478,189278565239000,8.115633,Walk
Fix,FLP,37.3903094,-122.0813149,-4.900000095367432,0.28613043,7.771,187.31415,1676154086388,,,189279082567689,2.5811174,Walk
Fix,NLP,37.3901031,-122.08113,-4.900000095367432,,16.893,,1676154086384,,,189279077000000,2.3689508,Walk
Fix,FLP,37.3902972,-122.0813152,-4.900000095367432,0.2886173,7.914,186.78844,1676154086932,,,189279625059144,2.4169664,Walk
Fix,GPS,37.3904950193,-122.0813920099,46.2101137878137,0.0,7.0340567,215.29868,1676154085000,0.39416018,58.08402,189279564939000,7.9904466,Walk
Fix,FLP,37.390284,-122.0813152,-4.900000095367432,0.29165998,7.989,186.11494,1676154087474,,,189280167536195,2.3856275,Walk
Fix,GPS,37.390491029,-122.0813905239,45.46955736767028,0.0,6.911707,215.29868,1676154086000,0.42246476,37.113953,189280564979000,7.8760433,Walk
Fix,FLP,37.3902764,-122.0813175,-7.105556719249641,0.2879078,8.061,185.80017,1676154088017,,,189280710015320,2.4344506,Walk
Fix,FLP,37.3902677,-122.0813212,-4.900000095367432,0.27376983,8.109,185.34029,1676154088531,,,189281225000000,2.4287708,Walk
Fix,GPS,37.3904868366,-122.0813824563,43.82773437805892,0.5442767,6.736869,229.95094,1676154087000,0.40266156,13.48982,189281565412000,7.7199464,Walk
Fix,FLP,37.3902624,-122.0813253,-6.937689470524987,0.27899498,8.139,188.22855,1676154089090,,,189281783000000,2.5195756,Walk
Fix,GPS,37.3904863284,-122.0813675939,42.11220149738329,0.5572818,6.8401155,230.27739,1676154088000,0.5340223,36.708828,189282564983000,7.6507044,Walk
Fix,FLP,37.3902558,-122.0813311,-7.121217575034066,0.30842832,8.144,193.04504,1676154089643,,,189282337449830,2.4225893,Walk
Fix,FLP,37.390251,-122.0813362,-7.121217575034066,0.32566246,8.127,194.88982,1676154090156,,,189282849000000,2.4225893,Walk
Fix,FLP,37.3902449,-122.0813413,-7.121217575034066,0.34341496,8.132,196.32117,1676154090662,,,189283356000000,2.4225893,Walk
Fix,GPS,37.3904775403,-122.081364547,40.73454744779309,0.7324558,6.896958,229.77051,1676154089000,0.56540525,37.842102,189283564961000,7.600692,Walk
Fix,FLP,37.3902363,-122.0813499,-6.937689470524987,0.3797833,8.077,198.52734,1676154091162,,,189283856382448,2.442913,Walk
Fix,NLP,37.3900863,-122.0812763,-4.900000095367432,,29.372,,1676154091421,,,189284115000000,2.9323676,Walk
Fix,FLP,37.3902277,-122.0813571,-4.900000095367432,0.40531024,8.027,199.34323,1676154091704,,,189284397000000,2.4039502,Walk
Fix,GPS,37.3904724383,-122.0813632829,40.21285911690929,0.6780703,7.1156464,228.43227,1676154090000,0.6668214,32.179783,189284564988000,7.6244087,Walk
Fix,FLP,37.3902186,-122.081364,-4.900000095367432,0.42932457,7.947,200.16602,1676154092248,,,189284941335512,2.4091537,Walk
Fix,FLP,37.390212,-122.0813688,-4.900000095367432,0.44887254,7.906,200.90596,1676154092771,,,189285464000000,2.4091537,Walk
Fix,GPS,37.3904647497,-122.0813680752,39.91100596100641,0.7492509,7.3712525,222.5745,1676154091000,0.7162335,35.156017,189285565031000,7.65508,Walk
Fix,FLP,37.3902034,-122.0813758,-4.900000095367432,0.4828653,7.771,202.17482,1676154093305,,,189285999000000,2.459689,Walk
Fix,FLP,37.3901973,-122.0813804,-4.900000095367432,0.5018759,7.7,202.82144,1676154093810,,,189286503000000,2.459689,Walk
Fix,GPS,37.3904535091,-122.081373612,39.10969836422362,0.8763744,7.675314,205.81627,1676154092000,0.72587216,36.048756,189286565102000,7.630567,Walk
Fix,FLP,37.3901898,-122.0813868,-2.981212241557813,0.5371574,7.521,203.94078,1676154094370,,,189287064000000,2.4641612,Walk
Fix,GPS,37.3904432938,-122.0813756346,38.18646897575584,0.9238963,8.028175,199.38512,1676154093000,0.7946195,33.084038,189287565048000,7.6342945,Walk
Fix,FLP,37.3901837,-122.0813921,-3.0335783453901684,0.5726583,7.314,204.99847,1676154094960,,,189287653711305,2.4445324,Walk
Fix,FLP,37.3901757,-122.0813983,-3.0335783453901684,0.6062132,7.021,205.92769,1676154095503,,,189288196196107,2.4445324,Walk
Fix,GPS,37.3904328149,-122.0813788192,37.50584482553267,0.96706516,8.4520035,199.38512,1676154094000,1.0595266,69.344215,189288565058000,7.648884,Walk
Fix,FLP,37.3901712,-122.0814025,-2.981212241557813,0.6376945,6.798,206.5752,1676154096044,,,189288738670411,2.4364448,Walk
Fix,NLP,37.390068,-122.0811318,-4.900000095367432,,27.448,,1676154096450,,,189289143000000,2.8801985,Walk
Fix,FLP,37.3901662,-122.0814034,-4.900000095367432,0.6541942,6.549,206.60675,1676154096587,,,189289281145020,2.391963,Walk
Fix,GPS,37.3904164914,-122.0813940607,36.86451239022969,1.1587987,8.616991,213.78767,1676154095000,1.1369944,31.813026,189289565144000,7.672099,Walk
Fix,FLP,37.3901608,-122.0814037,-2.3422305407497106,0.67730993,6.409,206.54292,1676154097130,,,189289823610902,2.1756945,Walk
Fix,FLP,37.3901567,-122.0814054,-2.3422305407497106,0.70093346,6.239,206.65343,1676154097672,,,189290366096742,2.1756945,Walk
Fix,GPS,37.3903967538,-122.0814038847,36.2470411509448,1.3119504,8.77241,206.09415,1676154096000,0.6950611,33.882843,189290565096000,7.70613,Walk
Fix,FLP,37.3901515,-122.0814076,-4.900000095367432,0.74533665,6.156,206.77328,1676154098215,,,189290908573610,2.4224558,Walk
Fix,GPS,37.3903777546,-122.0814127317,35.61548276491449,1.4114515,8.895112,211.97813,1676154097000,0.6411697,40.750587,189291565109000,7.7519484,Walk
Fix,FLP,37.3901485,-122.0814091,-2.236171388914272,0.7702471,6.039,206.64374,1676154098757,,,189291451048280,2.4484887,Walk
Fix,FLP,37.3901429,-122.0814117,-2.236171388914272,0.8162375,6.035,206.4536,1676154099300,,,189291993524781,2.4484887,Walk
Fix,GPS,37.39035522,-122.0814182453,34.687296819524654,1.5209513,8.922283,205.20042,1676154098000,0.5333581,33.55916,189292565170000,7.7902036,Walk
Fix,FLP,37.3901408,-122.0814125,-0.763916528356475,0.84107226,6.022,206.36897,1676154099843,,,189292536001832,2.4676898,Walk
Fix,GPS,37.3903353693,-122.0814239117,33.915557282888805,1.5751516,8.97734,213.39268,1676154099000,0.57375664,32.677387,189293565381000,7.847903,Walk
Fix,FLP,37.3901333,-122.0814167,-7.950651002986547,0.8876836,6.064,207.2258,1676154100927,,,189293620949281,2.440719,Walk
Fix,FLP,37.3901368,-122.0814191,-7.950651002986547,0.90366256,6.967,207.8297,1676154101469,,,189294163000000,2.440719,Walk
Fix,NLP,37.3899547,-122.08132,-4.900000095367432,,31.906,,1676154101487,,,189294180000000,1.7393249,Walk
Fix,GPS,37.3903147021,-122.0814248838,32.98961640658975,1.6254576,9.004506,197.4841,1676154100000,0.5669984,27.063568,189294565208000,7.9193873,Walk
Fix,FLP,37.3901462,-122.0814194,-0.7233172025429724,0.908839,8.858,208.535,1676154102012,,,189294705899293,2.3632572,Walk
Fix,FLP,37.3901565,-122.0814208,-1.7484988064072908,0.9100886,9.963,207.63673,1676154102528,,,189295221000000,2.3763626,Walk
Fix,GPS,37.3902351473,-122.0813645998,31.49989517679704,0.86053646,8.472858,189.03609,1676154101000,0.5503159,23.256254,189295565532000,7.9935374,Walk
Fix,FLP,37.3901623,-122.0814236,-1.7484988064072908,0.9174997,11.47,206.26617,1676154103050,,,189295743000000,2.3763626,Walk
Fix,FLP,37.3901705,-122.0814157,-8.733355502042716,0.9024528,12.44,202.93668,1676154103647,,,189296340000000,2.5167596,Walk
Fix,GPS,37.3901960969,-122.0813415506,30.55084823318308,0.89027333,8.307688,177.58807,1676154102000,0.47872922,20.149546,189296565172000,8.076608,Walk
Fix,FLP,37.3901743,-122.0813923,-14.399559441530007,0.85721,13.588,197.20624,1676154104181,,,189296875798218,2.4210625,Walk
Fix,GPS,37.3901592974,-122.0813257306,29.44597002632609,0.91898024,8.095651,181.23457,1676154103000,0.4918967,21.661882,189297565215000,8.171095,Walk
Fix,FLP,37.3901727,-122.0813845,-8.946450504660138,0.848387,14.685,194.68016,1676154104725,,,189297418261719,2.5314345,Walk
Fix,FLP,37.3901674,-122.0813708,-8.946450504660138,0.84190845,15.227,190.92174,1676154105267,,,189297960746400,2.5314345,Walk
Fix,GPS,37.3901262558,-122.0813044482,27.989999404371357,0.94294214,7.829974,189.80212,1676154104000,0.42202404,20.273693,189298565218000,8.241434,Walk
Fix,FLP,37.3901643,-122.0813647,-8.248582334836591,0.8436426,15.212,189.67616,1676154105810,,,189298503221985,2.197731,Walk
Fix,FLP,37.3901562,-122.0813528,-8.248582334836591,0.85094506,15.331,188.08008,1676154106352,,,189299045695130,2.197731,Walk
Fix,NLP,37.3898962,-122.0811955,-5.0,,23.58,,1676154106536,,,189299230000000,1.5485678,Walk
Fix,GPS,37.3900966711,-122.0812955542,26.859385971349123,0.9670242,7.565505,198.1358,1676154105000,0.36908895,16.126698,189299565244000,8.285955,Walk
Fix,FLP,37.3901431,-122.0813308,-5.0,0.8676463,15.086,186.96886,1676154106860,,,189299553198854,2.3802004,Walk
Fix,FLP,37.3901216,-122.0812991,-5.0,0.8928369,14.429,186.17314,1676154107437,,,189300130643861,2.3802004,Walk
Fix,GPS,37.390075461,-122.081287373,25.93238321956526,1.5333552,7.484363,206.36775,1676154106000,0.3923452,18.506132,189300565387000,8.367859,Walk
Fix,FLP,37.3901123,-122.0812864,-0.6655063530947132,0.9056357,14.252,186.36743,1676154107980,,,189300673119447,2.404326,Walk
Fix,FLP,37.3900934,-122.0812611,-0.6655063530947132,0.94774467,13.478,186.54831,1676154108521,,,189301215592896,2.404326,Walk
Fix,GPS,37.3900561457,-122.0812808082,24.947433268708668,1.6903591,7.3258533,204.5017,1676154107000,0.39139333,17.32972,189301565299000,8.429342,Walk
Fix,FLP,37.3900803,-122.0812545,0.7150694612691808,1.0044752,13.128,187.53876,1676154109065,,,189301758065248,2.2197118,Walk
Fix,FLP,37.3900734,-122.0812559,0.7150694612691808,1.0312189,13.086,188.3338,1676154109606,,,189302300541322,2.2197118,Walk
Fix,GPS,37.3900370251,-122.0812766329,24.553564182939294,1.7555242,7.165493,208.39757,1676154108000,0.35198388,14.533114,189302565315000,8.452237,Walk
Fix,FLP,37.3900634,-122.081258,-2.8027100988500138,1.082415,12.99,189.86879,1676154110150,,,189302843016603,2.396713,Walk
Fix,FLP,37.3900553,-122.0812601,-2.8027100988500138,1.1090211,12.91,190.63976,1676154110690,,,189303383000000,2.396713,Walk
Fix,GPS,37.3900172998,-122.0812747249,23.654752948074456,1.8047004,7.0035253,212.58864,1676154109000,0.35721684,14.341451,189303565292000,8.486098,Walk
Fix,FLP,37.3900425,-122.0812646,-5.0,1.1608917,12.676,192.23737,1676154111205,,,189303898000000,2.4260933,Walk
Fix,NLP,37.3899283,-122.0812858,-5.0,,19.831,,1676154111544,,,189304237000000,1.436418,Walk
Fix,GPS,37.3900006735,-122.0812729652,22.659948795261748,1.7732699,6.9144936,213.69281,1676154110000,0.35320812,14.060919,189304565382000,8.524297,Walk
Fix,FLP,37.3900221,-122.0812726,-5.0,1.2182504,12.186,193.85071,1676154111777,,,189304470438050,2.3136208,Walk
Fix,FLP,37.390006,-122.0812778,-5.0,1.2460711,12.129,194.68828,1676154112318,,,189305012913147,2.3136208,Walk
Fix,GPS,37.3899873865,-122.0812747097,21.59312061214744,1.6925546,6.814459,209.72443,1676154111000,0.37680864,14.8914,189305565340000,8.529373,Walk
Fix,FLP,37.390002,-122.0812793,-2.9408066424461694,1.2662055,12.129,195.4602,1676154112860,,,189305553198854,2.3221831,Walk
Fix,FLP,37.389989,-122.0812813,-2.9408066424461694,1.3007979,12.288,196.55936,1676154113404,,,189306097859925,2.3221831,Walk
Fix,GPS,37.3899729571,-122.0812750787,21.01474616454333,1.6555495,6.689033,208.52594,1676154112000,0.35477555,14.033519,189306565318000,8.521251,Walk
Fix,FLP,37.3899859,-122.0812805,-3.016261975878109,1.3174452,12.359,196.87057,1676154113947,,,189306640333559,2.3732903,Walk
Fix,FLP,37.3899732,-122.0812829,-3.016261975878109,1.3451906,12.01,197.70026,1676154114489,,,189307182796693,2.3732903,Walk
Fix,GPS,37.3899597687,-122.0812749052,20.213401636554327,1.6103866,6.6174965,215.36089,1676154113000,0.3232759,13.437474,189307565382000,8.506017,Walk
Fix,FLP,37.3899703,-122.081284,-5.0,1.3588425,11.806,198.18663,1676154115032,,,189307725280885,2.3560247,Walk
Fix,FLP,37.389958,-122.0812886,-5.0,1.3793149,11.428,199.28242,1676154115574,,,189308267755678,2.3560247,Walk
Fix,GPS,37.3899509274,-122.0812765785,19.111524165634485,1.5178467,6.585198,211.0686,1676154114000,0.386021,16.393234,189308565369000,8.497742,Walk
Fix,FLP,37.3899518,-122.0812887,-5.0,1.3894417,11.069,200.2736,1676154116116,,,189308810228333,2.2818332,Walk
Fix,FLP,37.3899468,-122.0812895,-5.0,1.3923709,10.781,200.80006,1676154116659,,,189309352702942,2.2818332,Walk
Fix,GPS,37.3899384648,-122.0812785359,18.231456894115123,1.492095,6.543128,209.90172,1676154115000,0.3534584,15.932487,189309565385000,8.496562,Walk
Fix,FLP,37.3899401,-122.0812896,-2.845451173443984,1.3987281,10.698,201.59299,1676154117201,,,189309895175416,2.2144923,Walk
Fix,FLP,37.3899341,-122.081291,-2.845451173443984,1.4026407,10.579,201.92505,1676154117744,,,189310437646730,2.2144923,Walk
Fix,GPS,37.3899291456,-122.0812815132,17.77314270585395,1.4353079,6.5184574,215.38094,1676154116000,0.3678945,17.515902,189310565415000,8.472666,Walk
Fix,FLP,37.3899285,-122.0812926,-5.0,1.4049848,10.318,202.80205,1676154118287,,,189310980121827,2.3033092,Walk
Fix,FLP,37.3899227,-122.0812961,-5.0,1.4028919,10.258,203.54459,1676154118829,,,189311522584779,2.3033092,Walk
Fix,GPS,37.3899199899,-122.0812881649,17.386992614474416,1.3980184,6.5901184,225.26042,1676154117000,0.39367664,22.690016,189311565444000,8.461299,Walk
Fix,FLP,37.3899184,-122.0813006,-5.0,1.3953127,10.163,205.09616,1676154119372,,,189312065068604,2.2974908,Walk
Fix,FLP,37.3899141,-122.0813054,-5.0,1.3828667,10.097,206.36691,1676154119914,,,189312607542726,2.2974908,Walk
Fix,GPS,37.3899137541,-122.0812961331,16.85630496060979,1.3494436,6.672616,235.36305,1676154118000,0.38548258,21.367968,189312565470000,8.435555,Walk
Fix,FLP,37.3899117,-122.0813119,-5.0,1.3460989,9.965,209.20418,1676154120462,,,189313155000000,2.3074431,Walk
Fix,FLP,37.3899098,-122.0813182,-5.0,1.3059928,9.786,211.47035,1676154120970,,,189313664000000,2.3074431,Walk
Fix,GPS,37.3899106984,-122.0813056083,16.045888078157954,1.3010683,6.6477423,243.91846,1676154119000,0.41763702,23.773567,189313565485000,8.378668,Walk
Fix,FLP,37.3899106,-122.0813262,-0.0500510646360226,1.2286298,9.692,216.198,1676154121505,,,189314198000000,1.7420449,Walk
Fix,FLP,37.3899107,-122.0813328,-0.0500510646360226,1.1867129,9.637,219.074,1676154122009,,,189314702000000,1.7420449,Walk
Fix,GPS,37.3899072777,-122.081314682,15.806593960506042,1.2597866,6.7914743,252.47513,1676154120000,0.47331318,24.839243,189314565458000,8.3673,Walk
Fix,FLP,37.3899135,-122.0813413,-5.0,1.117887,9.517,224.68126,1676154122517,,,189315211412782,2.290356,Walk
Fix,GPS,37.3899058412,-122.0813259963,15.505943463241602,1.2348223,6.927173,259.81146,1676154121000,0.48786336,26.491419,189315565512000,8.363135,Walk
Fix,FLP,37.3899147,-122.0813478,-5.0,1.0883288,9.374,227.70471,1676154123054,,,189315747000000,2.3162346,Walk
Fix,FLP,37.3899181,-122.0813565,-5.0,1.0444009,9.332,233.29718,1676154123584,,,189316277000000,2.3174613,Walk
Fix,GPS,37.389907012,-122.0813394239,14.677179698232973,1.2272959,6.9804516,267.4113,1676154122000,0.49715233,27.079245,189316565542000,8.299582,Walk
Fix,FLP,37.389922,-122.0813613,-5.0,1.0152655,9.128,238.37267,1676154124088,,,189316781000000,2.3337727,Walk
Fix,FLP,37.3899236,-122.0813671,-5.0,1.003282,9.047,241.01064,1676154124651,,,189317344000000,2.3337727,Walk
Fix,NLP,37.3900344,-122.0816338,-4.599999904632568,,29.623,,1676154124883,,,189317577000000,5.2334666,Walk
Fix,GPS,37.3899103827,-122.0813548935,13.742734705766424,1.2370809,7.0432415,274.42764,1676154123000,0.4350569,25.113928,189317565543000,8.258889,Walk
Fix,FLP,37.3899304,-122.0813794,-4.599999904632568,0.9871094,8.746,249.62572,1676154125230,,,189317923763734,2.651447,Walk
Fix,GPS,37.389916044,-122.0813704823,12.506029822546,1.253657,7.077877,284.56616,1676154124000,0.43601537,23.502823,189318565564000,8.183034,Walk
Fix,FLP,37.3899326,-122.0813848,-4.599999904632568,0.9895998,8.685,251.72385,1676154125773,,,189318466249269,2.456759,Walk
Fix,FLP,37.389936,-122.0813977,-4.599999904632568,0.99424785,8.59,255.7395,1676154126315,,,189319008720765,2.456759,Walk
Fix,GPS,37.3899228086,-122.0813863253,11.453839163332171,1.2750314,7.1149654,291.44583,1676154125000,0.42825997,21.120022,189319565639000,8.117833,Walk
Fix,FLP,37.3899381,-122.0814017,-4.599999904632568,0.9976349,8.579,257.75668,1676154126858,,,189319551194581,2.7161498,Walk
Fix,FLP,37.3899416,-122.081415,-4.599999904632568,1.004504,8.549,261.6948,1676154127400,,,189320093665955,2.7161498,Walk
Fix,GPS,37.3899308815,-122.0814008801,10.371091086415005,1.2924736,7.1898794,304.14877,1676154126000,0.36071104,18.53473,189320565539000,8.07615,Walk
Fix,FLP,37.3899437,-122.0814177,-1.7231808196214402,1.0084419,8.527,263.6815,1676154127943,,,189320636142457,2.5384939,Walk
Fix,FLP,37.3899474,-122.0814311,-1.7231808196214402,1.0143691,8.472,267.6347,1676154128485,,,189321178610840,2.5384939,Walk
Fix,GPS,37.3899367595,-122.0814137779,9.949741750809482,1.288368,7.129737,297.9734,1676154127000,0.3909577,21.58745,189321565623000,8.056149,Walk
Fix,FLP,37.3899495,-122.0814334,-1.6477254861895003,1.0194666,8.452,269.46002,1676154129028,,,189321721084230,2.4912455,Walk
Fix,FLP,37.3899537,-122.0814473,-1.6477254861895003,1.0308245,8.649,272.84656,1676154129570,,,189322263543459,2.4912455,Walk
Fix,NLP,37.3899031,-122.0816058,-4.900000095367432,,27.877,,1676154129935,,,189322628000000,1.9933195,Walk
Fix,GPS,37.3899414693,-122.0814249259,9.94361940017917,1.2690797,7.1945844,291.7525,1676154128000,0.39324084,23.096249,189322565608000,8.040667,Walk
Fix,FLP,37.3899564,-122.0814575,-2.499155548206786,1.0475769,8.684,275.46448,1676154130113,,,189322806031007,2.4603968,Walk
Fix,FLP,37.3899574,-122.0814672,-4.900000095367432,1.0511813,8.764,275.47733,1676154130655,,,189323348500063,2.481284,Walk
Fix,GPS,37.3899464693,-122.0814365972,9.29628926690651,1.2563977,7.2743654,298.23413,1676154129000,0.36340177,18.88597,189323566030000,8.015915,Walk
Fix,FLP,37.3899589,-122.0814779,-4.900000095367432,1.0628169,8.748,276.63638,1676154131197,,,189323890973146,2.481284,Walk
Fix,FLP,37.3899605,-122.0814861,-4.900000095367432,1.0716016,8.756,277.92154,1676154131739,,,189324433444154,2.481284,Walk
Fix,GPS,37.3899530713,-122.0814482813,8.993696963205888,1.2532601,7.397754,304.13983,1676154130000,0.41672924,20.00773,189324565621000,7.998499,Walk
Fix,FLP,37.3899631,-122.0814954,-8.026106336418486,1.0864469,8.731,280.14246,1676154132282,,,189324975921083,2.43475,Walk
Fix,FLP,37.3899654,-122.081503,-8.026106336418486,1.0936785,8.736,281.31268,1676154132825,,,189325518388489,2.43475,Walk
Fix,GPS,37.3899618266,-122.0814610823,8.428408722578297,1.2705019,7.521679,308.34744,1676154131000,0.40342075,16.861368,189325565673000,8.0015,Walk
Fix,FLP,37.389969,-122.0815116,-8.026106336418486,1.1064146,8.754,283.4146,1676154133367,,,189326060861085,2.4961407,Walk
Fix,FLP,37.389972,-122.0815192,-8.026106336418486,1.1147424,8.756,284.2921,1676154133909,,,189326603332032,2.4961407,Walk
Fix,GPS,37.3899693351,-122.0814748149,7.952276258215343,1.285183,7.6117687,300.34528,1676154131999,0.37660745,16.410725,189326565685000,8.008323,Walk
Fix,FLP,37.3899761,-122.0815275,-4.900000095367432,1.1292739,8.803,285.40933,1676154134452,,,189327145805238,2.446878,Walk
Fix,GPS,37.3899769208,-122.0814881877,7.558605022932034,1.2962301,7.691201,295.64636,1676154132999,0.41858366,19.721653,189327565683000,8.02347,Walk
Fix,FLP,37.3899783,-122.0815334,-4.900000095367432,1.1369312,8.851,285.40836,1676154134995,,,189327688275941,2.47737,Walk
Fix,NLP,37.3900065,-122.0816489,-4.900000095367432,,40.007,,1676154134948,,,189327641000000,3.4560578,Walk
Fix,FLP,37.3899827,-122.0815435,-4.900000095367432,1.1534057,9.067,285.1211,1676154135510,,,189328203000000,2.554825,Walk
Fix,FLP,37.3899846,-122.0815504,-4.900000095367432,1.1573104,9.234,284.47736,1676154136024,,,189328717000000,2.554825,Walk
Fix,GPS,37.3899826779,-122.0815013751,6.851896909267475,1.2984866,7.629628,293.6189,1676154133999,0.41354918,17.441374,189328566128000,8.033737,Walk
Fix,FLP,37.3899869,-122.0815591,-4.900000095367432,1.1628455,9.441,283.05826,1676154136551,,,189329244000000,2.564399,Walk
Fix,GPS,37.3899882071,-122.0815177282,6.092882262977136,1.3169291,7.539139,287.5522,1676154134999,0.40587363,19.6572,189329565687000,8.03232,Walk
Fix,FLP,37.3899879,-122.0815642,-4.900000095367432,1.1667476,9.637,281.42975,1676154137056,,,189329749670595,2.548564,Walk
Fix,FLP,37.389989,-122.0815729,-4.900000095367432,1.1685879,9.861,280.472,1676154137590,,,189330283000000,2.548564,Walk
Fix,GPS,37.3899887153,-122.0815264344,5.426045391373353,1.2724831,7.3074145,285.0851,1676154135999,0.35956725,17.434559,189330565685000,7.991519,Walk
Fix,FLP,37.3899894,-122.0815832,-4.900000095367432,1.1701711,10.295,277.75656,1676154138141,,,189330834613893,2.4820328,Walk
Fix,GPS,37.3899892268,-122.0815393443,5.105347616094306,1.2598112,7.2193437,276.95932,1676154136999,0.38862497,18.849695,189331565720000,7.993004,Walk
Fix,FLP,37.3899892,-122.0815891,-4.900000095367432,1.169895,10.561,276.6761,1676154138684,,,189331377087708,2.4920328,Walk
Fix,FLP,37.3899891,-122.0815958,-4.900000095367432,1.1701628,10.855,274.92587,1676154139226,,,189331919557679,2.5261483,Walk
Fix,GPS,37.3899894499,-122.0815537858,4.875138054798099,1.2586768,7.1660213,275.88297,1676154137999,0.41849157,19.716322,189332565787000,8.01031,Walk
Fix,FLP,37.3899891,-122.0815993,-4.900000095367432,1.171862,11.068,274.29932,1676154139769,,,189332462028565,2.4994848,Walk
Fix,NLP,37.3899433,-122.0817891,-4.599999904632568,,26.87,,1676154139969,,,189332662000000,1.9595386,Walk
Fix,FLP,37.3899863,-122.0816088,-4.599999904632568,1.1760665,11.609,273.104,1676154140311,,,189333004501221,2.3316302,Walk
Fix,GPS,37.389989968,-122.0815664864,4.561117427409207,1.2455611,7.1771135,274.53015,1676154138999,0.44408682,21.175175,189333565754000,8.035848,Walk
Fix,FLP,37.3899843,-122.0816138,-4.599999904632568,1.1778451,11.653,272.9869,1676154140853,,,189333546972169,2.3742716,Walk
Fix,FLP,37.3899804,-122.0816252,-4.599999904632568,1.180254,11.995,271.7944,1676154141396,,,189334089445131,2.3742716,Walk
Fix,GPS,37.3899893669,-122.0815805702,4.395310005037946,1.243958,7.1307364,270.3306,1676154139999,0.41001442,17.634968,189334565745000,8.042689,Walk
Fix,FLP,37.3899783,-122.0816298,-4.599999904632568,1.1827165,12.119,270.69626,1676154141937,,,189334631912782,2.3680468,Walk
Fix,FLP,37.3899746,-122.0816413,-4.599999904632568,1.18587,12.407,268.7741,1676154142481,,,189335174385743,2.3680468,Walk
Fix,GPS,37.3899878951,-122.0815961643,4.424788182295588,1.2525388,7.108859,268.9124,1676154140999,0.3830129,18.460184,189335565853000,8.039602,Walk
Fix,FLP,37.3899728,-122.081645,-4.599999904632568,1.1884326,12.571,267.88403,1676154143023,,,189335716859193,2.3730712,Walk
Fix,FLP,37.3899693,-122.0816563,-4.599999904632568,1.191513,12.91,266.14877,1676154143565,,,189336259329469,2.3730712,Walk
Fix,GPS,37.3899871793,-122.0816117758,4.231866319060813,1.2568525,7.0428753,276.5956,1676154141999,0.35270202,21.538328,189336565980000,8.01788,Walk
Fix,FLP,37.3899657,-122.0816633,-4.599999904632568,1.1943741,13.169,264.4183,1676154144107,,,189336801802979,2.400096,Walk
Fix,FLP,37.3899636,-122.0816707,-4.599999904632568,1.1956487,13.328,263.49606,1676154144651,,,189337344276185,2.400096,Walk
Fix,GPS,37.389987761,-122.0816247163,3.922806623884159,1.2398,7.1384287,281.60388,1676154142999,0.40592298,30.191362,189337565772000,8.05675,Walk
Fix,NLP,37.3898998,-122.0820049,-4.199999809265137,,20.854,,1676154144991,,,189337684000000,2.1132991,Walk
Fix,FLP,37.3899473,-122.0816867,-4.900000095367432,1.2118593,13.187,261.39664,1676154145192,,,189337886747132,2.3226607,Walk
Fix,FLP,37.3899376,-122.0817008,-4.900000095367432,1.2212632,12.923,261.02188,1676154145736,,,189338429220033,2.3226607,Walk
Fix,GPS,37.3899884769,-122.081631065,3.547906314766262,1.1766461,7.105306,281.60388,1676154143999,0.45670244,28.487259,189338565793000,8.068194,Walk
Fix,FLP,37.3899269,-122.0817141,-4.199999809265137,1.220108,12.301,259.32642,1676154146278,,,189338971690675,2.3122814,Walk
Fix,GPS,37.3899877638,-122.0816401656,3.374129431568611,1.1362054,7.041342,267.83438,1676154144999,0.40718782,38.458057,189339566091000,8.085816,Walk
Fix,FLP,37.3899218,-122.081721,-4.199999809265137,1.2121879,11.929,257.8119,1676154146821,,,189339514166810,2.357063,Walk
Fix,FLP,37.3899147,-122.0817293,-4.199999809265137,1.1966126,11.29,255.27798,1676154147363,,,189340056634644,2.357063,Walk
Fix,GPS,37.3899868757,-122.0816536681,3.2104840092212656,1.1308788,6.940637,277.6261,1676154145999,0.4114279,25.83483,189340565870000,8.106318,Walk
Fix,FLP,37.3899116,-122.0817322,-2.472634786060929,1.193251,10.714,254.27359,1676154147906,,,189340599104799,2.369082,Walk
Fix,FLP,37.3899073,-122.0817393,-2.472634786060929,1.1839691,10.104,252.7256,1676154148448,,,189341141578553,2.369082,Walk
Fix,GPS,37.3899863534,-122.0816649946,2.836199785139609,1.1145453,6.9301744,267.6451,1676154146999,0.40100878,22.075615,189341565857000,8.132961,Walk
Fix,FLP,37.3899056,-122.0817419,-2.1058843221829164,1.181822,9.698,252.06227,1676154148991,,,189341684040102,2.3260217,Walk
Fix,FLP,37.3899028,-122.0817484,-2.1058843221829164,1.1721387,8.906,250.88077,1676154149533,,,189342226522768,2.3260217,Walk
Fix,GPS,37.389986616,-122.081677086,2.342237888935262,1.1067756,7.0697317,269.3737,1676154147999,0.4308546,22.724384,189342565917000,8.190406,Walk
Fix,NLP,37.3899726,-122.0818252,-4.199999809265137,,17.157,,1676154150021,,,189342714000000,1.6235723,Walk
Fix,FLP,37.389902,-122.0817489,-1.2894023152374243,1.163406,7.532,249.86539,1676154150075,,,189342768995851,2.283457,Walk
Fix,FLP,37.3899014,-122.0817558,-1.2894023152374243,1.1581011,7.555,249.49286,1676154150618,,,189343311467043,2.283457,Walk
Fix,GPS,37.3899862913,-122.0816931245,1.8158578272715813,1.1253833,7.1219206,270.29587,1676154148999,0.3852728,23.784628,189343565934000,8.231181,Walk
Fix,FLP,37.389903,-122.0817575,-4.199999809265137,1.1503118,7.544,249.12949,1676154151159,,,189343853940187,2.2818463,Walk
Fix,FLP,37.3899026,-122.081761,-4.199999809265137,1.1454996,7.593,248.67769,1676154151703,,,189344396410401,2.2818463,Walk
Fix,GPS,37.3899872048,-122.0817047648,1.9253704138319048,1.1123034,7.175962,278.45532,1676154149999,0.401907,25.190552,189344565918000,8.268572,Walk
Fix,FLP,37.3899036,-122.0817597,-4.199999809265137,1.1342366,7.659,247.87013,1676154152245,,,189344938884767,2.2953222,Walk
Fix,FLP,37.3899031,-122.0817615,-4.199999809265137,1.1280109,7.755,247.54597,1676154152787,,,189345480000000,2.2953222,Walk
Fix,GPS,37.3899860721,-122.0817187509,1.7610320626620015,1.1156487,7.262413,272.42276,1676154150999,0.39155737,24.631224,189345565936000,8.312461,Walk
Fix,FLP,37.389904,-122.0817586,-2.366773601099297,1.1092802,7.976,246.70299,1676154153330,,,189346023817872,2.313391,Walk
Fix,GPS,37.3899867197,-122.0817284908,1.2704636482484868,1.0882826,7.256871,263.56277,1676154151999,0.4548326,30.874054,189346565959000,8.326191,Walk
Fix,FLP,37.3899046,-122.0817565,-2.366773601099297,1.1065141,8.032,246.39842,1676154153860,,,189346553198854,2.315525,Walk
Fix,FLP,37.3899043,-122.0817552,-2.366773601099297,1.0924013,8.124,245.71469,1676154154415,,,189347108774476,2.315525,Walk
Fix,GPS,37.3899857604,-122.0817400576,1.5697379811216852,1.0760077,7.27128,263.56277,1676154152999,0.644225,10.0,189347565953000,8.345047,Walk
Fix,FLP,37.3899047,-122.0817529,1.0397440890305845,1.0890876,8.188,245.34665,1676154154957,,,189347651245850,2.3483112,Walk
Fix,NLP,37.3898718,-122.081902,-4.0,,28.832,,1676154155064,,,189347757000000,1.92605,Walk
Fix,FLP,37.3899036,-122.0817539,1.0397440890305845,1.0785742,8.394,244.66348,1676154155500,,,189348193719544,2.2775342,Walk
Fix,GPS,37.3899817812,-122.0817532706,1.4009699820734998,1.0844864,7.3000135,254.30264,1676154153999,0.5600547,26.052666,189348565954000,8.33779,Walk
Fix,FLP,37.3899034,-122.0817542,-0.1274677085896698,1.0781173,8.483,244.65689,1676154156043,,,189348736193726,2.2686334,Walk
Fix,FLP,37.3899018,-122.0817584,-0.1274677085896698,1.0698714,8.562,244.69899,1676154156585,,,189349278656678,2.2686334,Walk
Fix,GPS,37.3899779568,-122.0817682814,1.399132848791606,1.1050632,7.383478,253.30734,1676154154999,0.48586443,22.53947,189349566017000,8.368525,Walk
Fix,FLP,37.3899028,-122.081756,-0.1274677085896698,1.0617231,8.556,244.68765,1676154157128,,,189349821135866,2.2650094,Walk
Fix,FLP,37.389902,-122.0817581,-0.1274677085896698,1.0592439,8.544,244.51292,1676154157670,,,189350363597657,2.2650094,Walk
Fix,GPS,37.3899749427,-122.0817783468,1.1804992510761356,1.0926019,7.5433373,252.76782,1676154155999,0.7607985,27.089052,189350566138000,8.384711,Walk
Fix,FLP,37.3899021,-122.0817587,-2.2950729867840707,1.0567579,8.522,244.32556,1676154158212,,,189350906080567,2.3297167,Walk
Fix,FLP,37.3899007,-122.0817628,-2.2950729867840707,1.0555762,8.543,244.31848,1676154158754,,,189351448554200,2.3297167,Walk
Fix,GPS,37.3899717537,-122.0817908793,0.8380869393190549,1.0933607,7.7179084,252.76782,1676154156999,0.689293,144.2114,189351566050000,8.399615,Walk
Fix,FLP,37.3899006,-122.081765,-4.0,1.0551113,8.577,244.21765,1676154159298,,,189351991025941,2.297385,Walk
Fix,FLP,37.3898992,-122.0817697,-4.0,1.055531,8.617,244.05191,1676154159840,,,189352533499574,2.297385,Walk
Fix,GPS,37.3899671028,-122.0818013429,0.6809791120760865,1.0841147,7.9526978,252.76782,1676154157999,0.8688626,38.05405,189352566042000,8.401509,Walk
Fix,NLP,37.3898392,-122.0819102,-4.0,,25.942,,1676154160093,,,189352786000000,2.1764395,Walk
Fix,FLP,37.3898983,-122.0817762,-4.0,1.0596222,8.668,243.82288,1676154160390,,,189353083000000,2.1415462,Walk
Fix,FLP,37.3898952,-122.0817863,-4.0,1.0644944,8.69,243.90092,1676154160954,,,189353647000000,2.1415462,Walk
Fix,GPS,37.3899576072,-122.0818151703,0.6094706992832927,1.1182084,8.169617,252.76782,1676154158999,0.75816107,29.042805,189353566085000,8.4165125,Walk
Fix,FLP,37.3898914,-122.0818013,-4.0,1.0705159,8.783,243.80678,1676154161467,,,189354160915772,2.2352846,Walk
Fix,GPS,37.3899461867,-122.0818380958,1.1964361769344507,1.2067783,8.089957,238.76167,1676154159999,0.57358617,35.054535,189354566085000,8.378416,Walk
Fix,FLP,37.3898912,-122.0818032,-4.0,1.0752528,8.812,243.56445,1676154162009,,,189354703389161,2.2307508,Walk
Fix,FLP,37.3898881,-122.0818146,-4.0,1.0826436,8.996,243.14679,1676154162552,,,189355245860414,2.2307508,Walk
Fix,GPS,37.3899378981,-122.081855975,1.3488452480011188,1.2457502,8.038178,247.3654,1676154160999,0.5141369,26.770666,189355566106000,8.352238,Walk
Fix,FLP,37.3898869,-122.0818212,-4.0,1.0954694,9.076,242.8704,1676154163095,,,189355788334291,2.2023072,Walk
Fix,FLP,37.3898859,-122.0818262,-4.0,1.0999129,9.13,243.02238,1676154163637,,,189356330805666,2.2023072,Walk
Fix,GPS,37.3899301065,-122.0818761742,1.7480018899103342,1.2938577,7.9114394,247.10086,1676154161999,0.50038666,24.346857,189356566341000,8.3602915,Walk
Fix,FLP,37.389886,-122.0818312,-4.0,1.1103876,9.202,243.35233,1676154164179,,,189356873279297,2.2390807,Walk
Fix,FLP,37.3898849,-122.0818368,-4.0,1.117221,9.231,243.49239,1676154164722,,,189357415754029,2.2390807,Walk
Fix,GPS,37.3899282859,-122.0818839984,2.066103794456164,1.239489,8.081005,246.77274,1676154162999,0.4945965,32.53275,189357566115000,8.399295,Walk
Fix,NLP,37.389872,-122.0821152,-4.199999809265137,,21.799,,1676154165131,,,189357824000000,2.8326383,Walk
Fix,FLP,37.3898837,-122.0818514,-4.199999809265137,1.1391302,9.282,243.91823,1676154165265,,,189357958224671,2.2297094,Walk
Fix,FLP,37.3898809,-122.0818656,-4.199999809265137,1.1483682,9.307,244.12123,1676154165807,,,189358500698548,2.2297094,Walk
Fix,GPS,37.3899236625,-122.0818944468,1.847918453514437,1.2148981,8.208905,244.38335,1676154163999,0.4702565,29.729727,189358566157000,8.43376,Walk
Fix,FLP,37.3898782,-122.0818832,-7.263786477087827,1.1621901,9.257,244.70079,1676154166350,,,189359043169740,2.2203376,Walk
Fix,FLP,37.389876,-122.0818944,-7.263786477087827,1.1700113,9.248,245.0642,1676154166859,,,189359553198854,2.2203376,Walk
Fix,GPS,37.3899164397,-122.0819095884,1.805983405488046,1.2314209,8.214214,246.71225,1676154164999,0.45852593,25.386711,189359566124000,8.4593,Walk
Fix,FLP,37.3898742,-122.0819087,-4.199999809265137,1.180832,9.196,245.64888,1676154167434,,,189360128114747,2.2343357,Walk
Fix,FLP,37.3898724,-122.0819184,-4.199999809265137,1.1869012,9.147,245.86913,1676154167983,,,189360676000000,2.2343357,Walk
Fix,GPS,37.3899026647,-122.0819349583,1.8189994053256275,1.3344405,8.011473,251.1671,1676154165999,0.4567195,21.639177,189360566421000,8.462758,Walk
Fix,FLP,37.38987,-122.0819371,-4.199999809265137,1.2003207,8.997,246.3926,1676154168520,,,189361213062684,2.2098594,Walk
Fix,GPS,37.3898917397,-122.081956642,1.45890189280064,1.3935684,7.7941914,260.27005,1676154166999,0.46358016,23.257536,189361566330000,8.480147,Walk
Fix,FLP,37.389869,-122.0819477,-4.199999809265137,1.2158505,8.911,246.73799,1676154169061,,,189361755531800,2.2529132,Walk
Fix,FLP,37.3898677,-122.0819564,-4.199999809265137,1.2241268,8.766,247.07863,1676154169605,,,189362298005311,2.2529132,Walk
Fix,GPS,37.3898840012,-122.0819759893,1.336708129217931,1.4205204,7.692116,265.99353,1676154167999,0.42860946,23.767944,189362566190000,8.502249,Walk
Fix,NLP,37.3897852,-122.0820068,-4.0,,21.869,,1676154170128,,,189362821000000,2.8891637,Walk
Fix,FLP,37.3898673,-122.0819652,-4.0,1.2426178,8.732,247.74887,1676154170146,,,189362840476807,2.2508512,Walk
Fix,FLP,37.3898631,-122.0819849,-4.0,1.2586246,8.619,248.17203,1676154170689,,,189363382947816,2.2508512,Walk
Fix,GPS,37.3898807162,-122.0819903192,0.7735483871420727,1.400594,7.746168,263.8091,1676154168999,0.43048707,25.084446,189363566199000,8.563046,Walk
Fix,FLP,37.3898565,-122.0820125,-4.0,1.2799939,8.438,248.73073,1676154171774,,,189364467894104,2.2436235,Walk
Fix,GPS,37.3898799365,-122.0820009304,0.3443107842478552,1.3534145,7.847163,264.0542,1676154169999,0.47077864,30.354065,189364566214000,8.644791,Walk
Fix,FLP,37.3898517,-122.0820331,-2.298227001772389,1.3017123,8.16,249.40552,1676154172317,,,189365010367738,2.2487168,Walk
Fix,GPS,37.3898787529,-122.0820093222,0.2840105278293328,1.2960148,7.8154726,262.53732,1676154170999,0.42167258,28.100863,189365566220000,8.680613,Walk
Fix,FLP,37.3898483,-122.0820459,-0.4457237157622629,1.3107482,7.941,249.72325,1676154172859,,,189365552841615,2.2578516,Walk
Fix,FLP,37.3898433,-122.082062,-0.4457237157622629,1.3203564,7.676,250.1939,1676154173402,,,189366095313294,2.2580504,Walk
Fix,GPS,37.3898754781,-122.082023946,0.1864013057023129,1.2882925,7.781747,248.47513,1676154171999,0.6038355,41.988346,189366566235000,8.725432,Walk
Fix,FLP,37.3898398,-122.0820735,-0.4457237157622629,1.3241209,7.464,250.41232,1676154173943,,,189366637785707,2.2580504,Walk
Fix,FLP,37.3898349,-122.082087,0.3831996036859522,1.3267158,7.249,250.73593,1676154174487,,,189367180258729,2.270151,Walk
Fix,GPS,37.3898706952,-122.0820376933,0.4216679254381836,1.2794856,7.848336,250.88467,1676154172999,0.541487,41.716156,189367566270000,8.774602,Walk
Fix,FLP,37.3898316,-122.0820971,0.3831996036859522,1.3283509,6.994,250.94511,1676154175028,,,189367722732911,2.270151,Walk
Fix,NLP,37.3897219,-122.0821236,-3.799999713897705,,25.41,,1676154175149,,,189367843000000,3.2575827,Walk
Fix,FLP,37.3898254,-122.0821093,-0.4457237157622629,1.3289261,6.668,251.1876,1676154175543,,,189368237000000,2.2194939,Walk
Fix,GPS,37.3898653992,-122.0820514004,0.7280448591944272,1.2768213,7.9476204,243.43742,1676154173999,0.4926815,25.039078,189368566286000,8.804106,Walk
Fix,FLP,37.3898213,-122.082118,-0.4457237157622629,1.3319224,6.46,251.09683,1676154176049,,,189368742000000,2.2194939,Walk
Fix,FLP,37.389815,-122.0821275,-3.799999713897705,1.3303663,6.356,250.84291,1676154176565,,,189369258000000,2.2608638,Walk
Fix,GPS,37.3898562517,-122.0820716132,0.745485773117481,1.3306131,7.812976,241.22455,1676154174999,0.5512305,23.669806,189369566375000,8.816229,Walk
Fix,FLP,37.3898112,-122.0821348,-3.799999713897705,1.3291807,6.201,250.63005,1676154177070,,,189369764000000,2.2608638,Walk
Fix,GPS,37.3898469884,-122.0820939675,0.7205318732310143,1.3929172,7.53264,249.59492,1676154175999,0.4334976,19.831535,189370566493000,8.812,Walk
Fix,FLP,37.3898054,-122.0821436,-4.199999809265137,1.3191175,6.024,250.11996,1676154177633,,,189370326603578,2.324331,Walk
Fix,FLP,37.389802,-122.0821503,-4.199999809265137,1.3197043,5.894,249.88336,1676154178176,,,189370869075684,2.324331,Walk
Fix,GPS,37.3898381678,-122.0821101856,0.9150925468603832,1.4115691,7.244753,252.4819,1676154176999,0.41751748,19.556671,189371566314000,8.747576,Walk
Fix,FLP,37.3897993,-122.0821545,-6.562915303743743,1.3224831,5.829,249.94522,1676154178718,,,189371411550111,2.3979537,Walk
Fix,FLP,37.3897946,-122.0821613,-6.562915303743743,1.3252947,5.69,250.15483,1676154179261,,,189371954022034,2.3979537,Walk
Fix,GPS,37.3898273829,-122.0821275617,0.925512515336632,1.4479173,7.0483475,241.3929,1676154177999,0.44852322,17.38799,189372566685000,8.706638,Walk
Fix,FLP,37.3897923,-122.0821665,-7.102304668185944,1.3286195,5.623,250.5297,1676154179802,,,189372496495912,2.433048,Walk
Fix,NLP,37.3895986,-122.0821117,-3.799999713897705,,24.082,,1676154180164,,,189372857000000,2.6020937,Walk
Fix,FLP,37.3897871,-122.0821736,-7.102304668185944,1.3300341,5.446,251.08376,1676154180345,,,189373038969788,2.3722732,Walk
Fix,GPS,37.3898151887,-122.0821494536,0.9123595729099788,1.5101936,6.9966817,244.73697,1676154178999,0.43929103,19.755175,189373566395000,8.71051,Walk
Fix,FLP,37.3897836,-122.0821806,-7.102304668185944,1.3302226,5.369,250.99548,1676154180860,,,189373553198854,2.3722732,Walk
Fix,FLP,37.3897796,-122.0821885,-7.600298105040544,1.3358612,5.349,251.0053,1676154181430,,,189374123914369,2.2321942,Walk
Fix,GPS,37.3898062371,-122.0821627033,0.8684267528621791,1.5009785,6.98281,244.82408,1676154179999,0.45059597,23.855944,189374566723000,8.710448,Walk
Fix,FLP,37.3897776,-122.0821943,-8.19375984609345,1.3449847,5.341,251.02734,1676154181972,,,189374666388978,2.3899202,Walk
Fix,FLP,37.3897782,-122.0821992,-8.19375984609345,1.3493497,5.568,250.82106,1676154182515,,,189375208861390,2.3899202,Walk
Fix,GPS,37.389799176,-122.0821757912,0.6753534787015048,1.4819504,7.07677,236.31924,1676154180999,0.5151679,24.025091,189375566641000,8.743063,Walk
Fix,FLP,37.3897813,-122.0821995,-7.935016073050612,1.3466198,6.259,249.94519,1676154183058,,,189375751335939,2.3717277,Walk
Fix,FLP,37.389781,-122.0822022,-7.935016073050612,1.3453562,6.546,249.29208,1676154183563,,,189376256000000,2.3717277,Walk
Fix,GPS,37.3897923162,-122.0821867302,0.3228009459562793,1.44959,7.210765,224.8017,1676154181999,0.54228365,32.756,189376566444000,8.796446,Walk
Fix,FLP,37.3897812,-122.0822041,-7.457106962810919,1.3389449,7.297,247.66115,1676154184103,,,189376797000000,2.3976798,Walk
Fix,GPS,37.3897843025,-122.082195651,-0.0763749210760122,1.419521,7.3234806,223.03677,1676154182999,0.603972,24.406118,189377566427000,8.86221,Walk
Fix,FLP,37.3897789,-122.0822099,-6.612509885870637,1.3320987,7.977,245.78108,1676154184684,,,189377378743410,2.4329243,Walk
Fix,NLP,37.3896608,-122.0822102,-3.5,,27.693,,1676154185208,,,189377901000000,3.2343965,Walk
Fix,FLP,37.3897761,-122.0822113,-6.612509885870637,1.331876,8.78,244.16832,1676154185227,,,189377921229860,2.3779247,Walk
Fix,GPS,37.3897755299,-122.0822036553,-0.6440029887852942,1.392778,7.4020033,230.79808,1676154183999,0.48647013,25.288265,189378566502000,8.923781,Walk
