Fix,Provider,LatitudeDegrees,LongitudeDegrees,AltitudeMeters,SpeedMps,AccuracyMeters,BearingDegrees,UnixTimeMillis,SpeedAccuracyMps,BearingAccuracyDegrees,elapsedRealtimeNanos,VerticalAccuracyMeters,TransitType
Fix,FLP,37.4271905,-122.1566736,-15.0,0.65843326,8.113,149.4909,1678160179538,0.358408,74.78699,1594991546391000,2.208509,Walk
Fix,GPS,37.4271879141,-122.1566718231,0.8050686731248955,0.30653945,7.517907,142.70586,1678160179999,0.37126046,65.24636,1594992546417000,11.118365,Walk
Fix,FLP,37.4271857,-122.1566791,-15.0,0.08980583,10.788,,1678160180261,,,1594992270831217,2.2180889,Walk
Fix,FLP,37.4271854,-122.1566841,-15.0,0.12437822,10.249,37.317326,1678160181275,,,1594993283519206,2.2180889,Walk
Fix,GPS,37.4271988713,-122.1566421138,0.1637071702908392,0.3796049,7.0330725,142.70586,1678160180999,0.30833715,177.89487,1594993546537000,10.166425,Walk
Fix,FLP,37.4271861,-122.1566828,-15.0,0.20952891,9.593,74.9783,1678160181781,,,1594993789855143,2.227689,Walk
Fix,GPS,37.4272016153,-122.156625839,-1.62479466443014,0.3351746,6.880951,142.70586,1678160181999,0.3615222,134.34087,1594994546513000,9.554976,Walk
Fix,FLP,37.4271865,-122.1566799,-15.0,0.25065655,9.558,76.799446,1678160182287,,,1594994296209574,2.2386389,Walk
Fix,FLP,37.4271881,-122.1566713,-15.0,0.28537667,9.363,83.45271,1678160182794,,,1594994802546855,2.2386389,Walk
Fix,FLP,37.427189,-122.1566663,-15.0,0.30165175,9.284,86.44215,1678160183299,,,1594995308907206,2.2386389,Walk
Fix,GPS,37.4272003684,-122.1566166837,-3.5296754043688177,0.5313871,12.039988,142.70586,1678160182999,0.66172564,180.0,1594995546562000,9.4114,Walk
Fix,NLP,37.4310842,-122.1542035,,,699.999,,1678160183872,,,1594995880000000,,Walk
Fix,FLP,37.4271899,-122.156659,-15.0,0.34099755,9.167,91.222046,1678160183807,,,1594995815257060,2.2486289,Walk
Fix,FLP,37.4271905,-122.1566522,-15.0,0.38261434,9.226,91.12431,1678160184312,,,1594996321607646,2.2486289,Walk
Fix,GPS,37.4272011,-122.1566020618,-4.50428638017295,0.36223492,8.997319,142.70586,1678160183999,0.6414129,145.04083,1594996546578000,9.320729,Walk
Fix,GPS,37.4271997495,-122.1565870795,-5.342656364638359,0.34011507,8.997468,142.70586,1678160184999,0.6704236,26.245544,1594997546616000,9.26829,Walk
Fix,FLP,37.4271916,-122.1566429,-25.543437898729948,0.39533976,8.847,88.24414,1678160185325,,,1594997334313639,2.2686388,Walk
Fix,FLP,37.4271932,-122.156632,-25.543437898729948,0.39648736,8.74,86.66112,1678160186338,,,1594998347018046,2.2686388,Walk
Fix,GPS,37.4272003751,-122.156572629,-5.503879205521532,0.0,8.997614,142.70586,1678160185999,0.6571802,171.60258,1594998546827000,9.289359,Walk
Fix,FLP,37.4271952,-122.1566214,-23.90196397172619,0.35437107,8.7,84.85063,1678160187350,,,1594999359724833,2.278919,Walk
Fix,GPS,37.4272003751,-122.156572629,-6.489510624452221,0.0,8.604887,142.70586,1678160186999,0.5842171,18.796764,1594999546603000,9.229147,Walk
Fix,FLP,37.4271966,-122.1566129,-21.24368762234372,0.29471004,8.537,84.14946,1678160187858,,,1594999866078349,2.2886288,Walk
Fix,GPS,37.4272003751,-122.156572629,-8.452446737504589,0.0,8.604817,142.70586,1678160187999,0.6486529,180.0,1595000546631000,8.990925,Walk
Fix,FLP,37.4271971,-122.1566103,-10.8781879429812,0.26691625,8.423,83.73038,1678160188364,,,1595000372431620,2.298629,Walk
Fix,NLP,37.4268643,-122.155268,,,800.0,,1678160188897,,,1595000905000000,,Walk
Fix,FLP,37.4271977,-122.1566064,-10.8781879429812,0.24359447,8.3,83.28904,1678160188870,,,1595000878784648,2.298629,Walk
Fix,GPS,37.4271951464,-122.156502891,-10.827237057596474,0.36081675,8.3101,142.70586,1678160188999,0.6429544,180.0,1595001546694000,8.733527,Walk
Fix,FLP,37.4271983,-122.1566034,-11.556182383417394,0.21801062,8.067,82.67519,1678160189404,,,1595001412245225,2.3086388,Walk
Fix,GPS,37.4271944482,-122.1565009252,-4.081124194963095,0.6629901,8.14229,142.70586,1678160189999,0.61746955,35.88922,1595002546716000,8.07857,Walk
Fix,FLP,37.427199,-122.1565954,-12.484222532049609,0.22636417,7.719,79.93649,1678160190488,,,1595002497285386,2.318639,Walk
Fix,GPS,37.4271957326,-122.1565063369,-5.648693968554144,0.0,8.590356,142.70586,1678160190999,0.6406339,110.340225,1595003546985000,7.900526,Walk
Fix,FLP,37.4271998,-122.1565852,-15.0,0.2547162,7.547,75.85578,1678160191574,,,1595003582311509,2.328639,Walk
Fix,GPS,37.4271957326,-122.1565063369,-7.275084925933203,0.0,7.8841066,142.70586,1678160191999,0.6314066,180.0,1595004546913000,7.6597652,Walk
Fix,FLP,37.4272006,-122.1565765,-15.0,0.23630503,7.189,75.44664,1678160192659,,,1595004667348680,2.338639,Walk
Fix,GPS,37.4271957326,-122.1565063369,-8.509101620396333,0.0,7.866096,142.70586,1678160192999,0.61488,61.618652,1595005546735000,7.481739,Walk
Fix,FLP,37.4272013,-122.1565679,-15.0,0.2201344,6.961,75.20659,1678160193744,,,1595005752392564,2.348649,Walk
Fix,GPS,37.4271957326,-122.1565063369,-9.335596539769044,0.0,8.998799,142.70586,1678160193999,0.64927965,180.0,1595006546784000,7.350515,Walk
Fix,FLP,37.4272011,-122.1565605,-15.0,0.2034958,6.69,75.19412,1678160194286,,,1595006294908250,2.358639,Walk
Fix,NLP,37.427265,-122.1562943,-15.0,,110.0,,1678160194706,,,1595006714000000,11.700703,Walk
Fix,GPS,37.4271957326,-122.1565063369,-9.988109916805556,0.0,8.555244,142.70586,1678160194999,0.6251436,180.0,1595007546773000,7.232174,Walk
Fix,FLP,37.4272009,-122.1565546,-15.0,0.1646785,6.489,73.80675,1678160195370,,,1595007379923326,6.892881,Walk
Fix,GPS,37.4271957326,-122.1565063369,-10.615385685827832,0.0,7.2262073,142.70586,1678160195999,0.5157229,25.699013,1595008546955000,7.120294,Walk
Fix,FLP,37.4272011,-122.156551,-15.0,0.14338446,6.4,72.4233,1678160196456,,,1595008464964403,9.128993,Walk
Fix,GPS,37.4271957326,-122.1565063369,-10.911824855110511,0.0,7.0320845,142.70586,1678160196999,0.4838092,59.393093,1595009546745000,7.005247,Walk
Fix,FLP,37.4272011,-122.1565472,-15.0,0.13721716,6.236,73.7263,1678160197540,,,1595009549987718,10.15466,Walk
Fix,FLP,37.4272006,-122.1565435,-15.0,0.12524931,5.98,79.6046,1678160198084,,,1595010092498704,10.15466,Walk
Fix,GPS,37.4271957326,-122.1565063369,-11.17226611892582,0.0,6.82471,142.70586,1678160197999,0.53030497,53.907074,1595010546846000,6.837366,Walk
Fix,FLP,37.4272004,-122.1565418,-21.25026228722065,0.12085428,5.825,86.3725,1678160198627,,,1595010635009019,9.33749,Walk
Fix,GPS,37.427203653,-122.1565006698,-11.362635849701311,0.42733303,6.8297243,142.70586,1678160198999,0.55482113,23.771418,1595011546829000,6.7005677,Walk
Fix,FLP,37.4271999,-122.1565372,-21.837915523445872,0.120058134,5.699,89.509865,1678160199712,,,1595011720018235,9.347489,Walk
Fix,NLP,37.4266608,-122.1567059,-14.200000762939451,,122.4,,1678160199751,,,1595011759000000,100.0,Walk
Fix,GPS,37.4272095881,-122.1564898254,-11.639254066108869,0.0,7.213709,142.70586,1678160199999,0.5366446,89.321335,1595012546859000,6.6984224,Walk
Fix,FLP,37.4271997,-122.1565323,-20.4658181020517,0.13162151,5.445,88.502304,1678160200254,,,1595012262536363,9.13381,Walk
Fix,GPS,37.4272133263,-122.1564776079,-12.283496038808948,0.30548817,7.149211,142.70586,1678160200999,0.5183816,62.66884,1595013547063000,6.64953,Walk
Fix,FLP,37.4272004,-122.1565278,-24.403489051644,0.13013718,5.363,88.66533,1678160201339,,,1595013347551439,9.082728,Walk
Fix,GPS,37.427216884,-122.156469334,-12.443236945630694,0.42272303,7.473548,142.70586,1678160201999,0.5064531,10.0,1595014546879000,6.685457,Walk
Fix,FLP,37.4272017,-122.1565224,-24.403489051644,0.14314547,5.311,85.31542,1678160202424,,,1595014432563890,8.945995,Walk
Fix,GPS,37.427218061,-122.156472292,-12.083833942384851,0.0,7.518106,142.70586,1678160202999,0.4919037,39.368057,1595015546894000,6.661786,Walk
Fix,FLP,37.4272029,-122.1565168,-23.60315817159637,0.16205716,5.224,81.58139,1678160203508,,,1595015517567734,8.688439,Walk
Fix,GPS,37.427218061,-122.156472292,-11.95733180731867,0.0,7.1572795,142.70586,1678160203999,0.5004951,128.21687,1595016546897000,6.5819,Walk
Fix,FLP,37.4272042,-122.1565118,-15.776854409333836,0.15824382,5.205,85.73283,1678160204594,,,1595016602583848,7.608461,Walk
Fix,NLP,37.4271088,-122.1569046,-15.0,,98.4,,1678160204792,,,1595016800000000,9.245,Walk
Fix,GPS,37.427218061,-122.156472292,-12.046489554318796,0.0,6.928811,142.70586,1678160204999,0.47383025,57.03812,1595017546941000,6.469816,Walk
Fix,FLP,37.4272055,-122.1565065,-10.864009734191724,0.14936396,5.194,87.4306,1678160205679,,,1595017687590562,7.476033,Walk
Fix,GPS,37.427218061,-122.156472292,-12.152082442699768,0.0,6.7481985,142.70586,1678160205999,0.4975596,72.041855,1595018547119000,6.308077,Walk
Fix,FLP,37.4272066,-122.1565021,-7.21942146251498,0.14577308,5.15,87.46156,1678160206222,,,1595018230093431,6.7771354,Walk
Fix,GPS,37.427218061,-122.156472292,-12.421100094942217,0.0,8.6031685,142.70586,1678160206999,0.57099026,74.59533,1595019546918000,6.1183267,Walk
Fix,FLP,37.4272072,-122.1564974,-10.513597874748434,0.13792561,5.105,87.29676,1678160207306,,,1595019315097581,6.7669783,Walk
Fix,FLP,37.4272073,-122.1564949,-10.513597874748434,0.11995929,5.08,86.948425,1678160207834,,,1595019843000000,6.7669783,Walk
Fix,GPS,37.427218061,-122.156472292,-12.46394627563523,0.0,8.603069,142.70586,1678160207999,0.5106101,162.95398,1595020547082000,5.9452467,Walk
Fix,FLP,37.4272068,-122.1564931,-15.0,0.06931264,5.056,,1678160208392,,,1595020400100450,7.129804,Walk
Fix,GPS,37.427218061,-122.156472292,-12.723781732815665,0.0,8.60297,142.70586,1678160208999,0.4863789,180.0,1595021546973000,5.7993064,Walk
Fix,FLP,37.4272094,-122.1564882,-19.302420613567584,0.043386806,5.545,,1678160209537,0.4863789,,1595021546973000,7.139814,Walk
Fix,NLP,37.4271178,-122.1567946,-14.200000762939451,,98.4,,1678160209845,,,1595021853000000,8.343677,Walk
Fix,FLP,37.4272111,-122.1564849,-18.14847564286498,0.045218583,6.1,,1678160209845,0.4863789,,1595021853000000,7.1287065,Walk
Fix,GPS,37.427218061,-122.156472292,-12.882510785884916,0.0,8.60287,142.70586,1678160209999,0.49124098,180.0,1595022546959000,5.669847,Walk
Fix,FLP,37.4272128,-122.1564818,-17.877201104971164,0.03139094,6.594,,1678160210537,0.49124098,,1595022546959000,7.796656,Walk
Fix,GPS,37.427218061,-122.156472292,-12.912155482521596,0.0,8.602769,142.70586,1678160210999,0.44916523,180.0,1595023547486000,5.5584245,Walk
Fix,FLP,37.4272143,-122.156479,-14.200000762939451,0.02148615,7.116,,1678160211539,0.44916523,,1595023547486000,7.806666,Walk
Fix,GPS,37.427218061,-122.156472292,-13.015030697560611,0.0,8.602666,142.70586,1678160211999,0.44322002,180.0,1595024547039000,5.468328,Walk
Fix,FLP,37.4272155,-122.1564769,-15.0,0.015091745,7.64,,1678160212539,0.44322002,,1595024547039000,7.14594,Walk
Fix,GPS,37.427218061,-122.156472292,-13.037268161440966,0.0,9.114112,142.70586,1678160212999,0.4429928,180.0,1595025547027000,5.387559,Walk
Fix,FLP,37.4272163,-122.1564755,-18.37249095138952,0.010740829,8.237,,1678160213539,0.4429928,,1595025547027000,7.133331,Walk
Fix,GPS,37.427218061,-122.156472292,-12.929620037386249,0.0,8.602458,142.70586,1678160213999,0.4358273,180.0,1595026547114000,5.3015933,Walk
Fix,FLP,37.4272169,-122.1564745,-19.163680305352408,0.007655568,8.764,,1678160214539,0.4358273,,1595026547114000,7.1433306,Walk
Fix,NLP,37.427127,-122.1568041,-14.200000762939451,,110.0,,1678160214858,,,1595026866000000,9.951428,Walk
Fix,FLP,37.4272172,-122.1564739,-19.162162749597563,0.007810588,8.767,,1678160214858,0.4358273,,1595026866000000,7.1814127,Walk
Fix,GPS,37.427218061,-122.156472292,-13.03142931293451,0.0,8.602351,142.70586,1678160214999,0.46991634,107.6207,1595027547087000,5.221481,Walk
Fix,FLP,37.4272174,-122.1564734,-18.37249095138952,0.0057929237,8.767,,1678160215539,0.46991634,,1595027547087000,7.216355,Walk
Fix,GPS,37.427218061,-122.156472292,-13.02991469998142,0.0,9.303723,142.70586,1678160215999,0.48324284,180.0,1595028547578000,5.146965,Walk
Fix,FLP,37.4272176,-122.1564731,-14.200000762939451,0.0043381015,8.884,,1678160216539,0.48324284,,1595028547578000,7.245688,Walk
Fix,GPS,37.427218061,-122.156472292,-13.051459222327091,0.0,7.8451204,142.70586,1678160216999,0.44717392,130.48271,1595029547102000,5.076586,Walk
Fix,FLP,37.4272178,-122.1564728,-14.200000762939451,0.0031152668,8.757,,1678160217538,0.44717392,,1595029547102000,7.439791,Walk
Fix,GPS,37.427218061,-122.156472292,-13.017916738422302,0.0,8.602026,142.70586,1678160217999,0.4663365,180.0,1595030547163000,5.0084085,Walk
Fix,FLP,37.4272179,-122.1564726,-12.14409526839222,0.0022962377,8.672,,1678160218538,0.4663365,,1595030547163000,7.74414,Walk
Fix,GPS,37.427218061,-122.156472292,-12.878078109364424,0.0,8.601913,142.70586,1678160218999,0.5185134,17.736124,1595031547130000,4.9351306,Walk
Fix,FLP,37.427218,-122.1564725,-11.652997062342443,0.00178485,8.672,,1678160219538,0.5185134,,1595031547130000,7.7541504,Walk
Fix,NLP,37.4272679,-122.1563325,-15.0,,104.1,,1678160219891,,,1595031900000000,13.835473,Walk
Fix,FLP,37.427218,-122.1564725,-11.702508626920114,0.001803247,8.681,,1678160219892,0.5185134,,1595031900000000,8.592047,Walk
Fix,GPS,37.4272314158,-122.1564649407,-13.153430196256275,0.95097363,8.601806,142.70586,1678160219999,0.52049196,160.6098,1595032547165000,4.892472,Walk
Fix,FLP,37.4272216,-122.1564704,-10.536022123335954,0.010578637,8.681,,1678160220539,0.52049196,,1595032547165000,8.149756,Walk
Fix,GPS,37.4272436205,-122.1564697396,-13.915724710998964,1.2236267,8.601691,317.4201,1678160220999,0.12353462,10.0,1595033547458000,4.813613,Walk
Fix,FLP,37.4272336,-122.1564734,-10.766787090447252,0.74823743,8.569,319.30014,1678160221539,0.12353462,10.0,1595033547458000,8.556237,Walk
Fix,GPS,37.4272532154,-122.156473797,-14.094625637130587,1.4728752,8.601576,300.8639,1678160221999,0.44310555,13.887175,1595034547173000,4.9100523,Walk
Fix,FLP,37.4272444,-122.1564781,-6.639632012035413,1.0067139,8.668,316.0448,1678160222538,0.44310555,13.887175,1595034547173000,8.205494,Walk
Fix,FLP,37.4272346,-122.1564781,-6.639632012035413,1.0116706,8.41,313.87338,1678160223038,,,1595035047537279,8.205494,Walk
Fix,GPS,37.4272600633,-122.1564825577,-14.393122063269937,0.8395154,8.60146,300.8639,1678160222999,0.47221735,178.37407,1595035547165000,5.0001493,Walk
Fix,FLP,37.427227,-122.1564752,-18.52184289789637,0.97892916,8.205,313.8551,1678160223581,,,1595035590031786,8.5793495,Walk
Fix,FLP,37.4272214,-122.1564739,-18.52184289789637,0.9050395,7.905,313.85025,1678160224667,,,1595036675020433,8.5793495,Walk
Fix,GPS,37.4272533086,-122.156483538,-14.643385763826226,1.1609571,6.532704,195.64845,1678160223999,0.39512902,19.325457,1595036547547000,5.119377,Walk
Fix,NLP,37.4270402,-122.156888,-14.100000381469728,,45.6,,1678160224940,,,1595036948000000,6.66398,Walk
Fix,FLP,37.4272183,-122.1564673,-18.250568360002557,0.78229713,7.422,316.6791,1678160225209,,,1595037217511461,8.137141,Walk
Fix,GPS,37.4272391443,-122.1564845753,-14.726267982886592,1.144957,6.666338,206.16682,1678160224999,0.44277102,21.76341,1595037547230000,5.3060484,Walk
Fix,FLP,37.4272184,-122.1564649,-15.0,0.762154,7.361,319.2072,1678160225752,,,1595037760008165,7.799457,Walk
Fix,GPS,37.4272262185,-122.1564810659,-14.927278959343829,1.459997,8.60111,223.37646,1678160225999,0.5396276,17.135914,1595038547435000,5.554713,Walk
Fix,FLP,37.4272234,-122.1564644,-14.100000381469728,0.7253874,7.241,325.2244,1678160226294,,,1595038302502245,6.6816087,Walk
Fix,FLP,37.4272256,-122.1564639,-14.100000381469728,0.7230755,6.976,327.9596,1678160226810,,,1595038819000000,6.6816087,Walk
Fix,GPS,37.4272105744,-122.1564849394,-14.916279169963314,1.4948639,6.920162,210.0923,1678160226999,0.4398308,16.665998,1595039547191000,5.7996855,Walk
Fix,FLP,37.42723,-122.1564634,-10.293823487407238,0.7229807,6.663,333.5549,1678160227379,,,1595039387489305,6.688571,Walk
Fix,FLP,37.4272322,-122.1564642,-10.293823487407238,0.7202671,6.527,336.85947,1678160227921,,,1595039929982469,6.688571,Walk
Fix,GPS,37.4271947121,-122.156488242,-14.716574482145385,0.7990161,6.9783173,210.0923,1678160227999,0.4625987,41.49984,1595040547223000,6.042734,Walk
Fix,FLP,37.4272341,-122.1564638,-8.341429199901,0.7163199,6.605,340.37436,1678160228463,,,1595040472475877,6.715745,Walk
Fix,FLP,37.4272331,-122.1564646,-8.341429199901,0.63926625,6.682,340.62616,1678160229006,,,1595041014969041,6.715745,Walk
Fix,GPS,37.4271830172,-122.1564908146,-14.272283443289169,0.9343932,7.021208,210.0923,1678160228999,0.48389152,15.605634,1595041547294000,6.199802,Walk
Fix,FLP,37.427232,-122.1564646,-10.293823487407238,0.5470315,6.81,340.45868,1678160229549,,,1595041557461229,6.7088375,Walk
Fix,NLP,37.4269249,-122.15639,-14.200000762939451,,48.916,,1678160229888,,,1595041896000000,4.9923,Walk
Fix,FLP,37.4272254,-122.1564648,-10.293823487407238,0.42607522,7.011,343.38193,1678160230095,,,1595042103000000,5.9130774,Walk
Fix,GPS,37.427179497,-122.156499033,-14.353216932332144,1.7192041,7.1116033,267.9379,1678160229999,0.48466447,12.1340065,1595042547613000,6.263327,Walk
Fix,FLP,37.4272218,-122.1564658,-14.200000762939451,0.39079413,7.212,342.43808,1678160230634,,,1595042642438829,6.4623227,Walk
Fix,GPS,37.4271783079,-122.1565126295,-14.4585672396572,1.8127172,7.222416,259.10938,1678160230999,0.49642202,12.220454,1595043547792000,6.3322034,Walk
Fix,FLP,37.4272082,-122.1564713,-11.999710189671546,0.28085214,7.814,331.45456,1678160231719,,,1595043727438523,6.542028,Walk
Fix,FLP,37.4271995,-122.1564824,-11.999710189671546,0.26100618,8.484,309.2117,1678160232261,,,1595044269932909,6.542028,Walk
Fix,GPS,37.4271730117,-122.1565251749,-15.39386347740698,1.511516,7.29566,232.82697,1678160231999,0.4697171,15.587783,1595044547291000,6.4206,Walk
Fix,FLP,37.4271911,-122.1565013,-14.200000762939451,0.32991356,9.515,281.98975,1678160232804,,,1595044812427537,6.582565,Walk
Fix,FLP,37.4271872,-122.1565077,-11.999710189671546,0.3492934,9.865,273.2517,1678160233345,,,1595045354921983,6.5925746,Walk
Fix,GPS,37.4271634217,-122.1565365333,-15.591370410881163,1.3281577,7.4276543,219.93256,1678160232999,0.49197283,20.260801,1595045547314000,6.6142216,Walk
Fix,FLP,37.4271798,-122.1565179,-11.999710189671546,0.39930975,10.331,260.1961,1678160233868,,,1595045876616868,6.5842237,Walk
Fix,FLP,37.4271746,-122.156524,-11.999710189671546,0.42192578,10.587,254.49002,1678160234431,,,1595046439911241,6.5842237,Walk
Fix,GPS,37.4271502108,-122.1565500796,-15.35975647309406,1.5655018,7.4953938,207.2178,1678160233999,0.52729917,19.27133,1595046547724000,6.8403444,Walk
Fix,NLP,37.4270005,-122.1567693,-14.200000762939451,,44.516,,1678160234945,,,1595046953000000,2.3301284,Walk
Fix,FLP,37.4271668,-122.1565319,-10.161566082209532,0.4727304,10.944,245.05678,1678160234974,,,1595046982394700,6.4186144,Walk
Fix,FLP,37.4271583,-122.1565406,-10.161566082209532,0.53013974,11.419,237.05823,1678160235516,,,1595047524901170,6.4186144,Walk
Fix,GPS,37.4271362401,-122.1565562855,-15.13843339173153,1.5024607,7.4990687,204.59932,1678160234999,0.42877126,16.0891,1595047547585000,7.0469317,Walk
Fix,FLP,37.4271507,-122.156547,-10.351973542810567,0.58900267,11.883,231.23694,1678160236059,,,1595048067396104,6.420874,Walk
Fix,FLP,37.427145,-122.1565519,-10.351973542810567,0.62351,12.161,229.09569,1678160236601,,,1595048609890916,6.420874,Walk
Fix,GPS,37.4271205096,-122.1565671705,-14.89958934257208,1.4373058,7.5445366,211.62439,1678160235999,0.44025353,16.704905,1595048547573000,7.255729,Walk
Fix,GPS,37.4271038381,-122.1565796109,-13.978132914209338,1.3769643,7.4757233,205.53453,1678160236999,0.39379925,15.851966,1595049547396000,7.3769174,Walk
Fix,FLP,37.4271314,-122.1565634,-10.161566082209532,0.72222245,12.565,224.90297,1678160237686,,,1595049694880723,6.445821,Walk
Fix,FLP,37.427115,-122.1565772,-10.161566082209532,0.8108988,12.591,222.22168,1678160238229,,,1595050237365953,6.445821,Walk
Fix,GPS,37.4270870354,-122.1565895376,-13.511543267743969,1.6891106,7.3794317,213.72316,1678160237999,0.46820676,15.756639,1595050547407000,7.526712,Walk
Fix,FLP,37.427105,-122.1565827,-10.351973542810567,0.86810523,12.531,220.38165,1678160238771,,,1595050779866990,6.4557743,Walk
Fix,FLP,37.427098,-122.1565872,-10.351973542810567,0.9024827,12.563,219.67192,1678160239314,,,1595051322353319,6.4557743,Walk
Fix,GPS,37.4270698023,-122.1565995152,-13.428962095670538,1.967314,6.9876013,216.80798,1678160238999,0.44384903,12.058764,1595051547369000,7.488138,Walk
Fix,FLP,37.4270874,-122.1565939,-7.664096756853603,0.9720447,12.562,218.77893,1678160239855,,,1595051864841355,6.460474,Walk
Fix,FLP,37.4270804,-122.1565988,-7.664096756853603,1.0100435,12.545,218.65666,1678160240398,,,1595052407352891,6.460474,Walk
Fix,GPS,37.4270559083,-122.1566128286,-13.033848348793978,1.2179935,6.6952276,216.02347,1678160239999,0.38391638,16.887226,1595052547410000,7.446344,Walk
Fix,FLP,37.4270704,-122.1566058,-7.664096756853603,1.0571578,12.466,218.44937,1678160240941,,,1595052949846727,6.4698005,Walk
Fix,FLP,37.4270627,-122.1566121,-7.664096756853603,1.0696795,12.317,218.29785,1678160241484,,,1595053492331528,6.4698005,Walk
Fix,GPS,37.4270497105,-122.1566245004,-12.668401706416422,0.92889386,6.535145,216.02347,1678160240999,0.4069543,29.08369,1595053547567000,7.39826,Walk
Fix,FLP,37.4270553,-122.1566187,-7.664096756853603,1.0741701,12.088,218.08836,1678160241993,,,1595054001000000,6.499337,Walk
Fix,FLP,37.4270495,-122.1566246,-7.664096756853603,1.0691981,11.861,218.0465,1678160242554,,,1595054562000000,6.499337,Walk
Fix,GPS,37.4270418566,-122.1566399168,-12.36370654794676,1.3324876,6.5045605,226.00937,1678160241999,0.42969865,17.082794,1595054547420000,7.446501,Walk
Fix,FLP,37.4270393,-122.1566359,-9.260110845825784,1.1312013,11.327,218.66386,1678160243111,,,1595055119807908,6.4956145,Walk
Fix,GPS,37.4270293747,-122.1566565433,-12.43145194620059,1.7496964,6.363571,227.072,1678160242999,0.3701692,11.310372,1595055547482000,7.4706535,Walk
Fix,FLP,37.4270372,-122.1566387,-11.257869444339349,1.1826133,11.116,219.93146,1678160243654,,,1595055662304368,6.500474,Walk
Fix,FLP,37.4270264,-122.1566523,-11.257869444339349,1.3935934,10.548,224.49176,1678160244196,,,1595056204809923,6.500474,Walk
Fix,GPS,37.4270216177,-122.1566780171,-11.742486646618245,1.5022507,6.313272,240.71764,1678160243999,0.4083864,13.877386,1595056547490000,7.3539224,Walk
Fix,FLP,37.4270237,-122.1566567,-14.200000762939451,1.4819881,10.186,227.81332,1678160244739,,,1595056747292039,6.509814,Walk
Fix,FLP,37.4270157,-122.1566728,-14.200000762939451,1.5267447,9.749,235.87057,1678160245281,,,1595057289787828,6.509814,Walk
Fix,GPS,37.4270162429,-122.1566960888,-11.192226623539572,1.637988,6.465541,247.40085,1678160244999,0.4727349,14.352152,1595057547750000,7.262058,Walk
Fix,FLP,37.4270137,-122.1566839,-12.194551824412898,1.5495617,9.583,241.62364,1678160245823,,,1595057832290086,6.5393596,Walk
Fix,FLP,37.4270112,-122.1566947,-12.194551824412898,1.5745836,9.53,245.72627,1678160246366,,,1595058374783739,6.5393596,Walk
Fix,GPS,37.4270114552,-122.1567165326,-10.784483085343751,1.1297616,6.586974,256.82465,1678160245999,0.47084334,21.39941,1595058547533000,7.1674848,Walk
Fix,FLP,37.4270101,-122.1567061,-11.87659776615957,1.4429339,9.49,252.37778,1678160246924,,,1595058932000000,6.549337,Walk
Fix,FLP,37.4270085,-122.1567163,-11.87659776615957,1.3406318,9.599,256.54086,1678160247428,,,1595059436000000,6.549337,Walk
Fix,GPS,37.427009845,-122.1567336891,-10.30354238074137,1.317149,6.7421265,246.12657,1678160246999,0.58879554,25.735907,1595059547545000,7.115867,Walk
Fix,FLP,37.4270071,-122.1567273,-10.774298189054058,1.2998292,9.782,254.39726,1678160247929,,,1595059937000000,6.540511,Walk
Fix,FLP,37.4270051,-122.1567367,-10.774298189054058,1.3140962,9.873,251.71388,1678160248433,,,1595060441000000,6.540511,Walk
Fix,NLP,37.4270075,-122.156961,-14.100000381469728,,30.0,,1678160248527,,,1595060535000000,2.3763428,Walk
Fix,GPS,37.4270080347,-122.1567507581,-10.276399839417268,1.10994,6.8946457,251.02783,1678160247999,0.4919769,24.149132,1595060547537000,7.114595,Walk
Fix,FLP,37.4270027,-122.1567507,-10.240977834751128,1.2744933,10.358,249.36307,1678160248935,,,1595060943000000,5.9769998,Walk
Fix,FLP,37.4270001,-122.1567625,-10.240977834751128,1.2334533,10.76,248.63097,1678160249489,,,1595061497000000,5.9769998,Walk
Fix,GPS,37.427006466,-122.1567628789,-10.777354421939048,0.9181385,7.0609345,251.02783,1678160248999,0.46979168,74.502205,1595061547523000,7.0727925,Walk
Fix,FLP,37.4269957,-122.1567826,-10.240977834751128,1.09355,11.219,247.17653,1678160250055,,,1595062063735398,5.895708,Walk
Fix,GPS,37.4270042679,-122.1567760646,-11.079157716054306,0.9594183,7.1916637,251.02783,1678160249999,0.4422003,26.684814,1595062547608000,7.0207143,Walk
Fix,FLP,37.4269952,-122.1567853,-10.240977834751128,1.0534644,11.187,246.55014,1678160250598,,,1595062606227830,5.9057593,Walk
Fix,FLP,37.426991,-122.1567993,-10.240977834751128,1.0046939,11.144,246.07509,1678160251140,,,1595063148720078,5.9057593,Walk
Fix,GPS,37.4270058572,-122.156797128,-10.221715290826474,0.9782223,7.2943506,251.02783,1678160250999,0.47399044,29.154846,1595063547630000,7.005133,Walk
Fix,FLP,37.4269898,-122.1568032,-9.729874356069722,0.9998981,11.166,246.05817,1678160251683,,,1595063691203233,5.9340897,Walk
Fix,FLP,37.4269848,-122.1568184,-9.729874356069722,0.99633896,10.934,245.93835,1678160252225,,,1595064233694077,5.9340897,Walk
Fix,GPS,37.4270040471,-122.156819169,-10.066033530143836,0.98433226,7.44143,251.02783,1678160251999,0.54963636,25.942972,1595064547634000,7.036135,Walk
Fix,FLP,37.4269822,-122.1568266,-11.838420189104887,0.99916226,10.825,245.61299,1678160252768,,,1595064776193833,6.0374684,Walk
Fix,FLP,37.4269795,-122.1568351,-11.838420189104887,1.0012519,10.75,246.69054,1678160253310,,,1595065318687852,6.0374684,Walk
Fix,GPS,37.4269992048,-122.156841577,-9.932336674853977,1.0422407,7.59064,259.83218,1678160252999,0.61625606,35.85843,1595065547616000,7.0635943,Walk
Fix,FLP,37.4269767,-122.1568447,-11.838420189104887,1.0196348,10.601,248.02559,1678160253853,,,1595065861179552,6.0477057,Walk
Fix,FLP,37.4269739,-122.1568549,-11.838420189104887,1.03568,10.606,249.51395,1678160254394,,,1595066403671433,6.0477057,Walk
Fix,GPS,37.4269982365,-122.1568639312,-9.922010390369469,0.44270098,7.6992655,259.83218,1678160253999,0.55647516,90.48245,1595066547619000,6.956388,Walk
Fix,FLP,37.426972,-122.1568638,-11.838420189104887,0.8524286,10.627,255.79156,1678160254935,,,1595066943000000,5.966269,Walk
Fix,NLP,37.4270001,-122.1570001,-14.200000762939451,,45.6,,1678160254564,,,1595066572000000,3.698,Walk
Fix,FLP,37.4269697,-122.1568767,-8.42284879799459,0.647318,10.664,261.0244,1678160255480,,,1595067488646898,5.85543,Walk
Fix,GPS,37.4269956564,-122.1568861661,-9.384799991027055,0.7529915,7.7400484,259.83218,1678160254999,0.7020926,67.4043,1595067547690000,6.911826,Walk
Fix,FLP,37.4269679,-122.156892,-11.838420189104887,0.63591236,10.76,264.63354,1678160256534,,,1595068542000000,5.816299,Walk
Fix,GPS,37.4269948805,-122.1569031595,-9.607784886561998,1.3801961,7.9189997,289.79587,1678160255999,0.55265576,24.123257,1595068547698000,6.891945,Walk
Fix,FLP,37.4269675,-122.1569112,-10.68114030577648,0.9376562,10.835,269.3382,1678160257108,,,1595069116128160,5.826319,Walk
Fix,GPS,37.4269972219,-122.1569284488,-9.739994567175186,1.5548533,8.018367,274.35397,1678160256999,0.5826354,22.680285,1595069547662000,6.8143854,Walk
Fix,FLP,37.4269678,-122.1569161,-11.070125575634194,1.0595471,10.892,271.50427,1678160257650,,,1595069658616746,5.836329,Walk
Fix,FLP,37.4269691,-122.1569356,-11.070125575634194,1.2954682,11.025,275.41235,1678160258193,,,1595070201110704,5.836329,Walk
Fix,GPS,37.426997423,-122.156953032,-10.318154068613929,1.7259167,8.203218,270.5275,1678160257999,0.7450082,25.312729,1595070547733000,6.78006,Walk
Fix,FLP,37.4269699,-122.1569406,-11.070125575634194,1.3723762,11.094,277.5799,1678160258735,,,1595070743608446,5.8457985,Walk
Fix,FLP,37.4269749,-122.1569587,-11.070125575634194,1.5249676,11.33,277.23575,1678160259278,,,1595071286086228,5.8457985,Walk
Fix,NLP,37.4270055,-122.157,-14.200000762939451,,42.5,,1678160259578,,,1595071586000000,3.7772763,Walk
Fix,GPS,37.4270018807,-122.1569791944,-10.214232692321591,1.3553735,8.330404,282.32278,1678160258999,0.41571823,19.43989,1595071547747000,6.6910653,Walk
Fix,FLP,37.4269822,-122.156967,-14.200000762939451,1.5522242,11.947,277.75775,1678160259815,,,1595071823000000,6.5606227,Walk
Fix,FLP,37.4269858,-122.1569772,-14.200000762939451,1.4979155,12.189,279.5089,1678160260348,,,1595072357000000,6.5606227,Walk
Fix,GPS,37.4270057739,-122.1570059311,-10.922910535817142,1.3787397,8.20055,288.82333,1678160259999,0.5066399,22.510462,1595072547754000,6.5906596,Walk
Fix,FLP,37.4269939,-122.1569983,-14.200000762939451,1.4279803,12.846,283.58478,1678160261416,,,1595073424000000,6.5703716,Walk
Fix,GPS,37.4270056818,-122.1570327227,-11.43591712984668,1.5293587,8.074468,290.58957,1678160260999,0.3848171,14.962272,1595073547758000,6.467057,Walk
Fix,FLP,37.427001,-122.1570237,-14.200000762939451,1.4644649,13.353,287.46008,1678160261990,,,1595073998548509,6.580378,Walk
Fix,GPS,37.4270035152,-122.1570635236,-11.757043298581015,1.5923942,7.885954,292.1823,1678160261999,0.38015807,14.147257,1595074548096000,6.351414,Walk
Fix,FLP,37.4270035,-122.1570324,-10.15284128326796,1.4953388,13.606,288.56802,1678160262533,,,1595074541039171,5.710973,Walk
Fix,FLP,37.4270095,-122.1570579,-10.15284128326796,1.5546244,13.983,291.2708,1678160263618,,,1595075626020799,5.710973,Walk
Fix,GPS,37.4270047658,-122.1571019477,-12.037989493510889,1.7344716,7.4513297,294.25534,1678160262999,0.33421504,11.495575,1595075547773000,6.1946487,Walk
Fix,FLP,37.4270134,-122.1570815,-11.621730780428656,1.6481056,14.022,292.46878,1678160264160,,,1595076168511522,6.6005282,Walk
Fix,GPS,37.4270076997,-122.1571264879,-12.273926729548194,1.5502777,7.1407337,285.76804,1678160263999,0.3987495,16.724567,1595076547830000,6.0715117,Walk
Fix,FLP,37.4270144,-122.1570904,-11.621730780428656,1.6876911,13.972,292.70908,1678160264703,,,1595076711002245,6.4254565,Walk
Fix,FLP,37.4270178,-122.1571134,-11.621730780428656,1.6587049,13.79,289.28467,1678160265245,,,1595077253492723,6.4254565,Walk
Fix,GPS,37.4270115849,-122.1571459213,-12.263316049538131,1.5224439,7.011487,290.64984,1678160264999,0.36433533,14.363253,1595077547754000,5.9855704,Walk
Fix,FLP,37.4270202,-122.1571403,-11.621730780428656,1.5890712,13.361,285.72253,1678160266289,,,1595078297000000,6.620623,Walk
Fix,GPS,37.4270159359,-122.1571613594,-12.914586426979376,1.3110356,6.888252,289.65634,1678160265999,0.3497192,15.513104,1595078547837000,5.9088306,Walk
Fix,FLP,37.4270221,-122.1571618,-14.200000762939451,1.4730314,12.87,286.25784,1678160266868,,,1595078876616868,6.630623,Walk
Fix,FLP,37.4270226,-122.1571681,-14.200000762939451,1.4223045,12.737,285.44922,1678160267414,,,1595079423454392,6.630623,Walk
Fix,GPS,37.4270219496,-122.1571735301,-13.194187240988144,1.0528598,6.845454,294.25888,1678160266999,0.34751153,19.187057,1595079547872000,5.897055,Walk
Fix,FLP,37.4270244,-122.1571791,-14.200000762939451,1.2721921,12.543,287.6147,1678160267956,,,1595079965944444,6.640643,Walk
Fix,FLP,37.4270257,-122.1571843,-14.200000762939451,1.2018872,12.424,288.07285,1678160268500,,,1595080508434373,6.640643,Walk
Fix,GPS,37.4270298501,-122.1571760563,-13.208239670258369,0.89699495,6.7678432,294.25888,1678160267999,0.3629597,47.736286,1595080547961000,5.8881407,Walk
Fix,FLP,37.4270286,-122.1571942,-14.200000762939451,1.0686673,12.046,286.052,1678160269042,,,1595081050924608,6.6503816,Walk
Fix,FLP,37.42703,-122.1572005,-14.200000762939451,1.0124334,11.663,281.86508,1678160269585,,,1595081593414537,6.6503816,Walk
Fix,GPS,37.4270336466,-122.1571788049,-13.686175369756269,0.94298714,6.6590767,294.25888,1678160268999,0.5236771,15.455514,1595081547851000,5.907196,Walk
Fix,FLP,37.4270317,-122.1572107,-14.200000762939451,0.9667258,11.096,274.27084,1678160270126,,,1595082135907212,6.6603684,Walk
Fix,GPS,37.4270385952,-122.1571811452,-14.58581425281736,0.84601986,6.5972514,294.25888,1678160269999,0.47680396,18.065258,1595082547887000,5.9030423,Walk
Fix,FLP,37.4270318,-122.157216,-14.200000762939451,0.95581263,10.425,268.0326,1678160270670,,,1595082678394395,6.670378,Walk
Fix,FLP,37.4270314,-122.1572248,-14.200000762939451,0.91914046,10.058,258.88147,1678160271212,,,1595083220875352,6.670378,Walk
Fix,GPS,37.4270436623,-122.1571852741,-14.86428049875142,0.5468125,6.6351547,294.25888,1678160270999,0.44970098,20.451529,1595083548209000,5.9927344,Walk
Fix,FLP,37.4270287,-122.1572362,-10.260622334825513,0.749176,9.026,247.75034,1678160272292,,,1595084300000000,6.4954886,Walk
Fix,GPS,37.4270456382,-122.1571893398,-14.524370748452847,0.5887617,6.6767306,294.25888,1678160271999,0.3358792,17.516285,1595084547919000,6.089294,Walk
Fix,FLP,37.4270259,-122.1572422,-10.260622334825513,0.6134828,7.919,237.71478,1678160272840,,,1595084848352891,6.5054617,Walk
Fix,FLP,37.4270239,-122.1572448,-10.260622334825513,0.6038099,7.335,233.55223,1678160273381,,,1595085390842577,6.5054617,Walk
Fix,GPS,37.4270495303,-122.1571882886,-15.160653663707944,1.2538215,6.339341,227.06241,1678160272999,0.32957235,14.369729,1595085547895000,6.1808047,Walk
Fix,FLP,37.4270199,-122.1572478,-14.200000762939451,0.7077312,7.193,229.15613,1678160273925,,,1595085933331590,6.515456,Walk
Fix,FLP,37.4270168,-122.1572497,-14.200000762939451,0.7860435,6.991,226.77245,1678160274466,,,1595086475823472,6.515456,Walk
Fix,GPS,37.4270446023,-122.1571939129,-14.981215996838628,1.1813898,6.232846,216.23814,1678160273999,0.3769299,16.992958,1595086547968000,6.3034997,Walk
Fix,FLP,37.427012,-122.1572515,-14.200000762939451,0.8716032,6.926,223.69592,1678160275010,,,1595087018310106,6.5254564,Walk
Fix,GPS,37.4270386732,-122.1571975073,-14.74855109668843,1.1774999,6.229107,216.00406,1678160274999,0.40603217,18.233206,1595087548033000,6.4080396,Walk
Fix,FLP,37.4270101,-122.1572517,-14.200000762939451,0.902686,6.873,222.64209,1678160275552,,,1595087560784471,6.720623,Walk
Fix,NLP,37.4265841,-122.1577761,-5.699999809265137,,87.6,,1678160275785,,,1595087793000000,56.837437,Walk
Fix,FLP,37.4270048,-122.1572529,-14.200000762939451,0.9603506,6.799,220.6659,1678160276094,,,1595088103289049,6.498205,Walk
Fix,FLP,37.427002,-122.1572542,-14.200000762939451,0.9764241,6.763,220.27225,1678160276637,,,1595088645783983,6.498205,Walk
Fix,GPS,37.4270328156,-122.1572000639,-14.968509989467602,1.166248,6.1574807,211.99992,1678160275999,0.3658045,16.010593,1595088547989000,6.4604235,Walk
Fix,FLP,37.4269972,-122.1572558,-12.43616351711163,0.99637645,6.725,219.68564,1678160277180,,,1595089188267381,6.506413,Walk
Fix,GPS,37.427025262,-122.1572005601,-15.084578476796525,0.96485674,6.150861,211.99992,1678160276999,0.5054856,19.105124,1595089548002000,6.5742493,Walk
Fix,FLP,37.4269947,-122.1572571,-12.43616351711163,1.0065165,6.712,219.79686,1678160277722,,,1595089730756822,6.506413,Walk
Fix,GPS,37.4270230681,-122.1571954668,-14.335466095902351,0.0,5.8370094,211.99992,1678160277999,0.028582992,67.8148,1595090548024000,6.0504594,Walk
Fix,FLP,37.426991,-122.1572592,-11.352768406687352,0.9881667,6.716,221.5349,1678160278264,,,1595090273246385,6.440145,Walk
Fix,NLP,37.4266803,-122.1577339,-13.700000762939451,,92.9,,1678160279570,,,1595091579000000,16.594904,Walk
Fix,FLP,37.4269955,-122.1572565,-13.700000762939451,0.7298056,6.708,236.53017,1678160279350,,,1595091358225206,11.78794,Walk
Fix,GPS,37.4270230681,-122.1571954668,-14.532939398062362,0.0,5.602879,211.99992,1678160278999,0.039524037,44.203236,1595091548011000,5.9417963,Walk
Fix,FLP,37.4270027,-122.1572448,-13.700000762939451,0.58500457,6.64,245.61235,1678160279868,,,1595091876616868,10.2793,Walk
Fix,GPS,37.4270167896,-122.1572003034,-14.91908649649223,1.1302251,5.3779426,227.26985,1678160279999,0.263724,12.568599,1595092547969000,5.7928257,Walk
Fix,FLP,37.4270042,-122.1572417,-11.389555377830035,0.53439593,6.618,244.61105,1678160280435,,,1595092443196580,4.76521,Walk
Fix,FLP,37.4270018,-122.1572433,-11.389555377830035,0.560179,6.999,243.68121,1678160280533,,,1595092542682169,4.76521,Walk
Fix,NLP,37.4268643,-122.155268,,,800.0,,1678160280991,,,1595092999000000,,Walk
Fix,FLP,37.4270004,-122.1572425,-11.389555377830035,0.5513767,7.387,240.88695,1678160281040,,,1595093048991190,4.76521,Walk
Fix,GPS,37.4270090418,-122.1572110573,-15.656468545591576,1.4280076,5.637467,211.46648,1678160280999,0.2901958,10.637776,1595093547985000,5.789943,Walk
Fix,FLP,37.4269978,-122.1572431,-13.700000762939451,0.49954936,7.831,234.7355,1678160281546,,,1595093555325114,4.5923533,Walk
Fix,FLP,37.4269943,-122.1572396,-13.700000762939451,0.46435413,8.638,223.54659,1678160282558,,,1595094567972514,4.5923533,Walk
Fix,GPS,37.4270004036,-122.1572185199,-15.971131369544825,1.2887012,5.537569,206.59647,1678160281999,0.27463582,10.978124,1595094548005000,5.753203,Walk
Fix,FLP,37.4269929,-122.1572349,-6.279840002093458,0.48440197,8.528,216.89983,1678160283066,,,1595095074295634,4.50976,Walk
Fix,FLP,37.4269908,-122.157234,-6.279840002093458,0.4972144,8.538,213.8931,1678160283572,,,1595095580623332,4.50976,Walk
Fix,GPS,37.4269914632,-122.1572202997,-15.724150692078902,1.3933787,4.9815927,208.12137,1678160282999,0.040480543,10.0,1595095548014000,5.5231056,Walk
Fix,FLP,37.4269872,-122.1572317,-11.461993435750252,0.53207934,8.208,209.00027,1678160284078,,,1595096086950541,4.507342,Walk
Fix,FLP,37.426984,-122.1572314,-11.461993435750252,0.5535743,8.286,206.68518,1678160284585,,,1595096593272501,4.507342,Walk
Fix,GPS,37.4269787962,-122.1572226535,-15.644984170927964,1.4449257,5.025032,206.86214,1678160283999,0.22278388,10.0,1595096548024000,5.443946,Walk
Fix,FLP,37.4269781,-122.1572309,-13.700000762939451,0.60104805,8.121,203.19736,1678160285090,,,1595097099615702,4.498715,Walk
Fix,GPS,37.4269664145,-122.1572196271,-16.092169164386547,1.3673811,4.792858,198.76433,1678160284999,0.034877617,10.0,1595097548041000,5.2625246,Walk
Fix,FLP,37.4269751,-122.1572308,-17.26818927663652,0.62678635,8.134,201.67923,1678160285597,,,1595097605949809,4.5318217,Walk
Fix,FLP,37.4269682,-122.1572303,-17.26818927663652,0.67325425,7.295,198.72684,1678160286104,,,1595098112285258,4.5318217,Walk
Fix,GPS,37.4269532129,-122.1572238913,-15.848746483582438,1.2596966,4.9106593,200.71577,1678160285999,0.2573863,11.267161,1595098548102000,5.240037,Walk
Fix,FLP,37.4269643,-122.1572303,-17.955088152191614,0.6947831,6.907,197.13943,1678160286610,,,1595098618622477,4.5403094,Walk
Fix,FLP,37.4269561,-122.1572307,-17.955088152191614,0.7335371,6.496,194.49428,1678160287116,,,1595099124950114,4.5403094,Walk
Fix,GPS,37.4269487989,-122.1572299352,-15.856995616293426,1.2728646,4.7921453,210.01788,1678160286999,0.031033365,10.0,1595099548074000,5.0948863,Walk
Fix,FLP,37.4269526,-122.1572308,-18.28004223178774,0.7515554,6.44,193.38933,1678160287623,,,1595099631303019,4.449225,Walk
Fix,NLP,37.4266981,-122.1576338,-13.700000762939451,,82.5,,1678160287801,,,1595099810000000,79.41702,Walk
Fix,FLP,37.4269433,-122.1572322,-18.28004223178774,0.80141354,6.42,191.28268,1678160288129,,,1595100137641581,4.468749,Walk
Fix,GPS,37.4269392944,-122.1572358803,-16.286142258651065,1.3976107,5.1698184,207.8344,1678160287999,0.041112483,10.0,1595100548085000,4.9822245,Walk
Fix,FLP,37.4269406,-122.1572329,-18.398480332183794,0.81921923,6.443,191.12943,1678160288635,,,1595100643990213,4.4628544,Walk
Fix,FLP,37.4269322,-122.1572361,-18.398480332183794,0.85748696,6.534,191.34694,1678160289142,,,1595101150331522,4.4628544,Walk
Fix,GPS,37.4269320319,-122.1572372493,-16.54044878677535,1.3560891,5.1696134,207.90948,1678160288999,0.03337308,10.0,1595101548099000,4.8329406,Walk
Fix,FLP,37.4269291,-122.1572375,-17.753371842599478,0.8789317,6.609,191.73555,1678160289648,,,1595101656676737,6.3250556,Walk
Fix,FLP,37.42692,-122.1572418,-17.753371842599478,0.9170406,6.757,192.61543,1678160290155,,,1595102163023722,6.3250556,Walk
Fix,GPS,37.4269202022,-122.1572443642,-16.63881926899718,1.3625705,5.303908,208.1841,1678160289999,0.25799555,10.0,1595102548117000,4.8526077,Walk
Fix,FLP,37.4269179,-122.157243,-17.754384132843754,0.9351629,6.825,193.03307,1678160290661,,,1595102669370524,6.01557,Walk
Fix,FLP,37.4269078,-122.1572481,-17.754384132843754,0.9690202,6.977,193.90968,1678160291267,,,1595103275163255,6.01557,Walk
Fix,GPS,37.4269084179,-122.1572510386,-16.74187637809594,1.4997499,5.303873,199.89705,1678160290999,0.29820713,10.208216,1595103548245000,4.840118,Walk
Fix,NLP,37.4268316,-122.157251,5.300000190734863,,33.848,,1678160291849,,,1595103857000000,92.0229,Walk
Fix,FLP,37.426903,-122.1572517,-17.947729346770465,1.005029,6.959,194.69412,1678160291808,,,1595103817667222,5.972544,Walk
Fix,FLP,37.4268953,-122.1572563,-17.947729346770465,1.0252377,6.963,195.09657,1678160292351,,,1595104360199266,5.972544,Walk
Fix,GPS,37.4268981007,-122.1572538117,-17.07665822315312,1.3164865,5.303837,205.28517,1678160291999,0.034513842,10.0,1595104548398000,4.6709538,Walk
Fix,FLP,37.4268884,-122.1572605,-17.81461518418495,1.0394832,6.949,195.54156,1678160292867,,,1595104876616868,5.4945087,Walk
Fix,FLP,37.4268834,-122.1572636,-17.81461518418495,1.0528282,7.006,195.9793,1678160293437,,,1595105445238145,5.4945087,Walk
Fix,GPS,37.426886822,-122.1572593761,-17.226886329365744,1.4821815,5.3038015,196.18275,1678160292999,0.2456441,10.0,1595105548156000,4.692261,Walk
Fix,FLP,37.4268759,-122.1572688,-17.83486081935787,1.0821803,7.059,196.7276,1678160293979,,,1595105987757860,5.388136,Walk
Fix,GPS,37.4268768459,-122.1572654559,-17.606639231656846,1.3379375,5.3037643,207.79984,1678160293999,0.04992119,10.0,1595106548180000,4.584607,Walk
Fix,FLP,37.4268714,-122.1572718,-17.83486081935787,1.0999218,7.124,197.12706,1678160294522,,,1595106530267808,5.0868425,Walk
Fix,FLP,37.426864,-122.1572772,-17.83486081935787,1.1260209,7.232,197.98315,1678160295063,,,1595107072798387,5.0868425,Walk
Fix,GPS,37.4268654387,-122.1572709384,-17.68079666281995,1.343465,5.303727,207.1067,1678160294999,0.25695556,10.760361,1595107548229000,4.6322317,Walk
Fix,FLP,37.4268597,-122.1572803,-17.813096759592042,1.1366367,7.337,198.45738,1678160295606,,,1595107615318406,4.8412466,Walk
Fix,FLP,37.4268517,-122.157286,-17.813096759592042,1.1468996,7.409,199.01607,1678160296149,,,1595108157827012,4.8412466,Walk
Fix,GPS,37.426853514,-122.1572797807,-17.685554477676337,1.3465886,5.303691,209.27266,1678160295999,0.040026784,10.0,1595108548212000,4.520438,Walk
Fix,FLP,37.4268484,-122.1572889,-17.813096759592042,1.1573137,7.51,199.49156,1678160296692,,,1595108700359239,4.7299905,Walk
Fix,NLP,37.4266785,-122.1575171,-13.90000057220459,,37.446,,1678160296949,,,1595108957000000,69.50054,Walk
Fix,FLP,37.4268397,-122.1572975,-17.623797690527383,1.1753051,7.999,200.40753,1678160297234,,,1595109242879686,4.594865,Walk
Fix,GPS,37.4268419899,-122.157287208,-17.652608561375125,1.2769992,5.3036537,200.03165,1678160296999,0.2682163,12.507945,1595109548252000,4.5888534,Walk
Fix,FLP,37.4268331,-122.1573044,-17.688894947436545,1.1820918,8.215,201.13455,1678160297777,,,1595109785388597,4.512126,Walk
Fix,FLP,37.4268275,-122.1573091,-17.688894947436545,1.1877748,8.336,201.80699,1678160298319,,,1595110327914781,4.512126,Walk
Fix,GPS,37.426830379,-122.1572924846,-17.642704406977312,1.2609081,5.3036165,200.92899,1678160297999,0.39368045,18.426207,1595110548449000,4.6728253,Walk
Fix,FLP,37.4268215,-122.1573147,-17.718953902171698,1.1968029,8.518,202.87291,1678160298861,,,1595110870438524,4.5270286,Walk
Fix,FLP,37.4268159,-122.1573192,-17.718953902171698,1.2013401,8.626,203.35695,1678160299403,,,1595111412957872,4.5270286,Walk
Fix,GPS,37.4268195527,-122.1572996078,-17.664308530417923,1.164068,5.8602853,224.91214,1678160298999,0.27608374,12.168408,1595111548245000,4.761207,Walk
Fix,FLP,37.4268098,-122.1573248,-17.75640871296803,1.2042068,8.766,204.22491,1678160299946,,,1595111955479845,4.5161467,Walk
Fix,FLP,37.4268043,-122.1573292,-17.75640871296803,1.2037729,8.856,204.6775,1678160300489,,,1595112497995164,4.5161467,Walk
Fix,GPS,37.4268113867,-122.1573064917,-17.614625201243527,1.1631548,5.30354,213.15831,1678160299999,0.32514185,15.314254,1595112548258000,4.8266706,Walk
Fix,FLP,37.4267952,-122.1573371,-17.664093926296268,1.1985223,9.0,205.86674,1678160301032,,,1595113040514207,4.446231,Walk
Fix,GPS,37.4268007246,-122.1573125214,-17.73330872925279,1.6470214,5.348799,201.17621,1678160300999,0.275952,10.0,1595113548284000,4.9240136,Walk
Fix,FLP,37.4267946,-122.1573381,-17.821877355656888,1.1981727,9.044,206.1843,1678160301575,,,1595113583034227,4.436504,Walk
Fix,FLP,37.4267879,-122.1573427,-17.821877355656888,1.2162191,9.081,206.38087,1678160302116,,,1595114125555223,4.436504,Walk
Fix,NLP,37.4265987,-122.1574853,-13.700000762939451,,45.597,,1678160301933,,,1595113941000000,13.197526,Walk
Fix,GPS,37.4267860132,-122.1573193919,-17.779250944790345,1.6233011,5.38694,212.29327,1678160301999,0.28375474,10.0,1595114548291000,4.9693146,Walk
Fix,FLP,37.4267808,-122.1573479,-17.824278193916875,1.2620227,9.287,206.79066,1678160302659,,,1595114668075425,4.4495764,Walk
Fix,FLP,37.4267709,-122.1573492,-17.824278193916875,1.2844267,9.5,206.8779,1678160303202,,,1595115210597092,4.4495764,Walk
Fix,GPS,37.4267733105,-122.1573278695,-17.58471371029367,1.3776972,5.531519,197.82463,1678160302999,0.33380073,12.807801,1595115548308000,5.0563035,Walk
Fix,FLP,37.4267664,-122.1573451,-17.745713973998498,1.2909034,9.563,206.32597,1678160303745,,,1595115753122117,4.4851003,Walk
Fix,FLP,37.4267627,-122.1573444,-17.745713973998498,1.2899716,9.61,205.77286,1678160304287,,,1595116295648728,4.4851003,Walk
Fix,GPS,37.4267601086,-122.1573314339,-18.041668631312664,1.3655883,5.3033867,202.58122,1678160303999,0.05542142,10.0,1595116548322000,4.845003,Walk
Fix,FLP,37.426756,-122.1573428,-17.78796577389975,1.2913418,9.578,205.03014,1678160304830,,,1595116838159166,4.4824595,Walk
Fix,FLP,37.4267508,-122.1573429,-17.78796577389975,1.2936829,9.527,204.81187,1678160305371,,,1595117380694505,4.4824595,Walk
Fix,GPS,37.4267495824,-122.1573348896,-18.313461826335008,1.4291651,5.3860893,203.29895,1678160304999,0.327072,11.201479,1595117548400000,4.9155297,Walk
Fix,FLP,37.4267427,-122.1573437,-17.69774459538936,1.3006314,9.393,204.53952,1678160305915,,,1595117923220506,4.4808474,Walk
Fix,GPS,37.4267402328,-122.1573404872,-18.212991487288363,1.0627676,5.9033604,204.38591,1678160305999,0.39626357,17.908566,1595118548344000,4.99522,Walk
Fix,FLP,37.4267388,-122.1573445,-17.70104235981546,1.3067061,9.303,204.47318,1678160306456,,,1595118465746873,4.499238,Walk
Fix,FLP,37.4267308,-122.1573472,-17.70104235981546,1.2997241,9.119,204.26259,1678160307000,,,1595119008273301,4.499238,Walk
Fix,GPS,37.4267325235,-122.1573454097,-18.300460579121527,1.270509,5.9701543,214.15529,1678160306999,0.42785957,16.446085,1595119548390000,5.0699673,Walk
Fix,FLP,37.4267272,-122.1573489,-17.145152654660173,1.2903916,9.003,204.18767,1678160307542,,,1595119550800828,4.541134,Walk
Fix,NLP,37.4265449,-122.1573827,-5.900000095367432,,44.063,,1678160307917,,,1595119925000000,45.05146,Walk
Fix,FLP,37.4267186,-122.1573542,-17.288775051419606,1.2696593,8.665,204.07333,1678160308085,,,1595120093329759,4.439625,Walk
Fix,GPS,37.4267224873,-122.157351955,-18.262175217493265,1.036813,6.2092037,198.07376,1678160307999,0.41614634,18.323606,1595120548388000,5.1575937,Walk
Fix,FLP,37.4267169,-122.1573556,-17.382166999762802,1.2704512,8.476,203.83792,1678160308627,,,1595120635861619,4.5003686,Walk
Fix,FLP,37.4267074,-122.1573617,-17.382166999762802,1.2561445,7.987,203.1511,1678160309169,,,1595121178387620,4.5003686,Walk
Fix,GPS,37.426712412,-122.1573566955,-18.2169304002824,1.1131979,6.4199324,189.11615,1678160308999,0.4297556,18.359093,1595121548411000,5.291884,Walk
Fix,FLP,37.4267064,-122.1573623,-17.289410246391725,1.2475203,7.888,202.75848,1678160309712,,,1595121720906358,4.4648,Walk
Fix,FLP,37.4266967,-122.1573675,-17.289410246391725,1.2295179,7.445,202.13847,1678160310254,,,1595122263448106,4.4648,Walk
Fix,GPS,37.426702026,-122.1573610908,-18.27094189730612,1.1155869,6.674341,190.5711,1678160309999,0.52463853,20.774744,1595122548499000,5.3968797,Walk
Fix,FLP,37.4266917,-122.1573697,-17.396050137989356,1.2165376,7.172,201.46419,1678160310797,,,1595122805979478,4.5532875,Walk
Fix,FLP,37.4266864,-122.157372,-17.396050137989356,1.2093067,6.956,200.83664,1678160311340,,,1595123348510606,4.5532875,Walk
Fix,GPS,37.4266970296,-122.1573651411,-17.960307554598476,0.9383168,7.0529213,190.5711,1678160310999,0.5038387,25.880194,1595123548410000,5.5657697,Walk
Fix,FLP,37.4266806,-122.157374,-17.629365370711398,1.1881931,6.753,199.48367,1678160311868,,,1595123876616868,4.656309,Walk
Fix,NLP,37.4265461,-122.1576322,-13.700000762939451,,27.425,,1678160312194,,,1595124202000000,5.413359,Walk
Fix,FLP,37.4266753,-122.1573777,-16.59024217401543,1.1776409,6.491,198.85732,1678160312425,,,1595124433575059,4.488019,Walk
Fix,GPS,37.4266891563,-122.1573686288,-17.851946452462553,1.2947204,9.018137,190.21591,1678160311999,0.59155726,19.076157,1595124548427000,5.7437453,Walk
Fix,FLP,37.4266633,-122.1573847,-16.55267825860598,1.187426,6.257,199.16003,1678160313468,,,1595125477000000,4.470696,Walk
Fix,GPS,37.4266774234,-122.1573710995,-18.20220994424936,1.326964,9.018319,190.70201,1678160312999,0.7783513,25.02349,1595125548499000,6.0188975,Walk
Fix,FLP,37.4266552,-122.1573901,-16.3601686783679,1.187556,6.294,200.69038,1678160314053,,,1595126061178209,4.6360035,Walk
Fix,FLP,37.4266477,-122.1573959,-16.60160485281805,1.1907743,6.408,201.62752,1678160314595,,,1595126603714280,4.646226,Walk
Fix,FLP,37.4266433,-122.1574016,-16.60160485281805,1.1923289,6.619,203.60486,1678160315138,,,1595127146243516,4.646226,Walk
Fix,FLP,37.4266367,-122.157408,-23.198191536936577,1.1874359,6.863,204.96872,1678160315680,,,1595127688787523,4.6599574,Walk
Fix,NLP,37.4310842,-122.1542035,,,699.999,,1678160316200,,,1595128208000000,,Walk
Fix,FLP,37.4266357,-122.1574114,-23.198191536936577,1.1787829,7.11,206.49097,1678160316223,,,1595128231310960,4.6599574,Walk
Fix,FLP,37.4266306,-122.1574181,-23.198191536936577,1.1690949,7.488,208.13448,1678160316767,,,1595128776000000,4.6599574,Walk
Fix,FLP,37.4266236,-122.1574295,-19.61872236959826,1.1528221,8.5,211.35106,1678160317308,,,1595129316394944,4.669987,Walk
Fix,FLP,37.4266211,-122.157435,-19.61872236959826,1.144471,8.714,213.07397,1678160317850,,,1595129858934068,4.669987,Walk
Fix,FLP,37.4266164,-122.1574438,-16.346502273604386,1.1337408,9.27,215.04926,1678160318393,,,1595130401469224,4.6859674,Walk
Fix,FLP,37.4266141,-122.1574504,-16.346502273604386,1.1279571,9.652,216.85887,1678160318935,,,1595130943993822,4.6859674,Walk
Fix,FLP,37.4266093,-122.1574598,-16.346502273604386,1.1258657,9.861,218.55399,1678160319478,,,1595131486538011,4.6859674,Walk
Fix,FLP,37.4266065,-122.1574663,-13.700000762939451,1.1307149,10.468,219.80731,1678160320021,,,1595132029071702,4.6999874,Walk
Fix,FLP,37.4266017,-122.1574751,-13.700000762939451,1.1392546,10.918,220.7466,1678160320562,,,1595132571603868,4.6999874,Walk
Fix,FLP,37.4265983,-122.1574815,-13.700000762939451,1.1500312,11.113,221.37761,1678160321093,,,1595133101000000,4.6999874,Walk
Fix,NLP,37.4265525,-122.1576991,-13.700000762939451,,17.651,,1678160321962,,,1595133971000000,2.5375168,Walk
Fix,FLP,37.4265911,-122.1574923,-13.700000762939451,1.160265,11.921,222.0143,1678160321648,,,1595133656666124,4.363211,Walk
Fix,FLP,37.4265817,-122.1575197,-13.700000762939451,1.1820918,12.408,223.16838,1678160322733,,,1595134741724778,4.363211,Walk
Fix,FLP,37.4265724,-122.157542,-16.744245831364665,1.1950328,12.653,223.68652,1678160323818,,,1595135826779649,4.3832707,Walk
Fix,FLP,37.4265661,-122.1575579,-16.744245831364665,1.2056471,12.747,224.08174,1678160324361,,,1595136369306260,4.3832707,Walk
Fix,FLP,37.4265626,-122.1575684,-16.744245831364665,1.2142348,12.819,224.38092,1678160324868,,,1595136876616868,4.3832707,Walk
Fix,FLP,37.4265572,-122.1575801,-20.61458643832197,1.2224566,12.905,224.63158,1678160325446,,,1595137454357896,4.399231,Walk
Fix,FLP,37.4265521,-122.1575901,-20.61458643832197,1.2304977,12.936,224.83173,1678160325988,,,1595137996871079,4.399231,Walk
Fix,FLP,37.4265466,-122.1576007,-20.61458643832197,1.2379687,13.009,225.02585,1678160326530,,,1595138539404832,4.399231,Walk
Fix,NLP,37.4310842,-122.1542035,,,699.999,,1678160326266,,,1595138274000000,,Walk
Fix,FLP,37.4265342,-122.1576231,-13.700000762939451,1.252168,13.183,225.40152,1678160327575,,,1595139583000000,4.412361,Walk
Fix,FLP,37.4265242,-122.1576375,-13.700000762939451,1.2602656,13.652,225.5017,1678160328158,,,1595140166970262,4.423231,Walk
Fix,FLP,37.4265198,-122.1576431,-13.700000762939451,1.2653946,13.813,225.50087,1678160328701,,,1595140709490526,4.423231,Walk
Fix,FLP,37.4265128,-122.1576509,-13.700000762939451,1.2713304,14.099,225.43518,1678160329243,,,1595141251998887,4.439211,Walk
Fix,FLP,37.4265078,-122.1576559,-13.700000762939451,1.2775445,14.409,225.34618,1678160329786,,,1595141794528490,4.439211,Walk
Fix,FLP,37.4264994,-122.1576639,-13.700000762939451,1.2838236,14.834,225.17636,1678160330329,,,1595142337046373,4.439211,Walk
Fix,FLP,37.4264938,-122.1576678,-13.700000762939451,1.290245,14.991,224.96194,1678160330868,,,1595142876616868,4.452201,Walk
Fix,FLP,37.4264862,-122.1576732,-13.700000762939451,1.2968094,15.413,224.6833,1678160331414,,,1595143422070481,4.452201,Walk
Fix,FLP,37.426479,-122.1576778,-13.700000762939451,1.3031152,15.737,224.38437,1678160331933,,,1595143942000000,4.452201,Walk
Fix,NLP,37.4265463,-122.1577381,-13.700000762939451,,85.451,,1678160332084,,,1595144093000000,3.6884313,Walk
Fix,FLP,37.4264649,-122.1576866,-13.700000762939451,1.3116895,16.328,223.78593,1678160332498,,,1595144507110887,3.9866326,Walk
Fix,FLP,37.4264573,-122.15769,-13.700000762939451,1.3159308,16.614,223.36012,1678160333040,,,1595145049616258,3.9987836,Walk
Fix,FLP,37.4264495,-122.1576937,-13.700000762939451,1.3202809,16.914,222.937,1678160333584,,,1595145592140428,3.9987836,Walk
Fix,FLP,37.426442,-122.1576961,-13.700000762939451,1.3256285,17.186,222.45227,1678160334126,,,1595146134654283,4.0085926,Walk
Fix,FLP,37.4264342,-122.1576991,-13.700000762939451,1.3313099,17.507,221.99242,1678160334669,,,1595146677167894,4.0085926,Walk
Fix,FLP,37.4264257,-122.1577023,-13.700000762939451,1.3372457,17.812,221.47896,1678160335211,,,1595147219680833,4.0085926,Walk
Fix,FLP,37.4264178,-122.157705,-13.700000762939451,1.3434423,18.148,220.98665,1678160335754,,,1595147762181810,4.02204,Walk
Fix,FLP,37.4264088,-122.1577083,-13.700000762939451,1.3498572,18.477,220.45918,1678160336296,,,1595148304705431,4.02204,Walk
Fix,FLP,37.4264006,-122.157711,-13.700000762939451,1.3564422,18.828,219.95206,1678160336815,,,1595148823000000,4.02204,Walk
Fix,NLP,37.4263502,-122.1570041,-13.700000762939451,,88.181,,1678160337170,,,1595149178000000,4.134573,Walk
Fix,FLP,37.4263893,-122.1577125,-13.700000762939451,1.366568,19.461,219.08401,1678160337330,,,1595149339000000,4.4660482,Walk
Fix,FLP,37.4263744,-122.1577186,-13.700000762939451,1.3741138,19.939,218.30272,1678160337868,,,1595149876616868,4.4660482,Walk
Fix,FLP,37.4263669,-122.1577212,-9.530793974647132,1.379121,20.285,217.87207,1678160338466,,,1595150474747789,4.4810286,Walk
Fix,FLP,37.4263584,-122.1577242,-9.530793974647132,1.3849821,20.591,217.4081,1678160339009,,,1595151017256944,4.4810286,Walk
Fix,FLP,37.4263506,-122.1577268,-9.530793974647132,1.3911322,20.928,216.96686,1678160339551,,,1595151559768723,4.4810286,Walk
Fix,FLP,37.4263413,-122.15773,-10.073780048137117,1.3978829,21.209,216.45424,1678160340094,,,1595152102262253,4.183114,Walk
Fix,FLP,37.4263335,-122.1577321,-10.073780048137117,1.4050021,21.504,215.98863,1678160340636,,,1595152644781541,4.183114,Walk
Fix,FLP,37.4263242,-122.1577353,-10.073780048137117,1.4124734,21.775,215.49162,1678160341178,,,1595153187288255,4.183114,Walk
Fix,FLP,37.426316,-122.1577376,-11.86880614770002,1.42011,22.057,215.03185,1678160341721,,,1595153729794908,4.5100284,Walk
Fix,FLP,37.4263066,-122.1577406,-11.86880614770002,1.4279275,22.441,214.54279,1678160342268,,,1595154276000000,4.5100284,Walk
Fix,NLP,37.4263674,-122.1568954,-13.700000762939451,,83.606,,1678160342116,,,1595154124000000,6.5286098,Walk
Fix,FLP,37.4262869,-122.1577453,-13.700000762939451,1.4421537,23.046,213.40263,1678160342805,,,1595154814806322,4.666472,Walk
Fix,FLP,37.4262787,-122.1577481,-13.700000762939451,1.4462954,23.275,213.01176,1678160343348,,,1595155357311142,4.7364197,Walk
Fix,FLP,37.4262712,-122.1577505,-13.700000762939451,1.4503381,23.538,212.65454,1678160343868,,,1595155876616868,4.7364197,Walk
Fix,FLP,37.4262638,-122.1577526,-13.700000762939451,1.4549832,23.813,212.27666,1678160344434,,,1595156442308519,4.7364197,Walk
Fix,FLP,37.4262554,-122.1577551,-13.700000762939451,1.4600439,24.067,211.8727,1678160344976,,,1595156984823900,4.9616385,Walk
Fix,FLP,37.4262477,-122.1577572,-13.700000762939451,1.4655008,24.366,211.49182,1678160345518,,,1595157527327256,4.9616385,Walk
Fix,FLP,37.426239,-122.1577599,-13.700000762939451,1.4704479,24.653,211.09209,1678160346061,,,1595158069830186,4.8989625,Walk
Fix,FLP,37.4262313,-122.1577619,-13.700000762939451,1.4756615,24.967,210.71175,1678160346604,,,1595158612322618,4.8989625,Walk
Fix,NLP,37.4263301,-122.1566799,-13.700000762939451,,62.794,,1678160347141,,,1595159149000000,7.5808525,Walk
Fix,FLP,37.4262232,-122.1577638,-13.700000762939451,1.4809527,25.384,210.304,1678160347146,,,1595159154837815,4.356709,Walk
Fix,FLP,37.4262127,-122.1577647,-13.700000762939451,1.4897791,25.843,209.62856,1678160347672,,,1595159681000000,4.356709,Walk
Fix,FLP,37.4262041,-122.157767,-11.344471238182294,1.4944515,26.156,209.24667,1678160348207,,,1595160215000000,4.2963886,Walk
Fix,FLP,37.4261891,-122.1577707,-11.344471238182294,1.4995651,26.731,208.55743,1678160348773,,,1595160782327501,4.2963886,Walk
Fix,FLP,37.4261816,-122.157772,-13.700000762939451,1.5027841,26.954,208.16884,1678160349316,,,1595161324840440,4.381219,Walk
Fix,FLP,37.4261733,-122.157774,-13.700000762939451,1.5060738,27.202,207.80081,1678160349859,,,1595161867344469,4.381219,Walk
Fix,FLP,37.4261655,-122.1577753,-13.700000762939451,1.5103616,27.413,207.40303,1678160350401,,,1595162409832322,4.778906,Walk
Fix,FLP,37.4261566,-122.1577766,-13.700000762939451,1.5151379,27.598,206.9426,1678160350944,,,1595162952342943,4.778906,Walk
Fix,FLP,37.4261484,-122.1577773,-13.700000762939451,1.5199881,27.793,206.4881,1678160351486,,,1595163494843370,4.778906,Walk
Fix,FLP,37.4261393,-122.1577785,-15.356524693989371,1.5248289,28.033,206.01672,1678160352029,,,1595164037343858,5.195821,Walk
Fix,NLP,37.4261262,-122.1568271,-13.700000762939451,,73.107,,1678160352241,,,1595164249000000,5.096783,Walk
Fix,FLP,37.4261295,-122.1577766,-13.700000762939451,1.5329454,28.296,205.20955,1678160352571,,,1595164579844101,4.099915,Walk
Fix,FLP,37.4261202,-122.1577778,-13.700000762939451,1.5370817,28.454,204.7698,1678160353113,,,1595165122332933,4.099915,Walk
Fix,FLP,37.4261122,-122.1577781,-16.082537714586067,1.5410087,28.644,204.31235,1678160353634,,,1595165642000000,4.086673,Walk
Fix,FLP,37.4261028,-122.1577787,-16.082537714586067,1.5447749,28.915,203.82059,1678160354194,,,1595166202000000,4.086673,Walk
Fix,FLP,37.4260941,-122.1577787,-13.700000762939451,1.5481585,29.145,203.31439,1678160354708,,,1595166716000000,4.1136427,Walk
Fix,FLP,37.4260846,-122.1577787,-13.700000762939451,1.5515857,29.32,202.7752,1678160355272,,,1595167280000000,4.1136427,Walk
Fix,GPS,37.4263889565,-122.1570994182,0.7767215970600376,1.1281925,17.236536,136.95244,1678160354999,0.4295839,21.050823,1595167549448000,14.811506,Walk
Fix,FLP,37.4260707,-122.1577452,-13.700000762939451,1.4119853,29.533,192.80469,1678160355826,,,1595167834827318,4.466965,Walk
Fix,FLP,37.4260666,-122.1577204,-13.700000762939451,1.3314404,29.414,185.52922,1678160356369,,,1595168377343065,4.466965,Walk
Fix,GPS,37.4263342809,-122.1571766611,-0.4004656969474389,1.3981895,13.731983,134.58046,1678160355999,0.5051571,19.762398,1595168549089000,12.728362,Walk
Fix,FLP,37.4260632,-122.1576466,-13.700000762939451,1.2403558,28.611,171.12419,1678160356911,,,1595168919842638,4.9731317,Walk
Fix,NLP,37.4261893,-122.1565812,-13.700000762939451,,57.513,,1678160357278,,,1595169286000000,4.969377,Walk
