Fix,Provider,LatitudeDegrees,LongitudeDegrees,AltitudeMeters,SpeedMps,AccuracyMeters,BearingDegrees,UnixTimeMillis,SpeedAccuracyMps,BearingAccuracyDegrees,elapsedRealtimeNanos,VerticalAccuracyMeters,TransitType
Fix,FLP,37.4232897,-122.1552557,-14.200000762939451,0.04944391,18.702,,1678160785183,0.030561186,,1595597192000000,1.1168307,Walk
Fix,GPS,37.4232898283,-122.1552553886,-18.391528013641253,0.032164577,4.560901,239.93782,1678160784999,0.3747283,180.0,1595597555501000,4.5979285,Walk
Fix,FLP,37.4232897,-122.1552555,-14.200000762939451,0.033868317,13.988,,1678160785547,0.3747283,,1595597555501000,1.1433529,Walk
Fix,GPS,37.4232900173,-122.1552552796,-18.28295696782496,0.030333433,4.715245,239.93782,1678160785999,0.43925354,38.85843,1595598555542000,4.591419,Walk
Fix,FLP,37.4232898,-122.1552556,-14.200000762939451,0.030734342,11.67,,1678160786546,0.43925354,,1595598555542000,1.2037714,Walk
Fix,GPS,37.423292014,-122.1552541445,-18.399196994542542,0.20783336,5.0201063,239.93782,1678160786999,0.52827865,36.69066,1595599555557000,4.6338725,Walk
Fix,FLP,37.4232905,-122.1552552,-14.200000762939451,0.12951529,9.402,234.76952,1678160787546,0.52827865,36.69066,1595599555557000,1.3172388,Walk
Fix,GPS,37.4232949315,-122.1552534828,-18.608759350856463,0.26858646,5.409253,239.93782,1678160787999,0.5640833,56.94429,1595600555608000,4.6935368,Walk
Fix,FLP,37.4232918,-122.1552552,-14.200000762939451,0.23525973,7.984,238.27544,1678160788547,0.5640833,56.94429,1595600555608000,1.3442134,Walk
Fix,GPS,37.4232972129,-122.155250401,-18.733373313505457,0.17452088,5.7948875,239.93782,1678160788999,0.59208316,180.0,1595601555603000,4.766015,Walk
Fix,FLP,37.4232933,-122.1552549,-19.33572690998508,0.20518017,7.859,238.64914,1678160789547,0.59208316,180.0,1595601555603000,1.3286217,Walk
Fix,NLP,37.423322,-122.1551728,-14.200000762939451,,16.46,,1678160790341,,,1595602349000000,1.0,Walk
Fix,FLP,37.4232925,-122.1552564,-22.52341788079555,0.20500167,8.692,238.65697,1678160790341,0.59208316,180.0,1595602349000000,1.6714264,Walk
Fix,GPS,37.4232961058,-122.1552492723,-18.865872060041152,0.37575877,6.1761947,239.93782,1678160789999,0.6074019,17.967663,1595602555648000,4.860071,Walk
Fix,FLP,37.4232934,-122.1552547,-23.87023531454525,0.3421342,8.853,237.39957,1678160790547,0.6074019,17.967663,1595602555648000,1.7607502,Walk
Fix,FLP,37.4232928,-122.1552549,-23.87023531454525,0.14520034,9.898,201.54373,1678160791450,,,1595603458229600,1.7607502,Walk
Fix,GPS,37.4232913108,-122.1552494016,-18.93782634530135,0.48554197,6.494298,239.93782,1678160790999,0.54319715,18.874788,1595603555672000,4.998751,Walk
Fix,FLP,37.4232944,-122.1552457,-17.875385840566743,0.28959954,10.692,132.23982,1678160791992,,,1595604000721788,1.3888017,Walk
Fix,GPS,37.4232869331,-122.1552503459,-18.697019047099293,0.4328179,6.6178274,239.93782,1678160791999,0.54400676,95.46606,1595604555659000,5.153341,Walk
Fix,FLP,37.4232953,-122.1552407,-16.310973646348835,0.34985507,12.085,135.00122,1678160792534,,,1595604543213670,1.4969078,Walk
Fix,FLP,37.4232953,-122.1552352,-16.310973646348835,0.37725055,12.83,138.6787,1678160793051,,,1595605059000000,1.4969078,Walk
Fix,GPS,37.4232840434,-122.1552491143,-18.68600944045409,0.46962035,6.872178,239.93782,1678160792999,0.5520015,32.825417,1595605555702000,5.316292,Walk
Fix,FLP,37.423295,-122.1552307,-14.200000762939451,0.3686071,14.403,150.03665,1678160793578,,,1595605586683823,1.4529698,Walk
Fix,FLP,37.4232942,-122.1552189,-14.200000762939451,0.4068597,15.866,157.18633,1678160794162,,,1595606170685349,1.4529698,Walk
Fix,GPS,37.4232789574,-122.1552514989,-18.85827248202813,0.5649849,6.9154177,239.93782,1678160793999,0.50947297,21.230345,1595606555747000,5.481603,Walk
Fix,FLP,37.4232951,-122.1552136,-14.200000762939451,0.42236653,15.559,156.90366,1678160794705,,,1595606713174790,1.4653283,Walk
Fix,NLP,37.4232145,-122.1553201,-14.200000762939451,,18.873,,1678160795367,,,1595607375000000,1.0,Walk
Fix,FLP,37.4232939,-122.1551992,-11.110044001643049,0.45128292,12.718,169.51,1678160795247,,,1595607255663621,1.3964022,Walk
Fix,GPS,37.423277782,-122.1552534074,-19.10888422842843,0.40105224,7.058955,239.93782,1678160794999,0.49689975,35.82107,1595607555687000,5.626006,Walk
Fix,FLP,37.4232867,-122.15519,-14.200000762939451,0.45117262,12.336,190.09984,1678160796332,,,1595608340638902,1.2985284,Walk
Fix,GPS,37.4232707316,-122.1552568445,-19.440094611047325,0.40845877,6.688699,239.93782,1678160795999,0.5280193,19.938385,1595608555751000,5.5350585,Walk
Fix,FLP,37.4232816,-122.1551821,-14.200000762939451,0.42441154,11.519,179.12161,1678160797425,,,1595609433000000,1.3167031,Walk
Fix,GPS,37.423266062,-122.1552591846,-19.87162431332929,0.6104326,6.7452908,202.25053,1678160796999,0.48634368,35.750294,1595609555761000,5.6820893,Walk
Fix,FLP,37.4232798,-122.1551711,-15.964096464909543,0.47853345,10.332,173.20705,1678160797960,,,1595609968096178,1.2894814,Walk
Fix,GPS,37.4232586614,-122.1552631661,-19.97380893846044,0.73879296,6.8591385,202.25053,1678160797999,0.6720757,21.451088,1595610556021000,5.8640323,Walk
Fix,FLP,37.4232793,-122.1551649,-19.374556004830357,0.5339188,9.458,175.73201,1678160798502,,,1595610510583421,1.1825283,Walk
Fix,GPS,37.4232530489,-122.1552672846,-20.023875031566376,0.74349105,7.058062,202.25053,1678160798999,0.7228784,12.357941,1595611555788000,6.0578446,Walk
Fix,FLP,37.4232762,-122.1551604,-14.200000762939451,0.6044361,8.434,178.2574,1678160799578,,,1595611586683823,1.3362445,Walk
Fix,NLP,37.4232019,-122.1553017,-14.200000762939451,,17.784,,1678160800297,,,1595612305000000,1.0,Walk
Fix,FLP,37.423275,-122.1551556,-14.200000762939451,0.65677166,7.181,174.70702,1678160800129,,,1595612138023423,1.3362445,Walk
Fix,GPS,37.4232427215,-122.1552761004,-20.38646724202293,0.9375979,7.202978,202.5815,1678160799999,0.589136,29.530497,1595612555804000,6.2467146,Walk
Fix,FLP,37.4232732,-122.1551555,-14.200000762939451,0.68330467,6.774,174.27985,1678160800672,,,1595612680513169,1.2218498,Walk
Fix,FLP,37.4232675,-122.1551565,-14.200000762939451,0.7760459,6.728,184.8792,1678160801214,,,1595613222990891,1.2218498,Walk
Fix,GPS,37.4232311288,-122.1552854893,-20.606270361085656,1.095886,7.385968,205.43823,1678160800999,0.7278418,29.96192,1595613555826000,6.4452863,Walk
Fix,FLP,37.4232637,-122.1551581,-10.500296164402336,0.90635407,6.41,192.65758,1678160801757,,,1595613765470628,1.3617461,Walk
Fix,FLP,37.4232599,-122.1551583,-10.500296164402336,0.9613204,6.47,192.7326,1678160802299,,,1595614307949937,1.3617461,Walk
Fix,GPS,37.4232191407,-122.1552958451,-20.941425204438527,1.1891186,7.5835695,205.43823,1678160801999,0.70339215,10.545938,1595614555860000,6.635724,Walk
Fix,FLP,37.4232562,-122.1551593,-14.200000762939451,1.0508786,6.56,197.85483,1678160802849,,,1595614857000000,1.2992345,Walk
Fix,FLP,37.4232503,-122.1551615,-14.200000762939451,1.1179255,6.938,205.31165,1678160803383,,,1595615392906664,1.2992345,Walk
Fix,GPS,37.423215696,-122.1553059704,-21.22833001299323,1.1284696,7.825477,205.43823,1678160802999,0.7247905,58.200726,1595615555804000,6.840759,Walk
Fix,FLP,37.4232473,-122.1551618,-9.957366477946032,1.1154252,7.225,211.84804,1678160803927,,,1595615935384264,1.3795605,Walk
Fix,FLP,37.4232453,-122.1551634,-9.957366477946032,1.0628409,7.462,221.14316,1678160804469,,,1595616477861070,1.3795605,Walk
Fix,GPS,37.4232147861,-122.1553173722,-21.540938676596756,1.0913391,8.0853,205.43823,1678160803999,0.7659568,48.233944,1595616555862000,7.0366125,Walk
Fix,FLP,37.4232424,-122.1551661,-14.200000762939451,1.0333307,8.02,232.78593,1678160805012,,,1595617020337572,1.2525489,Walk
Fix,NLP,37.423254,-122.1553372,-14.200000762939451,,14.751,,1678160805345,,,1595617354000000,1.127991,Walk
Fix,FLP,37.4232396,-122.1551719,-14.200000762939451,1.0520011,8.589,236.06995,1678160805554,,,1595617562813889,1.375401,Walk
Fix,GPS,37.4232200555,-122.155329465,-22.04353324185225,1.0939077,8.354332,205.43823,1678160804999,0.65339154,22.024963,1595617555872000,7.2109585,Walk
Fix,FLP,37.423235,-122.1551843,-14.200000762939451,0.99510145,8.989,257.30228,1678160806096,,,1595618105289475,1.2531549,Walk
Fix,GPS,37.4232246632,-122.155343367,-22.442222486546576,1.1129053,8.545226,292.3483,1678160805999,0.6113305,35.30508,1595618555894000,7.372688,Walk
Fix,FLP,37.4232321,-122.1551935,-14.200000762939451,1.0319865,9.486,266.1416,1678160806639,,,1595618647765061,1.1793634,Walk
Fix,FLP,37.4232276,-122.1552135,-14.200000762939451,1.0957499,10.283,272.70944,1678160807182,,,1595619190243089,1.1793634,Walk
Fix,GPS,37.4232258116,-122.1553503504,-23.06953190710217,1.0463734,8.577967,292.3483,1678160806999,0.6779369,72.23095,1595619555934000,7.504682,Walk
Fix,FLP,37.4232251,-122.1552191,-14.200000762939451,1.1173105,10.45,273.46158,1678160807724,,,1595619732706773,1.2876885,Walk
Fix,FLP,37.4232215,-122.1552428,-14.200000762939451,1.1297566,11.031,276.4101,1678160808267,,,1595620275189439,1.2876885,Walk
Fix,GPS,37.4232252933,-122.1553579077,-23.697069324322296,0.99708974,8.596757,292.3483,1678160807999,0.7450226,36.32381,1595620555878000,7.6439443,Walk
Fix,FLP,37.4232193,-122.1552706,-14.200000762939451,1.1329975,11.519,279.6421,1678160808809,,,1595620817664109,1.2256086,Walk
Fix,FLP,37.4232192,-122.1552904,-14.200000762939451,1.1309532,11.67,281.07227,1678160809352,,,1595621360137009,1.2256086,Walk
Fix,GPS,37.4232269659,-122.1553674988,-23.875802198247765,0.9781571,8.541601,292.3483,1678160808999,0.6444565,19.223217,1595621555882000,7.7288594,Walk
Fix,FLP,37.4232202,-122.1553233,-14.200000762939451,1.1300119,11.706,282.6501,1678160809894,,,1595621902609727,1.2758924,Walk
Fix,FLP,37.4232221,-122.1553427,-14.200000762939451,1.1264348,11.681,283.19397,1678160810425,,,1595622433000000,1.2758924,Walk
Fix,NLP,37.423286,-122.1554112,-14.200000762939451,,25.29,,1678160810567,,,1595622576000000,1.1224369,Walk
Fix,GPS,37.423232438,-122.1553836587,-23.928358965362648,1.0331713,8.43576,305.69208,1678160809999,0.57838255,24.219177,1595622555896000,7.7935343,Walk
Fix,FLP,37.4232271,-122.1553761,-14.200000762939451,1.1141691,11.267,284.83838,1678160810941,,,1595622950000000,1.3693618,Walk
Fix,GPS,37.4232368329,-122.1554031799,-23.926193795853152,1.1034485,8.292801,305.61877,1678160810999,0.5493502,23.019234,1595623555985000,7.851007,Walk
Fix,FLP,37.4232324,-122.1553971,-14.200000762939451,1.1152511,10.78,286.49234,1678160811522,,,1595623530018113,1.2405562,Walk
Fix,FLP,37.4232374,-122.1554171,-14.200000762939451,1.1283231,10.342,288.02444,1678160812064,,,1595624072494676,1.2405562,Walk
Fix,GPS,37.4232397142,-122.1554167271,-23.983623488393565,1.1141703,8.269235,308.73502,1678160811999,0.6246953,32.38666,1595624555982000,7.9414644,Walk
Fix,FLP,37.423239,-122.1554234,-14.200000762939451,1.1391513,10.01,288.43558,1678160812578,,,1595624586683823,1.2242769,Walk
Fix,FLP,37.4232429,-122.1554389,-14.200000762939451,1.1448668,9.303,288.6968,1678160813148,,,1595625157441087,1.2242769,Walk
Fix,GPS,37.4232491361,-122.1554359607,-23.582113758208685,1.1843162,8.153544,308.10287,1678160812999,0.60913604,28.535877,1595625556043000,8.008801,Walk
Fix,FLP,37.4232443,-122.1554453,-14.200000762939451,1.1509241,8.592,288.7786,1678160813691,,,1595625699914964,1.2479608,Walk
Fix,FLP,37.4232473,-122.1554587,-14.200000762939451,1.1684074,8.284,290.31778,1678160814234,,,1595626242382004,1.2479608,Walk
Fix,GPS,37.4232622883,-122.155463068,-23.419516460291188,1.3046683,8.044167,303.47366,1678160813999,0.54818517,26.729944,1595626555950000,8.068042,Walk
Fix,FLP,37.42325,-122.1554693,-14.200000762939451,1.2247497,7.771,292.33435,1678160814776,,,1595626784841783,1.444057,Walk
Fix,FLP,37.4232515,-122.1554756,-14.200000762939451,1.2572924,7.705,292.91815,1678160815310,,,1595627318000000,1.444057,Walk
Fix,NLP,37.4232285,-122.1554962,-14.200000762939451,,30.206,,1678160815432,,,1595627441000000,1.4717621,Walk
Fix,GPS,37.4232710225,-122.1554844535,-24.084939149450765,1.3661731,8.071155,302.55038,1678160814999,0.5685358,21.133152,1595627555979000,8.117346,Walk
Fix,FLP,37.4232538,-122.1554862,-14.200000762939451,1.3084565,7.404,293.40228,1678160815861,,,1595627869789414,1.2712492,Walk
Fix,GPS,37.4232813571,-122.155499846,-24.26737603620932,1.3991603,8.207332,299.72574,1678160815999,0.59379363,20.830942,1595628556025000,8.170819,Walk
Fix,FLP,37.4232561,-122.1554957,-14.200000762939451,1.3387756,7.424,292.755,1678160816404,,,1595628412260789,1.432018,Walk
Fix,FLP,37.4232588,-122.1555062,-14.200000762939451,1.3624749,7.48,290.90292,1678160816946,,,1595628954726426,1.432018,Walk
Fix,GPS,37.4232913492,-122.1555152574,-24.326896516158893,1.4277506,8.320278,295.98117,1678160816999,0.5467737,20.102198,1595629556079000,8.196851,Walk
Fix,FLP,37.4232603,-122.155513,-14.200000762939451,1.3744651,7.592,288.34583,1678160817489,,,1595629497194199,1.2759305,Walk
Fix,FLP,37.4232627,-122.1555249,-14.200000762939451,1.3943247,7.749,283.58612,1678160818030,,,1595630039661974,1.2759305,Walk
Fix,FLP,37.423264,-122.1555354,-14.200000762939451,1.39805,7.933,277.24313,1678160818574,,,1595630582126207,1.2759305,Walk
Fix,GPS,37.4232959572,-122.1555276447,-24.218762465095384,1.4068854,8.425098,267.204,1678160817999,0.5680442,29.063745,1595630555997000,8.223039,Walk
Fix,FLP,37.4232652,-122.1555495,-17.590968793350314,1.402938,8.145,268.25797,1678160819116,,,1595631124595994,1.2220407,Walk
Fix,GPS,37.4232973704,-122.155544977,-24.482578872590423,1.411429,8.476114,256.48438,1678160818999,0.5649553,22.096426,1595631556104000,8.254107,Walk
Fix,FLP,37.4232653,-122.1555571,-17.590968793350314,1.4067221,8.356,263.0006,1678160819659,,,1595631667050829,1.2360011,Walk
Fix,FLP,37.4232657,-122.1555709,-17.590968793350314,1.4179906,8.563,258.95343,1678160820164,,,1595632172000000,1.2360011,Walk
Fix,NLP,37.4232283,-122.1554091,-14.200000762939451,,41.203,,1678160820447,,,1595632455000000,2.013024,Walk
Fix,GPS,37.423297034,-122.1555629612,-24.840437309681235,1.4170043,8.503443,251.09705,1678160819999,0.53420466,24.109804,1595632556045000,8.280542,Walk
Fix,FLP,37.4232662,-122.155581,-19.25937847913948,1.4250875,8.871,256.5674,1678160820743,,,1595632751999254,1.1957898,Walk
Fix,FLP,37.4232657,-122.1556035,-14.200000762939451,1.426664,9.241,254.32364,1678160821286,,,1595633294461228,1.3258724,Walk
Fix,GPS,37.4232942116,-122.1555799647,-25.22127463198569,1.41895,8.554469,241.05757,1678160820999,0.61796653,27.59839,1595633556086000,8.311155,Walk
Fix,FLP,37.4232687,-122.155615,-14.200000762939451,1.4296938,9.238,253.60689,1678160821828,,,1595633836915574,1.3256756,Walk
Fix,FLP,37.4232688,-122.1556252,-14.200000762939451,1.4321536,9.283,253.13515,1678160822371,,,1595634379392931,1.3256756,Walk
Fix,GPS,37.4232887308,-122.155600846,-25.29711185585952,1.455491,8.444094,241.31804,1678160821999,0.48860526,18.259714,1595634556060000,8.330766,Walk
Fix,FLP,37.4232703,-122.1556366,-14.200000762939451,1.4381907,9.147,252.48795,1678160822913,,,1595634921847947,1.3868855,Walk
Fix,FLP,37.4232694,-122.1556473,-14.200000762939451,1.4437853,9.057,252.33849,1678160823456,,,1595635464323412,1.3868855,Walk
Fix,GPS,37.4232810656,-122.1556186084,-25.55108281834984,1.4780645,8.4644575,240.2645,1678160822999,0.5753034,21.350039,1595635556112000,8.393238,Walk
Fix,FLP,37.4232694,-122.1556593,-14.200000762939451,1.4550252,8.823,252.14647,1678160823989,,,1595635997000000,1.1821604,Walk
Fix,FLP,37.4232678,-122.1556707,-14.200000762939451,1.4619763,8.689,251.97356,1678160824505,,,1595636513000000,1.1821604,Walk
Fix,GPS,37.4232743622,-122.1556379631,-25.755617470635634,1.5028462,8.363592,242.5664,1678160823999,0.48764578,21.295334,1595636556112000,8.398192,Walk
Fix,FLP,37.423264,-122.1556939,-14.200000762939451,1.4743891,8.045,251.19409,1678160825588,,,1595637596000000,1.1896642,Walk
Fix,NLP,37.4230988,-122.1555694,-14.200000762939451,,47.987,,1678160825509,,,1595637517000000,1.4449494,Walk
Fix,GPS,37.4232674179,-122.1556586266,-25.7642074010275,1.5346079,8.196457,239.73128,1678160824999,0.48703963,19.599936,1595637556129000,8.3967085,Walk
Fix,FLP,37.4232608,-122.1557088,-11.830339367978937,1.4774417,7.971,249.62184,1678160826167,,,1595638176653916,1.1866093,Walk
Fix,GPS,37.4232598331,-122.1556751176,-25.51498445271272,1.5404558,8.01908,219.43674,1678160825999,0.46297407,19.458565,1595638556152000,8.373629,Walk
Fix,FLP,37.4232608,-122.1557075,-11.9698804992452,1.4744803,8.217,249.08626,1678160826711,,,1595638719114121,1.1677841,Walk
Fix,FLP,37.4232573,-122.1557142,-11.9698804992452,1.455047,8.768,247.22752,1678160827253,,,1595639261578660,1.1677841,Walk
Fix,GPS,37.4232487982,-122.1556900858,-25.708006844963528,1.556158,7.956334,221.21391,1678160826999,0.5819481,21.295988,1595639556182000,8.394615,Walk
Fix,FLP,37.4232535,-122.1557154,-14.200000762939451,1.434095,9.303,244.73166,1678160827796,,,1595639804043015,1.2289506,Walk
Fix,FLP,37.4232506,-122.1557189,-14.200000762939451,1.4262705,9.584,243.48874,1678160828338,,,1595640346504381,1.2289506,Walk
Fix,GPS,37.4232380207,-122.155708043,-25.88482663026273,1.5864887,7.938542,224.29323,1678160827999,0.57967705,19.62686,1595640556170000,8.399092,Walk
Fix,FLP,37.4232468,-122.1557232,-14.200000762939451,1.4220997,10.411,241.51445,1678160828879,,,1595640888962083,1.2121321,Walk
Fix,FLP,37.4232434,-122.1557286,-14.200000762939451,1.4251546,10.604,240.72171,1678160829423,,,1595641431424120,1.2121321,Walk
Fix,GPS,37.4232302808,-122.1557256074,-25.59448274780956,1.5988649,7.9245977,224.834,1678160828999,0.5334471,18.989723,1595641556197000,8.3972,Walk
Fix,FLP,37.4232392,-122.1557357,-12.3051838556866,1.4332168,11.616,239.3514,1678160829965,,,1595641973898789,1.4918053,Walk
Fix,NLP,37.4229329,-122.155517,-13.90000057220459,,53.199,,1678160830511,,,1595642519000000,1.455481,Walk
Fix,FLP,37.4232351,-122.1557431,-11.070944539826208,1.443452,12.078,238.28635,1678160830508,,,1595642516363084,1.5833502,Walk
Fix,GPS,37.4232219531,-122.155744974,-25.655248904471808,1.6211594,7.911927,232.9165,1678160829999,0.518626,20.829338,1595642556206000,8.399997,Walk
Fix,FLP,37.423229,-122.155757,-13.90000057220459,1.4607047,13.18,237.4285,1678160831049,,,1595643058815050,1.3661131,Walk
Fix,GPS,37.4232144926,-122.1557636599,-25.849405034826347,1.6327887,7.8616457,237.39008,1678160830999,0.5237991,20.951704,1595643556301000,8.392593,Walk
Fix,FLP,37.4232285,-122.1557605,-12.0333008284628,1.4681753,13.206,237.41345,1678160831578,,,1595643586683823,1.3129281,Walk
Fix,FLP,37.4232249,-122.1557746,-12.0333008284628,1.4799504,13.262,237.61401,1678160832135,,,1595644143752488,1.3129281,Walk
Fix,GPS,37.4232082287,-122.1557775316,-25.87511303344789,1.6070918,7.8295975,234.30212,1678160831999,0.5048931,24.668976,1595644556237000,8.365104,Walk
Fix,FLP,37.4232248,-122.1557787,-13.90000057220459,1.4865506,13.308,237.83954,1678160832678,,,1595644686215135,1.3236809,Walk
Fix,FLP,37.4232206,-122.1557927,-13.90000057220459,1.4964374,13.389,238.03421,1678160833220,,,1595645228679063,1.3236809,Walk
Fix,GPS,37.4232007884,-122.1557909189,-26.025161553892683,1.582542,7.7908955,228.63605,1678160832999,0.4688944,28.202963,1595645556299000,8.339562,Walk
Fix,FLP,37.4232197,-122.1557961,-13.90000057220459,1.5017548,13.571,238.08932,1678160833763,,,1595645771140183,1.3160431,Walk
Fix,FLP,37.4232139,-122.1558082,-13.90000057220459,1.5079275,13.615,237.85251,1678160834305,,,1595646313602280,1.3160431,Walk
Fix,GPS,37.423190993,-122.1557975613,-26.074875655290157,1.5423075,7.8183775,204.98885,1678160833999,0.5433159,32.199856,1595646556340000,8.340366,Walk
Fix,FLP,37.4232079,-122.1558117,-13.90000057220459,1.4954523,13.665,236.15471,1678160834844,,,1595646853000000,1.3400958,Walk
Fix,FLP,37.4232022,-122.1558193,-13.90000057220459,1.4844842,13.785,234.91518,1678160835390,,,1595647398514269,1.3400958,Walk
Fix,GPS,37.423185349,-122.1558040673,-26.38753329949483,1.4728988,7.7549686,204.98885,1678160834999,0.5889027,65.02371,1595647556325000,8.367027,Walk
Fix,FLP,37.4231939,-122.1558274,-13.90000057220459,1.4552301,14.087,231.56178,1678160836466,,,1595648474000000,1.3922365,Walk
Fix,GPS,37.4231801629,-122.1558148666,-26.586810702965995,1.4310179,7.7375784,232.87984,1678160835999,0.5901617,34.58555,1595648556460000,8.390092,Walk
Fix,FLP,37.4231853,-122.1558387,-13.90000057220459,1.4333436,14.251,229.87276,1678160837560,,,1595649568370591,1.4053607,Walk
Fix,GPS,37.4231730699,-122.1558321638,-26.924784359283212,1.4412961,7.6581087,247.88298,1678160836999,0.53710866,26.689896,1595649556353000,8.401804,Walk
Fix,FLP,37.4231832,-122.1558489,-9.08115394198466,1.4262924,14.029,230.91846,1678160838102,,,1595650110831101,1.2628202,Walk
Fix,GPS,37.4231729908,-122.1558500134,-26.814239973675896,1.440853,7.6079426,259.86874,1678160837999,0.4656788,23.133636,1595650556389000,8.367571,Walk
Fix,FLP,37.4231827,-122.1558544,-9.290955077966087,1.4243494,13.846,231.60817,1678160838644,,,1595650653286973,1.280011,Walk
Fix,FLP,37.4231827,-122.1558686,-9.290955077966087,1.4194677,13.312,233.08907,1678160839187,,,1595651195739732,1.280011,Walk
Fix,GPS,37.4231708259,-122.1558686837,-26.866005606262387,1.4504356,7.541436,268.17526,1678160838999,0.4546337,18.402502,1595651556393000,8.353966,Walk
Fix,FLP,37.4231818,-122.155879,-10.397228847493182,1.4173306,12.88,233.95384,1678160839730,,,1595651738211473,1.2900311,Walk
Fix,FLP,37.4231832,-122.1558998,-10.187427711511752,1.409056,11.617,236.31607,1678160840272,,,1595652280671372,1.2330614,Walk
Fix,GPS,37.423168926,-122.1558913882,-26.67805805175039,1.4851549,7.465383,267.12885,1678160839999,0.51364857,26.85833,1595652556402000,8.3383,Walk
Fix,FLP,37.4231836,-122.1559125,-10.618183075898038,1.408382,10.862,237.76399,1678160840815,,,1595652823131150,1.2794801,Walk
Fix,FLP,37.4231848,-122.1559239,-10.618183075898038,1.4097415,10.047,238.7485,1678160841357,,,1595653365590135,1.2794801,Walk
Fix,GPS,37.4231686183,-122.1559056826,-26.760750387018103,1.4587193,7.460758,266.46274,1678160840999,0.55701387,27.355337,1595653556359000,8.352274,Walk
Fix,FLP,37.423187,-122.1559381,-13.90000057220459,1.4088777,9.253,240.4427,1678160841900,,,1595653908049119,1.2789011,Walk
Fix,FLP,37.4231868,-122.1559474,-13.90000057220459,1.4088653,8.709,241.27542,1678160842441,,,1595654450496567,1.2789011,Walk
Fix,GPS,37.4231681656,-122.1559169152,-26.767221467545536,1.414433,7.485709,262.98376,1678160841999,0.52892065,26.546148,1595654556605000,8.37394,Walk
Fix,FLP,37.423187,-122.1559587,-12.074565696115862,1.4050348,8.009,242.7484,1678160842984,,,1595654992956223,1.3070891,Walk
Fix,FLP,37.4231861,-122.1559676,-12.074565696115862,1.4009873,7.544,243.79248,1678160843527,,,1595655535425401,1.3070891,Walk
Fix,NLP,37.4230152,-122.1560871,-13.100000381469728,,63.372,,1678160843589,,,1595655597000000,1.7877529,Walk
Fix,GPS,37.4231697483,-122.1559381912,-26.840981339885516,1.4463513,7.3675075,288.60922,1678160842999,0.52833474,19.669024,1595655556475000,8.360328,Walk
Fix,FLP,37.4231856,-122.1559803,-13.100000381469728,1.3893498,6.94,246.61935,1678160844069,,,1595656077883897,1.4244081,Walk
Fix,FLP,37.4231855,-122.155987,-13.100000381469728,1.3841987,6.732,248.04625,1678160844585,,,1595656593000000,1.4244081,Walk
Fix,GPS,37.423176185,-122.1559629713,-26.85693625970884,1.512082,7.174351,285.22513,1678160843999,0.5110044,17.432405,1595656556434000,8.297518,Walk
Fix,FLP,37.4231857,-122.155998,-13.100000381469728,1.3776245,6.456,250.69139,1678160845107,,,1595657115000000,1.3950994,Walk
Fix,FLP,37.4231861,-122.1560088,-13.100000381469728,1.376034,6.156,252.22365,1678160845661,,,1595657670000000,1.3950994,Walk
Fix,GPS,37.4231803749,-122.1559829593,-26.362249649290582,1.5363855,7.104059,297.68436,1678160844999,0.5346856,18.360003,1595657556479000,8.271744,Walk
Fix,FLP,37.4231872,-122.1560203,-13.100000381469728,1.355324,6.228,256.698,1678160846239,,,1595658247716416,1.4249916,Walk
Fix,GPS,37.4231870407,-122.1560016303,-26.51305813547097,1.5528233,7.114683,305.346,1678160845999,0.5112273,22.480753,1595658556443000,8.254136,Walk
Fix,FLP,37.4231876,-122.1560228,-13.100000381469728,1.3295666,6.777,260.31018,1678160846782,,,1595658790173142,1.440129,Walk
Fix,FLP,37.423189,-122.1560266,-13.100000381469728,1.3189373,7.11,262.20596,1678160847324,,,1595659332630479,1.440129,Walk
Fix,GPS,37.4231950553,-122.1560249849,-26.00909993040196,1.6000459,7.065199,291.6968,1678160846999,0.44933236,19.159966,1595659556471000,8.1868105,Walk
Fix,FLP,37.4231914,-122.156034,-13.100000381469728,1.3163414,7.815,265.26065,1678160847866,,,1595659875088181,1.443296,Walk
Fix,FLP,37.4231934,-122.1560402,-13.100000381469728,1.3241237,8.048,266.33942,1678160848409,,,1595660417545212,1.443296,Walk
Fix,GPS,37.4231968967,-122.1560481839,-25.2297004857535,1.627173,6.932948,283.69174,1678160847999,0.42790657,19.480766,1595660556515000,8.10296,Walk
Fix,NLP,37.4231289,-122.1566445,-12.600000381469728,,46.866,,1678160848613,,,1595660622000000,2.798113,Walk
Fix,FLP,37.4231962,-122.1560436,-13.90000057220459,1.3418523,8.698,267.9495,1678160848951,,,1595660960002671,1.4953675,Walk
Fix,FLP,37.4231972,-122.1560593,-13.90000057220459,1.3529992,9.23,268.47632,1678160849494,,,1595661502459702,1.4953675,Walk
Fix,GPS,37.4231944322,-122.1560697921,-24.86715190512981,1.6411655,6.7637258,277.61554,1678160848999,0.46310604,22.306646,1595661556543000,8.012139,Walk
Fix,FLP,37.4231983,-122.1560744,-12.600000381469728,1.3773679,10.18,269.12067,1678160850036,,,1595662044908311,1.6841971,Walk
Fix,GPS,37.4231934909,-122.1560893676,-24.67883777139988,1.6404772,6.682783,268.53055,1678160849999,0.44504437,18.05234,1595662556592000,7.972235,Walk
Fix,FLP,37.4231987,-122.1560856,-12.600000381469728,1.4015286,10.545,269.34137,1678160850578,,,1595662586683823,1.6791849,Walk
Fix,FLP,37.4231986,-122.1561033,-12.600000381469728,1.4147863,11.12,269.1603,1678160851120,,,1595663129829880,1.6791849,Walk
Fix,GPS,37.4231920568,-122.1561102549,-24.390253900762605,1.6494806,6.594854,267.72598,1678160850999,0.5357652,23.090178,1595663556554000,7.937007,Walk
Fix,FLP,37.4231984,-122.15611,-13.90000057220459,1.4277071,10.978,268.91916,1678160851664,,,1595663672285203,1.4427971,Walk
Fix,FLP,37.4231973,-122.1561267,-13.90000057220459,1.4453056,10.715,268.55765,1678160852206,,,1595664214743455,1.4427971,Walk
Fix,GPS,37.4231907479,-122.1561330045,-24.168618785485,1.6718557,6.632877,272.11642,1678160851999,0.48375413,18.026737,1595664556558000,7.9089494,Walk
Fix,FLP,37.4231965,-122.1561301,-13.90000057220459,1.4545615,10.623,268.47763,1678160852748,,,1595664757199815,1.5581386,Walk
Fix,FLP,37.4231957,-122.156146,-13.90000057220459,1.4707799,10.339,268.44208,1678160853291,,,1595665299643480,1.5581386,Walk
Fix,GPS,37.4231898145,-122.1561531882,-24.00740024894468,1.6758285,6.6954956,258.38626,1678160852999,0.4770651,18.232775,1595665556590000,7.892905,Walk
Fix,FLP,37.4231943,-122.1561544,-15.956547732193885,1.4848391,10.115,267.93045,1678160853834,,,1595665842115464,1.3982154,Walk
Fix,FLP,37.4231936,-122.156163,-15.956547732193885,1.4919959,10.087,267.4674,1678160854349,,,1595666357000000,1.3982154,Walk
Fix,GPS,37.4231840572,-122.1561748873,-24.02409040464873,1.7018899,6.8083324,250.6538,1678160853999,0.47541803,15.108814,1595666557051000,7.8781,Walk
Fix,FLP,37.4231914,-122.1561726,-15.956547732193885,1.5038414,9.962,266.25565,1678160854862,,,1595666871000000,1.4848554,Walk
Fix,GPS,37.4231813265,-122.1561947856,-24.462009260150225,1.7056323,6.9050436,260.963,1678160854999,0.50705004,19.505665,1595667556638000,7.860255,Walk
Fix,FLP,37.4231892,-122.1561847,-13.90000057220459,1.5157684,9.816,265.0896,1678160855461,,,1595667469480210,1.4778695,Walk
Fix,FLP,37.4231878,-122.1562071,-12.600000381469728,1.5302879,9.848,264.8851,1678160856546,,,1595668554388475,1.4878995,Walk
Fix,GPS,37.4231806724,-122.156213432,-24.401185939319003,1.6969237,6.967658,265.45584,1678160855999,0.54982936,23.337046,1595668556653000,7.8327684,Walk
Fix,FLP,37.4231877,-122.1562222,-12.600000381469728,1.5432837,9.919,265.1189,1678160857088,,,1595669096842759,1.6626861,Walk
Fix,GPS,37.4231819823,-122.1562323503,-24.380275485211858,1.687016,7.1580353,275.75443,1678160856999,0.5473096,26.445366,1595669556732000,7.8251147,Walk
Fix,FLP,37.4231877,-122.1562266,-12.600000381469728,1.5504031,10.064,265.23438,1678160857631,,,1595669639302415,1.6675386,Walk
Fix,FLP,37.4231879,-122.1562426,-12.600000381469728,1.5619626,10.204,265.80505,1678160858173,,,1595670181757859,1.6675386,Walk
Fix,GPS,37.4231862324,-122.1562483132,-24.683640800655315,1.6632648,7.2605796,285.4105,1678160857999,0.5665391,23.493073,1595670556657000,7.826509,Walk
Fix,FLP,37.4231884,-122.1562488,-12.600000381469728,1.568795,10.348,266.23203,1678160858715,,,1595670724212876,1.6241835,Walk
Fix,FLP,37.4231886,-122.1562635,-12.600000381469728,1.575989,10.351,267.32254,1678160859249,,,1595671257000000,1.6241835,Walk
Fix,GPS,37.4231932691,-122.1562658435,-24.897512276838963,1.6610713,7.3695335,285.84177,1678160858999,0.57886744,23.096802,1595671556782000,7.8422194,Walk
Fix,FLP,37.4231892,-122.1562727,-15.704108028849872,1.5770161,10.648,268.766,1678160859789,,,1595671797000000,1.5136778,Walk
Fix,FLP,37.42319,-122.1562844,-15.704108028849872,1.5800722,10.675,269.48355,1678160860343,,,1595672351000000,1.5136778,Walk
Fix,GPS,37.4231969241,-122.1562815724,-24.81757246373563,1.6371673,7.4066334,274.59595,1678160859999,0.53137976,23.949606,1595672556662000,7.865271,Walk
Fix,FLP,37.4231923,-122.156302,-12.600000381469728,1.581909,10.967,270.9023,1678160860885,,,1595672894030199,1.5595121,Walk
Fix,GPS,37.4231947084,-122.156303916,-24.9543567734498,1.6534581,7.4552836,274.17072,1678160860999,0.56704867,31.059223,1595673556737000,7.887005,Walk
Fix,FLP,37.4231931,-122.1563101,-12.600000381469728,1.5820994,11.137,270.91266,1678160861428,,,1595673436488022,1.5595121,Walk
Fix,FLP,37.4231945,-122.1563189,-9.898832799927916,1.582781,11.102,271.047,1678160861970,,,1595673978931382,1.5734915,Walk
Fix,FLP,37.4231952,-122.1563271,-10.57861662106366,1.5838753,11.177,271.09207,1678160862513,,,1595674521397691,1.5835015,Walk
Fix,GPS,37.4231948004,-122.1563234033,-25.1891009410285,1.6496241,7.437998,273.97302,1678160861999,0.5819546,24.047117,1595674556761000,7.8929944,Walk
Fix,FLP,37.4231959,-122.1563366,-10.420259437145395,1.5860175,11.18,271.22958,1678160863055,,,1595675063852097,1.6704605,Walk
Fix,FLP,37.4231962,-122.1563451,-10.420259437145395,1.587357,11.192,271.39426,1678160863578,,,1595675586683823,1.6704605,Walk
Fix,GPS,37.4231951823,-122.1563421588,-25.46535411650549,1.6400762,7.4338803,270.53192,1678160862999,0.58947766,26.343374,1595675556859000,7.921477,Walk
Fix,FLP,37.4231967,-122.1563552,-10.57861662106366,1.5898308,11.238,271.41962,1678160864140,,,1595676148763170,1.5865837,Walk
Fix,FLP,37.4231968,-122.1563646,-12.600000381469728,1.5905858,11.31,271.01337,1678160864683,,,1595676691215073,1.5965937,Walk
Fix,GPS,37.4231919124,-122.1563597805,-25.39249648882574,1.6258551,7.343526,259.86703,1678160863999,0.52707493,25.091192,1595676556763000,7.917304,Walk
Fix,FLP,37.4231961,-122.1563751,-12.600000381469728,1.5897082,11.297,269.91318,1678160865189,,,1595677197000000,1.768448,Walk
Fix,FLP,37.4231947,-122.156384,-12.600000381469728,1.5873458,11.283,269.0431,1678160865730,,,1595677738000000,1.768448,Walk
Fix,GPS,37.4231852938,-122.1563757727,-25.3831843904304,1.6140528,7.338233,245.54623,1678160864999,0.58121085,21.146862,1595677556795000,7.9391336,Walk
Fix,FLP,37.4231912,-122.1563943,-12.600000381469728,1.5790699,11.359,267.0666,1678160866246,,,1595678254000000,1.7779311,Walk
Fix,GPS,37.42317759,-122.1563941093,-25.53821233707996,1.6216149,7.3612175,245.01576,1678160865999,0.5908888,24.03426,1595678556831000,7.9577975,Walk
Fix,FLP,37.4231853,-122.1564063,-13.90000057220459,1.5629406,11.505,263.95032,1678160866775,,,1595678784640687,1.8368074,Walk
Fix,FLP,37.4231825,-122.1564138,-13.90000057220459,1.5597103,11.614,262.9597,1678160867286,,,1595679294984483,1.8468174,Walk
Fix,GPS,37.4231728539,-122.1564036926,-25.841724855096604,1.561406,7.4150925,246.0082,1678160866999,0.55500925,32.268963,1595679556808000,7.968726,Walk
Fix,FLP,37.4231787,-122.156421,-13.90000057220459,1.5531383,11.742,261.26627,1678160867828,,,1595679837447007,1.8329962,Walk
Fix,FLP,37.423176,-122.1564288,-13.90000057220459,1.5497485,12.016,260.46808,1678160868370,,,1595680379900620,1.8329962,Walk
Fix,GPS,37.4231700162,-122.1564153735,-26.16663145607501,1.512438,7.436222,251.98552,1678160867999,0.51611274,25.676249,1595680556824000,7.9873347,Walk
Fix,FLP,37.4231729,-122.1564356,-13.90000057220459,1.5425634,12.148,259.37384,1678160868913,,,1595680922353989,1.863709,Walk
Fix,GPS,37.4231692321,-122.1564260039,-25.803340533672134,1.4563634,7.30829,266.70468,1678160868999,0.32392165,17.925549,1595681557072000,7.747991,Walk
Fix,FLP,37.4231715,-122.15644,-12.600000381469728,1.5397882,12.226,259.26794,1678160869455,,,1595681464806870,1.8951641,Walk
Fix,FLP,37.4231694,-122.1564467,-12.600000381469728,1.5272589,12.318,259.70322,1678160869998,,,1595682007259934,1.8951641,Walk
Fix,GPS,37.423161078,-122.156439596,-24.891242559695176,1.4443846,6.93145,292.9845,1678160869999,0.2933475,24.016272,1595682556873000,7.4052825,Walk
Fix,FLP,37.4231692,-122.1564497,-13.90000057220459,1.5191416,12.355,260.60956,1678160870541,,,1595682549699509,1.9316627,Walk
Fix,FLP,37.4231674,-122.1564608,-13.90000057220459,1.500479,12.416,262.2004,1678160871083,,,1595683092165452,1.9316627,Walk
Fix,GPS,37.4231604334,-122.1564454758,-24.831241492601624,1.3581061,6.589279,306.554,1678160870999,0.2825976,23.875185,1595683556888000,7.0271335,Walk
Fix,FLP,37.4231677,-122.1564614,-12.600000381469728,1.4818065,12.448,263.8844,1678160871625,,,1595683634618149,1.646454,Walk
Fix,FLP,37.4231683,-122.15647,-12.600000381469728,1.4397007,12.276,267.26898,1678160872169,,,1595684177068407,1.646454,Walk
Fix,NLP,37.4235016,-122.1569573,-12.600000381469728,,80.846,,1678160872614,,,1595684623000000,1.62,Walk
Fix,GPS,37.4231622492,-122.156455681,-24.65704244526769,1.3108537,6.30648,301.46048,1678160871999,0.27675733,19.340168,1595684556856000,6.7116637,Walk
Fix,FLP,37.42317,-122.15647,-12.600000381469728,1.4209113,12.079,268.9657,1678160872711,,,1595684719523667,1.4008292,Walk
Fix,FLP,37.4231735,-122.156477,-12.600000381469728,1.3759307,11.366,273.5074,1678160873253,,,1595685261976243,1.6998844,Walk
Fix,GPS,37.4231659175,-122.1564687202,-24.426227167451003,1.2964423,6.1939125,279.02484,1678160872999,0.282478,12.222231,1595685556934000,6.477672,Walk
Fix,FLP,37.4231755,-122.1564815,-15.146743717258246,1.3558863,10.574,276.0544,1678160873796,,,1595685804415757,1.5860859,Walk
Fix,FLP,37.4231775,-122.1564882,-15.146743717258246,1.3494936,10.169,277.26965,1678160874338,,,1595686346870225,1.5860859,Walk
Fix,GPS,37.4231671265,-122.1564875079,-24.38232696819437,1.3196903,6.1580243,266.48984,1678160873999,0.2887088,12.813282,1595686556897000,6.2841783,Walk
Fix,FLP,37.4231806,-122.1564983,-15.047267164900958,1.3403581,9.293,279.42722,1678160874881,,,1595686889332993,1.550797,Walk
Fix,GPS,37.4231661338,-122.1565144795,-23.753292473236574,1.392663,5.986239,276.55176,1678160874999,0.28232637,16.265392,1595687557118000,6.058165,Walk
Fix,FLP,37.4231833,-122.1565053,-15.16496874459012,1.3340515,8.525,281.39328,1678160875423,,,1595687431785386,1.4742792,Walk
Fix,FLP,37.4231866,-122.1565186,-15.16496874459012,1.3325413,8.258,283.2181,1678160875966,,,1595687974234605,1.4742792,Walk
Fix,GPS,37.4231681133,-122.1565298207,-23.404051495341747,1.3805017,5.842663,284.00848,1678160875999,0.2841528,18.331406,1595688556956000,5.886919,Walk
Fix,FLP,37.4231883,-122.1565233,-15.146743717258246,1.335764,7.648,284.08188,1678160876508,,,1595688516678208,1.4813212,Walk
Fix,FLP,37.423192,-122.156539,-15.146743717258246,1.341254,7.183,285.34995,1678160877051,,,1595689059142503,1.4813212,Walk
Fix,GPS,37.4231713571,-122.156543125,-23.27820013955563,1.3549118,5.776761,274.5213,1678160876999,0.30151516,26.192898,1595689557078000,5.7698812,Walk
Fix,FLP,37.4231931,-122.1565441,-14.7761776240606,1.3468418,6.863,285.42303,1678160877578,,,1595689586683823,1.4806612,Walk
Fix,NLP,37.4232382,-122.1568308,-12.300000190734863,,32.199,,1678160877586,,,1595689594000000,1.4223077,Walk
Fix,FLP,37.4231955,-122.156563,-13.90000057220459,1.3551307,6.336,285.46173,1678160878135,,,1595690144047105,1.3837906,Walk
Fix,GPS,37.4231696636,-122.1565577525,-23.43851100852185,1.3368111,5.672412,258.20917,1678160877999,0.3141563,24.188665,1595690557147000,5.70418,Walk
Fix,FLP,37.423195,-122.1565677,-13.90000057220459,1.359013,6.236,285.3729,1678160878678,,,1595690686499192,1.443638,Walk
Fix,GPS,37.4231642949,-122.1565727645,-23.06268439612054,1.3314447,5.4754744,222.6579,1678160878999,0.3011504,22.014494,1595691557065000,5.612646,Walk
Fix,FLP,37.4231934,-122.1565845,-13.90000057220459,1.3352122,6.131,282.88956,1678160879220,,,1595691228951585,1.4563733,Walk
Fix,FLP,37.4231879,-122.1565884,-13.90000057220459,1.2807678,6.163,280.59943,1678160879763,,,1595691771403733,1.4563733,Walk
Fix,FLP,37.4231819,-122.156594,-13.90000057220459,1.2006257,6.212,278.30682,1678160880305,,,1595692313844407,1.4563733,Walk
Fix,GPS,37.4231567819,-122.15657821,-22.770062085206103,1.2932142,5.348097,189.84799,1678160879999,0.25937492,14.972374,1595692557012000,5.5084686,Walk
Fix,FLP,37.4231708,-122.1565965,-13.90000057220459,1.0576982,6.275,273.29895,1678160880847,,,1595692856308091,1.6249454,Walk
Fix,FLP,37.4231638,-122.1565991,-13.90000057220459,1.0006491,6.309,270.2626,1678160881364,,,1595693373000000,1.6249454,Walk
Fix,GPS,37.4231424927,-122.1565846982,-22.426049281687654,1.3152624,5.315715,197.11565,1678160880999,0.2703864,15.358579,1595693556958000,5.4463577,Walk
Fix,FLP,37.423151,-122.1565989,-12.300000190734863,0.92431706,6.42,263.8519,1678160881869,,,1595693877000000,1.3413136,Walk
Fix,FLP,37.4231428,-122.1566016,-12.300000190734863,0.9073749,6.468,260.39023,1678160882401,,,1595694409000000,1.3413136,Walk
Fix,NLP,37.4224113,-122.1564262,-12.800000190734863,,53.147,,1678160882604,,,1595694613000000,2.9137938,Walk
Fix,GPS,37.4231268953,-122.1565901731,-22.220750884549087,1.3469796,5.352157,184.80228,1678160881999,0.30702937,13.940338,1595694557049000,5.406215,Walk
Fix,FLP,37.4231241,-122.1566024,-12.800000190734863,0.8794851,6.694,248.79353,1678160882909,,,1595694917626206,1.5387875,Walk
Fix,GPS,37.4231155058,-122.156594431,-22.31744867713648,1.3416382,5.3948627,188.50044,1678160882999,0.28854692,13.350561,1595695557098000,5.3808465,Walk
Fix,FLP,37.4231182,-122.1566033,-8.873862128767854,0.8843632,6.765,246.13126,1678160883452,,,1595695460078355,1.3620418,Walk
Fix,FLP,37.4231056,-122.1566068,-8.873862128767854,0.8970767,6.831,241.15334,1678160883994,,,1595696002530503,1.3620418,Walk
Fix,GPS,37.4231008352,-122.1565961233,-22.42248942763901,1.3589146,5.469129,187.85936,1678160883999,0.2758447,15.201857,1595696557161000,5.376305,Walk
Fix,FLP,37.4230995,-122.1566082,-7.101640672953607,0.90748596,6.848,238.93936,1678160884536,,,1595696544982407,1.4188231,Walk
Fix,FLP,37.4230868,-122.156613,-7.101640672953607,0.9287316,6.818,234.85008,1678160885079,,,1595697087434617,1.4188231,Walk
Fix,GPS,37.4230880628,-122.1566012434,-22.57506846199107,1.3583534,5.5571356,209.99411,1678160884999,0.2757366,21.363407,1595697557087000,5.3947325,Walk
Fix,FLP,37.4230814,-122.1566143,-8.771317022353045,0.94098943,6.8,232.96768,1678160885621,,,1595697629886704,1.6722741,Walk
Fix,FLP,37.4230697,-122.1566196,-8.771317022353045,0.9639415,6.788,229.5765,1678160886163,,,1595698172337083,1.6722741,Walk
Fix,GPS,37.4230785604,-122.1566047872,-22.787212657950302,1.3271594,5.585142,213.70705,1678160885999,0.2668972,18.79162,1595698557120000,5.408845,Walk
Fix,FLP,37.4230644,-122.1566213,-7.883936314584872,0.9781858,6.754,228.13666,1678160886705,,,1595698714790757,1.4966943,Walk
Fix,FLP,37.4230535,-122.1566264,-7.883936314584872,1.0034062,6.798,225.67693,1678160887249,,,1595699257242906,1.4966943,Walk
Fix,NLP,37.4223659,-122.156446,-12.800000190734863,,46.616,,1678160887627,,,1595699635000000,2.102759,Walk
Fix,GPS,37.4230681782,-122.156609578,-22.881046128131956,1.3134133,5.6534543,210.6444,1678160886999,0.30095923,12.947277,1595699557112000,5.450747,Walk
Fix,FLP,37.4230465,-122.156629,-8.061260106052693,1.0333934,6.757,223.10939,1678160887791,,,1595699799695054,1.6227645,Walk
Fix,FLP,37.423042,-122.1566319,-8.061260106052693,1.0422622,6.751,222.23402,1678160888325,,,1595700333000000,1.6227645,Walk
Fix,GPS,37.4230523784,-122.1566170063,-22.75723855136563,1.3523012,5.6837263,206.95454,1678160887999,0.28197476,12.748319,1595700557121000,5.4813166,Walk
Fix,FLP,37.4230347,-122.1566366,-8.425859581933736,1.0561464,6.637,220.48868,1678160888876,,,1595700884599351,1.735044,Walk
Fix,GPS,37.4230347961,-122.1566216199,-22.40101684229368,1.3941389,5.6913753,203.49316,1678160888999,0.2876865,15.878825,1595701557105000,5.4823537,Walk
Fix,FLP,37.4230312,-122.1566379,-8.491751315096558,1.0648466,6.588,219.46632,1678160889419,,,1595701427051194,1.7830102,Walk
Fix,FLP,37.4230239,-122.1566413,-8.491751315096558,1.0816265,6.401,217.64622,1678160889961,,,1595701969502976,1.7830102,Walk
Fix,GPS,37.4230206238,-122.1566326312,-21.85924636935745,1.4202834,5.6252594,204.64734,1678160889999,0.2698736,14.401029,1595702557425000,5.476459,Walk
Fix,FLP,37.4230196,-122.1566432,-9.970573716498803,1.0940802,6.297,216.85909,1678160890502,,,1595702511955064,1.6488677,Walk
Fix,FLP,37.423011,-122.1566475,-9.970573716498803,1.1163602,6.105,215.52943,1678160891046,,,1595703054392320,1.6488677,Walk
Fix,GPS,37.42300366,-122.1566373768,-21.53451066050602,1.4475607,5.5774727,202.4484,1678160890999,0.2747362,17.374168,1595703557315000,5.4592957,Walk
Fix,FLP,37.4230061,-122.1566498,-9.578918160662075,1.1312033,5.922,215.06812,1678160891578,,,1595703586683823,1.7103535,Walk
Fix,FLP,37.4229957,-122.1566556,-9.578918160662075,1.1568161,5.626,214.35497,1678160892130,,,1595704139298753,1.7103535,Walk
Fix,GPS,37.4229887887,-122.1566360224,-21.432331377728328,1.4504945,5.572092,208.38426,1678160891999,0.2889013,18.333838,1595704557192000,5.4306254,Walk
Fix,FLP,37.4229917,-122.1566576,-9.578918160662075,1.1723411,5.484,214.13936,1678160892673,,,1595704681762438,1.674234,Walk
Fix,NLP,37.4223529,-122.1564536,-12.800000190734863,,64.565,,1678160892658,,,1595704666000000,1.3414152,Walk
Fix,FLP,37.42298,-122.1566637,-9.578918160662075,1.2055418,5.139,213.49213,1678160893216,,,1595705224213608,1.6191185,Walk
Fix,GPS,37.4229752141,-122.1566414049,-21.14868761602226,1.4472202,5.6182175,211.29953,1678160892999,0.2869124,17.594328,1595705557181000,5.416178,Walk
Fix,FLP,37.4229739,-122.1566653,-12.800000190734863,1.2242268,5.015,212.8981,1678160893758,,,1595705766665269,1.4745092,Walk
Fix,FLP,37.4229673,-122.1566688,-12.800000190734863,1.2356497,4.99,212.703,1678160894301,,,1595706309116624,1.4745092,Walk
Fix,GPS,37.4229620152,-122.1566491613,-20.983332266712424,1.4473262,5.5985427,213.44734,1678160893999,0.2869884,16.773563,1595706557302000,5.4226046,Walk
Fix,FLP,37.4229599,-122.1566722,-12.800000190734863,1.2536631,4.9,212.72525,1678160894842,,,1595706851568529,1.3435785,Walk
Fix,FLP,37.4229538,-122.1566771,-12.800000190734863,1.2612902,4.911,213.32832,1678160895385,,,1595707393000000,1.3435785,Walk
Fix,GPS,37.422952802,-122.1566643541,-20.768320547344533,1.453658,5.5540705,232.03757,1678160894999,0.29126,15.937914,1595707557348000,5.4535837,Walk
Fix,FLP,37.4229471,-122.156684,-12.800000190734863,1.2620399,4.896,215.2006,1678160895928,,,1595707936470628,1.3943006,Walk
Fix,GPS,37.4229514161,-122.1566866084,-20.75195968324574,1.4791656,5.4412265,242.28548,1678160895999,0.30331936,20.087996,1595708557261000,5.446382,Walk
Fix,FLP,37.4229436,-122.1566904,-12.600000381469728,1.237902,4.927,218.4467,1678160896470,,,1595708478910386,1.5275772,Walk
Fix,FLP,37.4229408,-122.1566989,-12.600000381469728,1.2064681,4.918,221.27255,1678160897013,,,1595709021372971,1.5275772,Walk
Fix,GPS,37.422951023,-122.1567039547,-20.930023375373636,1.4697528,5.4629316,269.22046,1678160896999,0.33986738,19.425844,1595709557269000,5.448619,Walk
Fix,FLP,37.4229409,-122.1567078,-9.768962577713722,1.1486155,4.964,227.07031,1678160897555,,,1595709563823960,1.543253,Walk
Fix,NLP,37.423148,-122.1578974,-12.200000762939451,,55.544,,1678160897737,,,1595709745000000,1.0,Walk
Fix,FLP,37.422942,-122.1567216,-9.982798238785044,1.0832131,5.003,236.0061,1678160898098,,,1595710106275132,1.3130592,Walk
Fix,GPS,37.422955492,-122.156723425,-21.70281293343402,1.4833953,5.5342813,292.02716,1678160897999,0.3067714,14.709593,1595710557300000,5.448082,Walk
Fix,FLP,37.4229445,-122.1567271,-12.200000762939451,1.0693723,5.035,239.0811,1678160898640,,,1595710648726060,1.3010262,Walk
Fix,FLP,37.4229482,-122.1567416,-12.200000762939451,1.0496957,5.049,245.1719,1678160899183,,,1595711191176499,1.3010262,Walk
Fix,GPS,37.4229666681,-122.1567410178,-22.381935870627657,1.5135269,5.53187,302.51904,1678160898999,0.2893928,12.706885,1595711557325000,5.4407563,Walk
Fix,FLP,37.4229531,-122.1567516,-12.200000762939451,1.042234,5.03,250.80455,1678160899725,,,1595711733625108,1.3351439,Walk
Fix,FLP,37.4229566,-122.156761,-12.200000762939451,1.0433894,5.014,253.747,1678160900267,,,1595712276077988,1.3351439,Walk
Fix,GPS,37.4229769827,-122.1567581841,-22.6295122175338,1.5355084,5.512185,306.86682,1678160899999,0.27963567,11.967761,1595712557296000,5.421705,Walk
Fix,FLP,37.4229598,-122.1567686,-12.200000762939451,1.0430856,5.225,258.8782,1678160900810,,,1595712818516709,1.307659,Walk
Fix,FLP,37.4229616,-122.1567741,-12.200000762939451,1.044088,5.463,261.45267,1678160901352,,,1595713360974106,1.307659,Walk
Fix,GPS,37.4229895636,-122.1567759223,-22.47547281874917,1.5682253,5.525401,309.10855,1678160900999,0.28101903,14.168756,1595713557352000,5.400293,Walk
Fix,FLP,37.4229674,-122.1567817,-14.669826425007123,1.0524597,5.885,266.3318,1678160901895,,,1595713903429185,1.4995799,Walk
Fix,FLP,37.4229721,-122.1567896,-14.669826425007123,1.0620208,6.087,268.7347,1678160902437,,,1595714445869249,1.4995799,Walk
Fix,GPS,37.4229993468,-122.1567899211,-21.663944695973477,1.5602852,5.593601,307.65625,1678160901999,0.28779793,17.604256,1595714557309000,5.3607173,Walk
Fix,NLP,37.4233543,-122.1577248,-11.700000762939451,,46.656,,1678160902750,,,1595714759000000,1.1212353,Walk
Fix,FLP,37.4229834,-122.1568025,-14.555410080668588,1.1017629,6.858,276.23624,1678160902979,,,1595714988329758,1.4813484,Walk
Fix,GPS,37.4230050695,-122.1568034177,-21.249424385738013,1.529777,5.6961412,301.97232,1678160902999,0.29318628,17.538385,1595715557341000,5.344251,Walk
Fix,FLP,37.4229865,-122.1568064,-15.068246476470982,1.114034,7.22,277.87177,1678160903522,,,1595715530779771,1.5558052,Walk
Fix,FLP,37.4229924,-122.1568185,-15.068246476470982,1.1375837,7.752,280.75488,1678160904065,,,1595716073229844,1.5558052,Walk
Fix,GPS,37.4230121383,-122.1568210915,-21.09286543164659,1.5314319,5.73429,299.61774,1678160903999,0.27632844,16.473948,1595716557553000,5.3147216,Walk
Fix,FLP,37.4229947,-122.1568213,-15.068246476470982,1.1506951,8.05,281.97668,1678160904578,,,1595716586683823,1.5507203,Walk
Fix,FLP,37.4230007,-122.1568337,-15.068246476470982,1.1770753,8.379,284.13153,1678160905150,,,1595717158123094,1.5507203,Walk
Fix,GPS,37.4230183286,-122.156841522,-20.643717604017983,1.5473825,5.719618,306.5163,1678160904999,0.2806659,15.46049,1595717557534000,5.278578,Walk
Fix,FLP,37.4230038,-122.156839,-11.700000762939451,1.1918899,8.85,285.0836,1678160905692,,,1595717700569321,1.5717669,Walk
Fix,FLP,37.4230091,-122.1568521,-11.700000762939451,1.2171087,8.847,286.95828,1678160906235,,,1595718243029588,1.5717669,Walk
Fix,GPS,37.42302807,-122.1568578523,-19.99731225429609,1.5515802,5.697815,303.85974,1678160905999,0.2768455,16.61791,1595718557367000,5.218305,Walk
Fix,FLP,37.4230138,-122.1568616,-8.07168352660976,1.2411803,8.851,288.7072,1678160906777,,,1595718785478990,1.5318964,Walk
Fix,FLP,37.4230179,-122.1568699,-8.07168352660976,1.2546868,8.893,289.52777,1678160907308,,,1595719316000000,1.5318964,Walk
Fix,GPS,37.4230372398,-122.1568684059,-19.880174223569863,1.5233326,5.8156495,302.90314,1678160906999,0.28467894,16.999977,1595719557434000,5.261737,Walk
Fix,FLP,37.4230238,-122.1568791,-8.889909033796215,1.2771751,8.995,290.93872,1678160907843,,,1595719851000000,1.5435594,Walk
Fix,GPS,37.4230454679,-122.1568800289,-19.764755269547912,1.4971651,5.870978,297.89645,1678160907999,0.27720615,16.653429,1595720557780000,5.293602,Walk
Fix,FLP,37.42303,-122.1568892,-11.700000762939451,1.2966838,9.063,292.05594,1678160908404,,,1595720412827805,1.4673004,Walk
Fix,FLP,37.4230361,-122.1568992,-11.700000762939451,1.3135217,9.084,292.8564,1678160908946,,,1595720955277268,1.4673004,Walk
Fix,GPS,37.4230577145,-122.156900714,-19.925009908264887,1.5434593,5.832334,301.6184,1678160908999,0.27097672,13.537253,1595721557510000,5.3142195,Walk
Fix,FLP,37.423039,-122.1569038,-11.700000762939451,1.322447,9.069,293.1445,1678160909489,,,1595721497716600,1.4647382,Walk
Fix,FLP,37.4230467,-122.156917,-11.700000762939451,1.3409107,9.019,293.92377,1678160910031,,,1595722040176988,1.4647382,Walk
Fix,GPS,37.4230674658,-122.156916172,-19.905361101090904,1.5473577,5.8670487,301.97385,1678160909999,0.27939007,13.156675,1595722557442000,5.339481,Walk
Fix,FLP,37.4230503,-122.1569221,-11.700000762939451,1.3519648,9.013,294.46317,1678160910574,,,1595722582625901,1.4234295,Walk
Fix,FLP,37.4230576,-122.156936,-11.700000762939451,1.3710723,9.077,295.31595,1678160911117,,,1595723125075120,1.4234295,Walk
Fix,GPS,37.4230783324,-122.1569335121,-19.881165849068232,1.5665017,5.8792744,301.15915,1678160910999,0.27686137,13.853589,1595723557500000,5.2745366,Walk
Fix,FLP,37.4230609,-122.1569424,-11.700000762939451,1.381443,9.108,295.63547,1678160911659,,,1595723667511948,1.6311798,Walk
Fix,FLP,37.423068,-122.1569553,-11.700000762939451,1.3985606,9.131,296.27426,1678160912201,,,1595724209973618,1.6311798,Walk
Fix,GPS,37.4230863834,-122.1569494597,-19.86109966319256,1.5627273,5.94936,299.72485,1678160911999,0.27286133,13.375393,1595724557512000,5.239802,Walk
Fix,FLP,37.4230745,-122.1569608,-11.700000762939451,1.4107183,9.182,296.82153,1678160912743,,,1595724752422227,1.6459376,Walk
Fix,FLP,37.4230788,-122.1569678,-11.700000762939451,1.4180056,9.125,297.00043,1678160913266,,,1595725274000000,1.6459376,Walk
Fix,GPS,37.4230909452,-122.156965074,-19.666568409211877,1.5432705,5.9663706,304.02124,1678160912999,0.27577898,14.498082,1595725557486000,5.205063,Walk
Fix,FLP,37.4230831,-122.1569751,-11.700000762939451,1.428089,9.016,297.41965,1678160913809,,,1595725817000000,1.5123177,Walk
Fix,GPS,37.4230965663,-122.156976981,-19.526883797652257,1.5068091,5.9474835,300.74414,1678160913999,0.27577937,14.360457,1595726557506000,5.1846247,Walk
Fix,FLP,37.4230876,-122.1569846,-11.700000762939451,1.4357266,8.909,297.78183,1678160914371,,,1595726379770371,1.5231068,Walk
Fix,FLP,37.4230921,-122.1569952,-11.700000762939451,1.439404,8.845,297.85498,1678160914914,,,1595726922219224,1.5231068,Walk
Fix,GPS,37.423101565,-122.1569901487,-19.496064425472863,1.480215,5.8981323,301.04504,1678160914999,0.27343458,12.770726,1595727557830000,5.150921,Walk
Fix,FLP,37.4230947,-122.1570011,-14.49696751447761,1.4441873,8.847,297.91052,1678160915455,,,1595727464667344,1.5163296,Walk
Fix,FLP,37.4230984,-122.1570105,-14.49696751447761,1.4456185,8.77,298.11856,1678160915998,,,1595728007117173,1.5163296,Walk
Fix,GPS,37.4231066,-122.1570047351,-19.261471344518377,1.4651815,5.8837366,297.09152,1678160915999,0.2664685,12.957993,1595728557551000,5.109179,Walk
Fix,FLP,37.4230996,-122.1570136,-12.800000190734863,1.4467478,8.701,298.28247,1678160916541,,,1595728549555772,1.5362059,Walk
Fix,FLP,37.4231037,-122.1570235,-12.800000190734863,1.4467309,8.612,298.40826,1678160917084,,,1595729092016465,1.5362059,Walk
Fix,GPS,37.4231102796,-122.1570220131,-19.022540204138632,1.4642376,5.915795,296.44968,1678160916999,0.28315848,14.279656,1595729557699000,5.1086507,Walk
Fix,FLP,37.4231052,-122.1570272,-12.800000190734863,1.448512,8.593,298.45355,1678160917626,,,1595729634463608,1.7334563,Walk
Fix,FLP,37.4231108,-122.1570391,-12.800000190734863,1.4515387,8.341,298.69406,1678160918168,,,1595730176897568,1.7334563,Walk
Fix,GPS,37.4231165415,-122.1570352396,-18.70942230809462,1.4470042,5.98179,298.51865,1678160917999,0.29356012,13.919472,1595730557556000,5.107292,Walk
Fix,FLP,37.4231157,-122.1570466,-11.700000762939451,1.4525311,7.965,299.1327,1678160918711,,,1595730719361253,1.5864872,Walk
Fix,FLP,37.4231198,-122.1570554,-11.700000762939451,1.455483,7.741,299.2651,1678160919252,,,1595731261810288,1.5864872,Walk
Fix,GPS,37.4231231795,-122.1570477784,-18.65633056280688,1.4272987,6.00463,290.92792,1678160918999,0.2837788,16.50215,1595731557855000,5.104289,Walk
Fix,FLP,37.4231248,-122.1570647,-9.4055326413515,1.4560028,7.291,299.5059,1678160919796,,,1595731804250413,1.5320604,Walk
Fix,FLP,37.4231291,-122.1570726,-9.4055326413515,1.457599,7.015,299.61914,1678160920329,,,1595732337000000,1.5320604,Walk
Fix,GPS,37.4231300869,-122.157063414,-18.66650434861071,1.4261334,6.054223,296.68964,1678160919999,0.29431638,19.460949,1595732557597000,5.0984707,Walk
Fix,FLP,37.4231341,-122.157082,-7.870504062500402,1.4576385,6.402,299.8365,1678160920887,,,1595732896000000,1.6624876,Walk
Fix,FLP,37.4231387,-122.1570911,-7.870504062500402,1.4588262,6.127,299.97803,1678160921422,,,1595733431000000,1.6624876,Walk
Fix,GPS,37.4231359573,-122.1570766738,-18.878377774013167,1.4058199,6.0621796,300.14108,1678160920999,0.28255925,19.100327,1595733557642000,5.0908065,Walk
Fix,FLP,37.4231432,-122.1570991,-8.911648756993735,1.4572023,5.539,300.18362,1678160921928,,,1595733936000000,1.6460996,Walk
Fix,GPS,37.423142259,-122.1570884734,-19.299809421071608,1.3812689,6.0872784,309.1139,1678160921999,0.28563616,17.736881,1595734557651000,5.0932026,Walk
Fix,FLP,37.4231478,-122.1571072,-8.911648756993735,1.4526253,5.177,300.22278,1678160922508,,,1595734516495957,1.6959707,Walk
Fix,FLP,37.4231535,-122.1571185,-8.911648756993735,1.445932,4.543,300.1809,1678160923050,,,1595735058938645,1.6959707,Walk
Fix,GPS,37.4231466914,-122.157105631,-19.303539290515115,1.3863649,6.018086,298.7449,1678160922999,0.29635277,15.766396,1595735557650000,5.0704904,Walk
Fix,FLP,37.4231551,-122.1571216,-11.700000762939451,1.4459685,4.448,300.14188,1678160923578,,,1595735586683823,1.7010984,Walk
Fix,FLP,37.4231603,-122.1571328,-11.700000762939451,1.4402044,4.379,300.01785,1678160924135,,,1595736143846848,1.7010984,Walk
Fix,GPS,37.4231552139,-122.1571232248,-19.472818552305505,1.4071351,6.0060625,295.29538,1678160923999,0.28422573,17.746252,1595736557683000,5.052585,Walk
Fix,FLP,37.4231622,-122.1571374,-11.700000762939451,1.4398584,4.405,299.75656,1678160924678,,,1595736686295090,1.7206746,Walk
Fix,FLP,37.4231674,-122.1571506,-11.700000762939451,1.4299275,4.411,298.8435,1678160925220,,,1595737228746568,1.7206746,Walk
Fix,GPS,37.4231607881,-122.1571332585,-19.75572463904085,1.3662295,5.969591,286.0799,1678160924999,0.28101563,28.59326,1595737557741000,5.037588,Walk
Fix,FLP,37.4231688,-122.1571573,-11.700000762939451,1.412889,4.487,297.04114,1678160925763,,,1595737771191819,1.7028813,Walk
Fix,FLP,37.42317,-122.1571662,-11.700000762939451,1.3987448,4.554,295.4375,1678160926305,,,1595738313640000,1.7028813,Walk
Fix,GPS,37.4231626312,-122.1571470581,-19.89277899394211,1.3391387,5.918599,251.18207,1678160925999,0.2968386,27.67069,1595738557725000,5.043128,Walk
Fix,FLP,37.4231701,-122.1571755,-11.700000762939451,1.3717924,4.635,292.34494,1678160926847,,,1595738856079087,1.7118614,Walk
Fix,FLP,37.4231696,-122.157183,-11.700000762939451,1.3572881,4.731,290.45004,1678160927390,,,1595739398525132,1.7224613,Walk
Fix,GPS,37.4231593873,-122.1571634081,-19.701183194310083,1.3395548,5.904903,238.88098,1678160926999,0.33079916,15.479302,1595739557690000,5.04458,Walk
Fix,FLP,37.4231681,-122.1571928,-11.700000762939451,1.3315132,4.791,286.96014,1678160927932,,,1595739940978624,1.8192737,Walk
Fix,GPS,37.4231525916,-122.1571788886,-19.49165859024847,1.3497938,5.912324,253.07394,1678160927999,0.33067632,14.847204,1595740557687000,5.0632386,Walk
Fix,FLP,37.4231668,-122.1571998,-11.700000762939451,1.3191942,4.885,285.00476,1678160928475,,,1595740483432786,1.8192737,Walk
Fix,FLP,37.4231629,-122.1572166,-11.700000762939451,1.2974436,5.016,281.11673,1678160929560,,,1595741568331590,1.9374019,Walk
Fix,GPS,37.4231475827,-122.1571915028,-19.640728498125448,1.3335825,5.8236446,243.87473,1678160928999,0.32176358,18.629831,1595741557756000,5.0852995,Walk
Fix,FLP,37.4231579,-122.1572256,-11.700000762939451,1.2773318,5.068,277.30774,1678160930102,,,1595742110777024,1.5699427,Walk
Fix,FLP,37.4231548,-122.1572321,-11.700000762939451,1.2713723,5.124,275.41647,1678160930655,,,1595742663000000,1.5699427,Walk
Fix,GPS,37.4231427335,-122.1572095985,-19.73280315452208,1.3521821,5.776953,252.17952,1678160929999,0.3635585,20.02973,1595742557836000,5.1324353,Walk
Fix,FLP,37.4231496,-122.1572441,-11.700000762939451,1.2576202,5.234,270.99017,1678160931187,,,1595743195672776,1.5669491,Walk
Fix,GPS,37.4231387215,-122.1572257564,-19.51579066998519,1.355308,5.809658,259.26312,1678160930999,0.34767318,19.099928,1595743557789000,5.1805835,Walk
Fix,FLP,37.4231463,-122.1572502,-11.700000762939451,1.2584901,5.219,268.9564,1678160931730,,,1595743738112290,1.5756005,Walk
Fix,FLP,37.423145,-122.1572576,-11.700000762939451,1.2617061,5.276,268.09793,1678160932272,,,1595744280568528,1.5756005,Walk
Fix,GPS,37.4231352049,-122.1572425345,-19.365863890585864,1.3617618,5.806518,258.0139,1678160931999,0.32291824,16.548344,1595744557885000,5.20947,Walk
Fix,FLP,37.4231432,-122.1572663,-11.700000762939451,1.2674963,5.299,266.62418,1678160932815,,,1595744823016343,1.5699301,Walk
Fix,FLP,37.4231419,-122.1572738,-11.700000762939451,1.2723088,5.36,266.00674,1678160933357,,,1595745365463792,1.5699301,Walk
Fix,GPS,37.4231321946,-122.1572640425,-19.31267480841678,1.3998643,5.724923,257.69028,1678160932999,0.3173207,13.912414,1595745557794000,5.23349,Walk
Fix,FLP,37.4231402,-122.1572831,-11.700000762939451,1.2814256,5.407,265.15018,1678160933898,,,1595745907905381,1.8957068,Walk
Fix,FLP,37.4231391,-122.1572911,-11.700000762939451,1.2876618,5.452,265.0494,1678160934441,,,1595746450361253,1.8957068,Walk
Fix,GPS,37.4231288663,-122.1572854929,-19.48620824938789,1.4339575,5.6778965,258.88815,1678160933999,0.3058124,15.539927,1595746557889000,5.2525387,Walk
Fix,FLP,37.423138,-122.1573009,-11.700000762939451,1.2986223,5.521,265.15103,1678160934984,,,1595746992806504,1.743193,Walk
Fix,FLP,37.4231375,-122.1573093,-11.700000762939451,1.3048005,5.609,265.52103,1678160935526,,,1595747535257616,1.743193,Walk
Fix,GPS,37.423125503,-122.1573086877,-19.648704690278908,1.4771563,5.575946,264.6576,1678160934999,0.2867096,13.530769,1595747557877000,5.257448,Walk
Fix,FLP,37.4231367,-122.1573198,-11.700000762939451,1.3169513,5.697,266.177,1678160936069,,,1595748077701463,1.7603788,Walk
Fix,FLP,37.4231364,-122.1573284,-11.700000762939451,1.3244154,5.809,266.47293,1678160936600,,,1595748609000000,1.7603788,Walk
Fix,GPS,37.4231241297,-122.1573294078,-19.627787152559744,1.496947,5.5409365,276.7641,1678160935999,0.29607385,15.206356,1595748557814000,5.2735133,Walk
Fix,FLP,37.4231355,-122.1573407,-10.043621295891183,1.337796,5.983,266.85913,1678160937154,,,1595749162581712,1.8874913,Walk
Fix,NLP,37.4232474,-122.1578818,-11.700000762939451,,31.217,,1678160937329,,,1595749338000000,1.0,Walk
Fix,GPS,37.4231261387,-122.1573500773,-19.93722003449822,1.5168197,5.5288057,274.47733,1678160936999,0.30397657,13.774396,1595749557882000,5.2768283,Walk
Fix,FLP,37.4231354,-122.157348,-11.700000762939451,1.3516908,6.07,267.127,1678160937697,,,1595749705043381,1.5166161,Walk
Fix,FLP,37.4231364,-122.1573651,-11.700000762939451,1.3603755,6.229,267.4266,1678160938239,,,1595750247490891,1.5166161,Walk
Fix,GPS,37.4231289321,-122.1573669601,-20.050827230005712,1.5112841,5.5378385,263.42215,1678160937999,0.29262444,13.579187,1595750557890000,5.2681446,Walk
Fix,FLP,37.4231355,-122.1573739,-11.700000762939451,1.3711753,6.558,267.30838,1678160938781,,,1595750789938645,1.5491734,Walk
Fix,FLP,37.4231339,-122.1573796,-11.700000762939451,1.3750399,6.83,266.93033,1678160939324,,,1595751332388658,1.5491734,Walk
