Fix,Provider,LatitudeDegrees,LongitudeDegrees,AltitudeMeters,SpeedMps,AccuracyMeters,BearingDegrees,UnixTimeMillis,SpeedAccuracyMps,BearingAccuracyDegrees,elapsedRealtimeNanos,VerticalAccuracyMeters,TransitType
Fix,FLP,37.430088,-122.1695929,-7.299999713897705,1.7816868,9.87,197.0,1678499484674,0.03328489,10.0,1934299551280000,10.700911,Walk
Fix,GPS,37.4300624823,-122.1695888649,-13.124451075781366,1.9960845,9.406751,191.88718,1678499482999,0.44982392,18.024431,1934300551293000,15.069633,Walk
Fix,FLP,37.4300653,-122.1695915,-9.33844747793323,1.7942553,9.638,195.91785,1678499485674,0.44982392,18.024431,1934300551293000,16.1739,Walk
Fix,NLP,37.4292587,-122.1701674,2.0,,92.573,,1678499485630,,,1934300507000000,17.00164,Walk
Fix,GPS,37.4300399109,-122.1695830061,-7.440424366923165,2.05293,9.039327,189.96991,1678499483999,0.3738971,16.670847,1934301551309000,14.034923,Walk
Fix,FLP,37.4300481,-122.1695906,-8.938310686469016,1.8556583,9.426,193.59666,1678499486673,0.3738971,16.670847,1934301551309000,8.463046,Walk
Fix,GPS,37.4300229723,-122.1695787362,-3.091065412008194,1.9695597,8.927151,218.22906,1678499484999,0.52572966,19.24816,1934302551319000,13.372416,Walk
Fix,FLP,37.4300288,-122.1695903,-9.432705072096503,1.8875229,9.299,196.0126,1678499487674,0.52572966,19.24816,1934302551319000,8.9519205,Walk
Fix,GPS,37.4300049817,-122.169578765,0.6599398639950644,1.9289905,8.705526,218.2992,1678499485999,0.3682459,14.65065,1934303551340000,12.668467,Walk
Fix,FLP,37.4300113,-122.1695916,-10.54345396364291,1.8938354,9.192,202.409,1678499488674,0.3682459,14.65065,1934303551340000,8.299207,Walk
Fix,GPS,37.4299899886,-122.1695765651,2.7781268386272955,1.8541396,8.396799,208.72302,1678499486999,0.046851054,10.0,1934304551351000,12.121452,Walk
Fix,FLP,37.4299957,-122.1695912,-15.5784053388739,1.8644327,8.996,206.5172,1678499489674,0.046851054,10.0,1934304551351000,10.114855,Walk
Fix,NLP,37.4288367,-122.1698739,1.5,,114.164,,1678499490689,,,1934305566000000,8.016551,Walk
Fix,FLP,37.4299829,-122.1695925,-15.873311421916902,1.8558297,8.946,206.95,1678499490688,0.046851054,10.0,1934305566000000,10.007915,Walk
Fix,GPS,37.4299739866,-122.1695775652,5.312251586647808,1.816414,8.079514,208.56557,1678499487999,0.3397485,10.551312,1934305551364000,11.530491,Walk
Fix,GPS,37.4299535052,-122.1695805777,6.57288987193876,1.8500822,7.7792797,205.68292,1678499488999,0.33689475,12.917184,1934306551381000,11.013325,Walk
Fix,FLP,37.4299633,-122.1695904,-15.920331891466668,1.8531066,8.743,206.46332,1678499491674,0.33689475,12.917184,1934306551381000,10.070335,Walk
Fix,GPS,37.4299367365,-122.1695836812,8.235012203569132,1.8286154,7.491084,214.89256,1678499489999,0.033168,10.0,1934307551390000,10.51269,Walk
Fix,FLP,37.4299487,-122.169592,-15.743492680725492,1.8109217,8.882,205.41591,1678499492714,,,1934307591068754,10.012139,Walk
Fix,FLP,37.4299418,-122.1695928,-15.743492680725492,1.7461146,9.184,203.80093,1678499493256,,,1934308133642423,10.012139,Walk
Fix,GPS,37.4299209539,-122.169590157,9.837881038494356,1.8082685,7.3037014,214.89256,1678499490999,0.037712175,12.481906,1934308551413000,10.237036,Walk
Fix,FLP,37.4299417,-122.1695911,-15.956062989208768,1.7149994,9.243,202.71326,1678499493799,,,1934308676204740,10.237956,Walk
Fix,FLP,37.4299306,-122.169595,-15.956062989208768,1.6850868,9.467,201.79735,1678499494340,,,1934309218762357,10.237956,Walk
Fix,GPS,37.4299063724,-122.1695929988,11.460540329950582,1.7723815,7.0712,214.33145,1678499491999,0.03315667,10.0,1934309551425000,9.86283,Walk
Fix,FLP,37.429919,-122.1695987,-12.905873857243332,1.6903028,9.938,202.31656,1678499494884,,,1934309761310270,9.525963,Walk
Fix,FLP,37.4299105,-122.1696017,-12.905873857243332,1.6929513,10.171,202.56104,1678499495426,,,1934310303887113,9.525963,Walk
Fix,NLP,37.4283732,-122.1693176,-4.599999904632568,,64.597,,1678499495729,,,1934310606000000,14.609188,Walk
Fix,GPS,37.4298910646,-122.1695942934,12.877331663638136,1.7473042,6.8868074,210.40193,1678499492999,0.49965435,22.672684,1934310551434000,9.576104,Walk
Fix,FLP,37.4298979,-122.1696033,-12.949830160976624,1.6988398,10.651,203.10504,1678499495969,,,1934310846450102,10.9876,Walk
Fix,FLP,37.4298902,-122.1696047,-12.949830160976624,1.7002412,11.073,203.00015,1678499496512,,,1934311389013151,10.9876,Walk
Fix,GPS,37.4298780103,-122.1695960588,13.983468130416064,1.7083431,6.9379864,187.90257,1678499493999,0.35873538,10.980215,1934311551465000,9.31863,Walk
Fix,FLP,37.4298813,-122.1696051,-12.976919397117314,1.6981149,11.373,202.2997,1678499497054,,,1934311931577055,11.188543,Walk
Fix,FLP,37.4298724,-122.1696067,-12.976919397117314,1.6912098,11.557,201.36722,1678499497597,,,1934312474140836,11.188543,Walk
Fix,GPS,37.4298639901,-122.1695961933,14.728357839809158,1.6845472,6.927821,171.55313,1678499494999,0.52309483,19.455767,1934312551462000,8.984653,Walk
Fix,FLP,37.4298603,-122.1696064,-12.70755652874178,1.6741314,11.495,199.21455,1678499498139,,,1934313016705473,11.286312,Walk
Fix,FLP,37.4298539,-122.1696053,-12.70755652874178,1.6642934,11.787,197.93932,1678499498682,,,1934313559264798,11.286312,Walk
Fix,GPS,37.4298507629,-122.1695939656,15.678911534398942,1.6561586,7.143329,188.08492,1678499495999,0.6579019,22.811365,1934313551484000,8.91024,Walk
Fix,FLP,37.4298429,-122.1696049,-12.357199261200533,1.654561,11.946,196.5827,1678499499224,,,1934314101831937,13.4825,Walk
Fix,GPS,37.4298431996,-122.1695924975,16.683242154123075,1.5844331,7.4659405,188.08492,1678499496999,1.9774085,145.57867,1934314551525000,8.889497,Walk
Fix,FLP,37.4298394,-122.169605,-12.403200803509376,1.6535574,11.901,196.99739,1678499499767,,,1934314644400236,13.492536,Walk
Fix,FLP,37.4298266,-122.1696072,-12.403200803509376,1.6464764,11.922,197.4205,1678499500309,,,1934315186962919,13.492536,Walk
Fix,GPS,37.4298342102,-122.1695892265,17.340000588477142,1.5226536,7.8533463,188.08492,1678499497999,0.94450474,32.760426,1934315551555000,8.894165,Walk
Fix,FLP,37.4298274,-122.169606,-12.476657965286208,1.6430274,11.968,197.73222,1678499500852,,,1934315729536467,10.390817,Walk
Fix,FLP,37.4298181,-122.1696061,-12.476657965286208,1.6287668,12.115,197.47298,1678499501395,,,1934316272098112,10.390817,Walk
Fix,GPS,37.4298188595,-122.1695867958,18.22832701191902,1.5247992,8.233305,177.05977,1678499498999,0.8223802,25.070318,1934316551599000,8.952552,Walk
Fix,FLP,37.4298147,-122.1696029,-15.046934963735229,1.6098926,12.37,196.03047,1678499501937,,,1934316814663786,9.651419,Walk
Fix,FLP,37.429808,-122.1696027,-15.046934963735229,1.6013929,12.531,195.31711,1678499502480,,,1934317357222013,9.651419,Walk
Fix,GPS,37.4298053284,-122.1695844315,19.083736394927065,1.514679,8.562295,179.4053,1678499499999,0.68651235,24.254833,1934317551605000,9.050155,Walk
Fix,FLP,37.4298026,-122.1695997,-17.50661732925695,1.5880507,12.774,193.92255,1678499502991,,,1934317868982877,8.986182,Walk
Fix,FLP,37.4297949,-122.1695993,-17.50661732925695,1.582278,13.069,193.21284,1678499503565,,,1934318442359647,8.986182,Walk
Fix,GPS,37.4297925325,-122.1695865317,20.238771235501176,1.4987416,8.775546,194.66997,1678499500999,0.6946695,29.55652,1934318551655000,9.179911,Walk
Fix,FLP,37.4297863,-122.1695976,-13.889129570653452,1.5743703,13.367,192.49667,1678499504107,,,1934318984921903,8.949543,Walk
Fix,FLP,37.4297789,-122.1695979,-13.889129570653452,1.571357,13.609,192.37302,1678499504650,,,1934319527484586,8.949543,Walk
Fix,GPS,37.4297778506,-122.1695876409,20.94997022974566,1.4990902,8.969254,183.75282,1678499501999,0.6737123,28.73813,1934319551632000,9.285079,Walk
Fix,FLP,37.429771,-122.1695974,-7.13431841589685,1.5635898,13.899,191.81374,1678499505193,,,1934320070046537,7.3809924,Walk
Fix,FLP,37.4297645,-122.1695983,-7.13431841589685,1.5581093,14.197,191.35408,1678499505735,,,1934320612597624,7.3809924,Walk
Fix,GPS,37.4297624349,-122.1695826962,21.962434813631766,1.5103087,9.139413,172.7586,1678499502999,0.6713823,26.469454,1934320551614000,9.383184,Walk
Fix,FLP,37.4297572,-122.1695961,-7.329465962145903,1.5457569,14.441,189.9016,1678499506278,,,1934321155168119,8.411281,Walk
Fix,GPS,37.4297460349,-122.1695752261,23.050903180507536,1.5355866,9.307104,169.75801,1678499503999,0.67803884,23.053219,1934321551654000,9.471311,Walk
Fix,FLP,37.4297532,-122.1695937,-10.892771788072707,1.5385405,14.708,188.79475,1678499506819,,,1934321697727873,10.163826,Walk
Fix,FLP,37.4297443,-122.1695897,-10.892771788072707,1.5270141,14.893,186.76048,1678499507363,,,1934322240286772,10.163826,Walk
Fix,GPS,37.4297296801,-122.1695702899,24.394202186663165,1.5537821,9.462809,171.9301,1678499504999,0.68043077,23.66481,1934322551706000,9.540383,Walk
Fix,FLP,37.4297359,-122.1695864,-7.299999713897705,1.5235689,15.167,185.09335,1678499507905,,,1934322782851591,10.171109,Walk
Fix,FLP,37.4297286,-122.1695858,-7.299999713897705,1.5241963,15.275,184.48439,1678499508448,,,1934323325402677,10.171109,Walk
Fix,GPS,37.4297102055,-122.1695669399,25.719784797482717,1.5924375,9.5570965,175.0353,1678499505999,0.65363044,24.748026,1934323551693000,9.589432,Walk
Fix,FLP,37.4297196,-122.1695841,-6.999999523162842,1.5262681,15.498,183.56738,1678499508989,,,1934323867956449,10.233287,Walk
Fix,FLP,37.429713,-122.1695833,-6.999999523162842,1.5286772,15.611,183.37793,1678499509533,,,1934324410513700,10.233287,Walk
Fix,GPS,37.4296959996,-122.169566241,26.88372144110863,1.5821958,9.655381,194.81866,1678499506999,0.70038855,23.63791,1934324551985000,9.627839,Walk
Fix,FLP,37.4297042,-122.1695821,-4.599999904632568,1.5329424,15.852,183.76427,1678499510076,,,1934324953071317,10.171736,Walk
Fix,FLP,37.429696,-122.1695824,-4.599999904632568,1.5346079,15.946,184.42006,1678499510626,,,1934325503000000,10.171736,Walk
Fix,GPS,37.4296796103,-122.1695681488,28.084537296849607,1.5934443,9.761256,194.16098,1678499507999,0.7211205,23.390583,1934325551744000,9.658242,Walk
Fix,FLP,37.4296854,-122.1695836,-1.37844112157331,1.5396217,16.171,185.47028,1678499511160,,,1934326038176175,9.874103,Walk
Fix,FLP,37.4296774,-122.169585,-1.37844112157331,1.5433217,16.31,185.88266,1678499511666,,,1934326543000000,9.874103,Walk
Fix,GPS,37.4296674136,-122.1695717037,28.5970983787932,1.5704604,9.840635,185.63533,1678499508999,0.7901282,27.173075,1934326551671000,9.682815,Walk
Fix,FLP,37.4296677,-122.1695856,-0.3869185445573961,1.5477468,16.591,186.21342,1678499512243,,,1934327121000000,9.653558,Walk
Fix,FLP,37.4296602,-122.1695857,-0.3869185445573961,1.5491891,16.687,186.23967,1678499512751,,,1934327629000000,9.653558,Walk
Fix,GPS,37.4296562681,-122.1695701127,29.111026355830237,1.530313,9.903561,185.63533,1678499509999,0.66678685,87.97951,1934327551710000,9.723645,Walk
Fix,FLP,37.4296509,-122.1695855,-1.1603317982031598,1.5498083,16.809,186.33473,1678499513310,,,1934328187000000,9.702536,Walk
Fix,GPS,37.4296488634,-122.1695681285,30.13011977409878,1.4603207,10.0102825,185.63533,1678499510999,0.8592665,23.804085,1934328551792000,9.787932,Walk
Fix,FLP,37.4296453,-122.1695857,-0.9632742522144824,1.5497627,16.98,186.46481,1678499513873,,,1934328750937345,11.216559,Walk
Fix,GPS,37.429636087,-122.1695671965,30.532992118426964,1.4439534,10.095061,176.85176,1678499511999,0.70900035,29.668575,1934329551783000,9.885514,Walk
Fix,FLP,37.4296334,-122.1695861,-2.142479995500608,1.5429591,17.138,186.60309,1678499514416,,,1934329293487150,11.420153,Walk
Fix,FLP,37.4296304,-122.1695846,-2.142479995500608,1.5365765,17.266,186.0658,1678499514965,,,1934329842000000,11.420153,Walk
Fix,FLP,37.4296242,-122.1695833,-2.142479995500608,1.529596,17.377,185.32886,1678499515491,,,1934330369000000,11.420153,Walk
Fix,GPS,37.429621055,-122.1695667025,31.461705515312342,1.4505627,10.181892,175.33931,1678499512999,0.7059293,27.567131,1934330551807000,9.988247,Walk
Fix,FLP,37.4296133,-122.1695802,-4.599999904632568,1.5155488,17.246,183.77751,1678499516044,,,1934330921132841,11.519392,Walk
Fix,NLP,37.4284675,-122.1692161,-4.400000095367432,,27.349,,1678499516718,,,1934331595000000,7.3035808,Walk
Fix,FLP,37.4296103,-122.1695785,-4.400000095367432,1.511331,16.948,183.11977,1678499516586,,,1934331463680387,9.762985,Walk
Fix,GPS,37.4296071174,-122.1695661619,32.06598311137239,1.4483634,10.264803,191.99098,1678499513999,0.70908517,27.610174,1934331551808000,10.057941,Walk
Fix,FLP,37.4296004,-122.1695769,-4.400000095367432,1.5041713,16.429,182.53328,1678499517129,,,1934332006229704,9.762973,Walk
Fix,GPS,37.4295981526,-122.1695713222,32.47142722766693,1.4111013,10.3685665,191.99098,1678499514999,0.8751877,13.134726,1934332551847000,10.138611,Walk
Fix,FLP,37.4295977,-122.1695766,-4.400000095367432,1.5020543,16.177,182.79666,1678499517671,,,1934332548773222,9.772962,Walk
Fix,FLP,37.429587,-122.169578,-4.400000095367432,1.4950943,15.748,183.17586,1678499518214,,,1934333091318876,9.772962,Walk
Fix,GPS,37.4295894641,-122.1695784357,33.17367319292271,1.3815022,10.440465,207.14835,1678499515999,0.6956502,33.604454,1934333551805000,10.193169,Walk
Fix,FLP,37.429585,-122.1695787,2.0,1.4919949,15.58,182.86319,1678499518756,,,1934333633864103,10.36593,Walk
Fix,FLP,37.4295731,-122.1695804,2.0,1.4830695,15.415,182.30609,1678499519299,,,1934334176411344,10.36593,Walk
Fix,GPS,37.4295785268,-122.1695832427,33.74910140076045,1.3672962,10.485306,190.54187,1678499516999,0.6753312,26.445969,1934334551826000,10.231038,Walk
Fix,FLP,37.4295721,-122.1695807,2.0,1.4795971,15.285,182.00821,1678499519841,,,1934334718942228,9.638318,Walk
Fix,FLP,37.4295589,-122.1695819,2.0,1.4708381,14.652,181.68626,1678499520384,,,1934335261496061,9.638318,Walk
Fix,GPS,37.4295532515,-122.1695878197,33.949831000266435,1.4791405,10.549652,191.47647,1678499517999,0.7271312,18.977737,1934335551825000,10.255963,Walk
Fix,FLP,37.4295526,-122.169583,2.0,1.4672651,14.826,181.65976,1678499520926,,,1934335804039640,8.966425,Walk
Fix,FLP,37.4295451,-122.169584,2.0,1.4673839,15.266,182.03679,1678499521469,,,1934336346582365,8.966425,Walk
Fix,NLP,37.4283716,-122.169215,-4.5,,33.558,,1678499521747,,,1934336624000000,10.985642,Walk
Fix,GPS,37.4295262888,-122.1695948335,34.418520407112496,1.1721091,10.583703,193.47565,1678499518999,0.7064438,18.019623,1934336551886000,10.29817,Walk
Fix,FLP,37.429538,-122.169586,2.0,1.4670931,15.545,182.70004,1678499521990,,,1934336868982877,8.200709,Walk
Fix,FLP,37.4295303,-122.1695872,2.0,1.4666119,15.845,182.72444,1678499522554,,,1934337431666288,8.200709,Walk
Fix,GPS,37.4295065279,-122.1695998477,34.75830955474337,1.5819848,10.626011,191.56146,1678499519999,0.6887935,22.458416,1934337551879000,10.333582,Walk
Fix,FLP,37.4295224,-122.1695896,-4.5,1.469572,16.127,183.28584,1678499523097,,,1934337974201627,8.298642,Walk
Fix,GPS,37.4294913846,-122.1696060175,35.654585538697326,1.6048272,10.6975975,181.98903,1678499520999,0.7776585,27.130888,1934338551917000,10.379903,Walk
Fix,FLP,37.4295178,-122.1695914,-4.5,1.473459,16.388,183.7891,1678499523639,,,1934338516748686,8.313325,Walk
Fix,FLP,37.4295063,-122.1695949,-4.5,1.4850838,16.684,184.23643,1678499524182,,,1934339059289762,8.313325,Walk
Fix,GPS,37.4294788839,-122.1696089082,36.56559469262323,1.5277996,10.7590885,196.41916,1678499521999,0.74551994,25.269472,1934339551944000,10.427274,Walk
Fix,FLP,37.4295004,-122.1695967,-6.664525934381153,1.4932394,16.967,184.34943,1678499524724,,,1934339601827116,10.047573,Walk
Fix,FLP,37.4294859,-122.1696023,-6.664525934381153,1.5027608,17.3,185.09084,1678499525266,,,1934340144370207,10.047573,Walk
Fix,GPS,37.4294634324,-122.1696092945,37.454061501731545,1.5474181,10.737636,193.66556,1678499522999,0.6552943,26.854776,1934340551924000,10.465816,Walk
Fix,FLP,37.4294819,-122.1696054,-6.664525934381153,1.5060697,17.509,185.59125,1678499525809,,,1934340686909330,10.101254,Walk
Fix,FLP,37.4294684,-122.1696099,-6.664525934381153,1.5109535,17.989,186.3569,1678499526352,,,1934341229448209,10.101254,Walk
Fix,GPS,37.4294459328,-122.1696093894,37.51177593113844,1.6055003,10.756848,186.53609,1678499523999,0.71165377,21.018621,1934341551939000,10.48663,Walk
Fix,NLP,37.4284695,-122.169345,2.0,,52.387,,1678499526763,,,1934341641000000,5.507301,Walk
Fix,FLP,37.4294625,-122.1696109,-2.138589165685012,1.5193424,18.339,186.6348,1678499526894,,,1934341771978483,8.654657,Walk
Fix,FLP,37.4294488,-122.1696137,-2.138589165685012,1.5288378,18.358,186.73341,1678499527437,,,1934342314526335,8.654657,Walk
Fix,GPS,37.4294309521,-122.169608411,38.04195237889555,1.5975431,10.805292,187.27293,1678499524999,0.73548675,24.856258,1934342551989000,10.526178,Walk
Fix,FLP,37.4294389,-122.1696153,-0.7044694063758286,1.5366194,18.681,186.84401,1678499527980,,,1934342857064360,10.444347,Walk
Fix,FLP,37.4294305,-122.1696161,-0.7044694063758286,1.5405532,18.986,186.91978,1678499528522,,,1934343399584684,10.444347,Walk
Fix,GPS,37.4294225515,-122.1696080266,38.33569129119396,1.4813689,10.771336,197.7826,1678499525999,0.65994185,25.322432,1934343552007000,10.530165,Walk
Fix,FLP,37.4294221,-122.1696163,-1.9497125998170968,1.5410398,19.29,187.47885,1678499529065,,,1934343942142606,10.454289,Walk
Fix,FLP,37.4294149,-122.1696171,-1.9497125998170968,1.5375044,19.466,188.11534,1678499529607,,,1934344484677214,10.454289,Walk
Fix,GPS,37.4294118669,-122.1696147635,38.87108102681205,1.4468086,10.716799,200.46585,1678499526999,0.641691,33.293793,1934344552019000,10.520555,Walk
Fix,FLP,37.4294066,-122.1696177,-1.1570594109624963,1.5299103,19.605,189.09889,1678499530150,,,1934345027205228,8.313362,Walk
Fix,FLP,37.4294003,-122.1696182,-1.1570594109624963,1.526216,19.655,189.20354,1678499530692,,,1934345569750395,8.313362,Walk
Fix,GPS,37.4293992156,-122.1696182987,38.43567263727172,1.4337382,10.684572,189.66899,1678499527999,0.6533076,29.57499,1934345552014000,10.522207,Walk
Fix,FLP,37.4293914,-122.1696191,-2.473982373056145,1.5193114,19.734,189.39372,1678499531235,,,1934346112286711,11.290067,Walk
Fix,GPS,37.4293821709,-122.1696177916,38.51026564553556,1.4804758,10.652639,187.66943,1678499528999,0.6494938,20.795395,1934346552043000,10.516511,Walk
Fix,FLP,37.4293849,-122.1696203,-2.473982373056145,1.5159212,19.92,189.60783,1678499531777,,,1934346654825163,11.290067,Walk
Fix,FLP,37.4293748,-122.1696221,-4.599999904632568,1.5116186,19.966,189.97461,1678499532320,,,1934347197358549,11.290449,Walk
Fix,GPS,37.4293653245,-122.1696204393,39.19087882773158,1.5175858,10.642962,189.47282,1678499529999,0.6611027,23.124979,1934347552057000,10.52418,Walk
Fix,FLP,37.4293709,-122.1696227,-4.599999904632568,1.5112419,19.947,189.98831,1678499532862,,,1934347739892485,11.109586,Walk
Fix,FLP,37.4293602,-122.1696251,-4.599999904632568,1.5115837,19.57,189.95694,1678499533405,,,1934348282420011,11.109586,Walk
Fix,GPS,37.4293524955,-122.1696264863,39.40488609856988,1.504318,10.634097,189.47282,1678499530999,0.66233784,73.11297,1934348552086000,10.529042,Walk
Fix,FLP,37.4293534,-122.1696262,-4.400000095367432,1.5111676,18.955,189.86926,1678499533947,,,1934348824955533,13.338518,Walk
Fix,FLP,37.4293453,-122.1696275,-4.400000095367432,1.5111946,18.836,189.8403,1678499534490,,,1934349367499418,13.338518,Walk
Fix,GPS,37.4293441609,-122.1696289102,39.81897399365786,1.4416614,10.625426,199.25519,1678499531999,0.66292757,25.437601,1934349552370000,10.5499325,Walk
Fix,FLP,37.4293388,-122.1696286,2.0,1.5077113,18.643,190.22874,1678499534991,,,1934349868982877,10.797105,Walk
Fix,FLP,37.4293317,-122.1696305,2.0,1.5044688,18.638,190.71902,1678499535575,,,1934350452568571,10.797105,Walk
Fix,GPS,37.4293292077,-122.1696345187,39.60720391528882,1.4559388,10.649082,189.15086,1678499532999,0.7119852,36.12453,1934350553259000,10.577618,Walk
Fix,FLP,37.4293247,-122.1696319,-0.0276100827530214,1.5000154,18.63,191.13324,1678499536132,,,1934351009000000,10.34467,Walk
Fix,FLP,37.4293165,-122.1696331,-0.0276100827530214,1.4983552,18.437,190.97923,1678499536660,,,1934351537636808,10.34467,Walk
Fix,NLP,37.4286131,-122.1701668,2.0,,95.918,,1678499536701,,,1934351578000000,9.620957,Walk
Fix,GPS,37.4293159834,-122.1696357125,39.87348539499428,1.4460151,10.686963,180.66748,1678499533999,0.7268529,29.936916,1934351552158000,10.610095,Walk
Fix,FLP,37.4293079,-122.1696314,-0.0276100827530214,1.4944897,18.255,190.57526,1678499537213,,,1934352090000000,8.865081,Walk
Fix,FLP,37.4292989,-122.1696312,-0.0276100827530214,1.4934636,18.186,190.50938,1678499537745,,,1934352622694364,8.865081,Walk
Fix,GPS,37.4293002736,-122.1696358378,39.89861323699958,1.4643142,10.73474,180.36363,1678499534999,0.73521316,21.198534,1934352552150000,10.645475,Walk
Fix,FLP,37.4292893,-122.1696291,-0.0276100827530214,1.4921917,17.683,190.49779,1678499538287,,,1934353164000000,9.234889,Walk
Fix,FLP,37.4292809,-122.1696289,-0.0276100827530214,1.4919192,17.697,190.58257,1678499538830,,,1934353707770170,9.234889,Walk
Fix,GPS,37.4292911224,-122.1696337579,40.61894418209283,1.4210376,10.716999,180.36363,1678499535999,0.66290903,62.90887,1934353552155000,10.690898,Walk
Fix,FLP,37.4292709,-122.1696255,-4.5,1.4886659,17.101,190.69388,1678499539372,,,1934354249000000,6.797093,Walk
Fix,GPS,37.4292852742,-122.1696355767,40.82246532637012,1.3517259,10.690586,180.36363,1678499536999,0.66042656,81.508575,1934354552122000,10.741217,Walk
Fix,FLP,37.4292641,-122.1696205,-4.5,1.4795328,16.197,190.77623,1678499539914,,,1934354792835356,7.5855455,Walk
Fix,GPS,37.4292712618,-122.1696400862,41.96898082211617,1.3662078,10.654171,197.97827,1678499537999,0.6472738,21.077013,1934355552105000,10.7756195,Walk
Fix,FLP,37.4292548,-122.1696189,-4.5,1.4733777,15.422,190.91252,1678499540458,,,1934355335367887,7.4815516,Walk
Fix,FLP,37.4292501,-122.1696147,-4.5,1.4692122,14.801,190.98639,1678499540990,,,1934355867000000,7.4815516,Walk
Fix,FLP,37.4292428,-122.1696124,-4.5,1.4655242,14.182,191.00377,1678499541506,,,1934356383000000,7.4815516,Walk
Fix,GPS,37.4292571457,-122.1696492479,42.1535623859056,1.3941554,10.693075,201.52666,1678499538999,0.72206134,23.485098,1934356552158000,10.844259,Walk
Fix,FLP,37.429235,-122.1696079,-4.5,1.45911,12.371,191.13818,1678499542070,,,1934356947000000,10.162068,Walk
Fix,FLP,37.4292278,-122.1696069,-4.5,1.4571539,12.01,191.32202,1678499542574,,,1934357451000000,10.162068,Walk
Fix,NLP,37.4287175,-122.170526,2.0,,41.522,,1678499542696,,,1934357573000000,7.4109454,Walk
Fix,GPS,37.4292456017,-122.1696569411,41.76093506192058,1.3927058,10.739116,197.85213,1678499539999,0.7366139,30.611446,1934357552209000,10.904984,Walk
Fix,FLP,37.4292195,-122.1696043,-4.5,1.4506007,11.184,191.8905,1678499543152,,,1934358029000000,10.021434,Walk
Fix,GPS,37.4292373827,-122.1696618315,41.94190988068372,1.3587735,10.730577,202.5027,1678499540999,0.70121837,27.003954,1934358552161000,10.962517,Walk
Fix,FLP,37.4292129,-122.1696039,-4.599999904632568,1.4459647,10.7,192.20667,1678499543713,,,1934358590558256,10.547459,Walk
Fix,FLP,37.429201,-122.1696045,-4.599999904632568,1.4390558,10.096,192.33905,1678499544255,,,1934359133081083,10.547459,Walk
Fix,GPS,37.4292239756,-122.1696672199,42.07256700818449,1.3713992,10.7365265,204.83559,1678499541999,0.6973542,25.21726,1934359552178000,11.01766,Walk
Fix,FLP,37.4291999,-122.1696037,-1.999401057152013,1.4375731,10.044,192.3102,1678499544797,,,1934359675621000,8.173557,Walk
Fix,FLP,37.4291844,-122.1696057,-4.599999904632568,1.4331613,9.756,192.30702,1678499545845,,,1934360722000000,8.1367035,Walk
Fix,GPS,37.4292107285,-122.1696736027,42.091059318926014,1.3868343,10.722076,192.347,1678499542999,0.66321325,21.514704,1934360552196000,11.0527315,Walk
Fix,FLP,37.4291712,-122.1696071,-4.599999904632568,1.4243499,9.392,192.40736,1678499546426,,,1934361303214261,8.184779,Walk
Fix,GPS,37.4291994151,-122.1696812215,42.03132967033065,1.3894184,10.725439,197.88065,1678499543999,0.6684274,23.415218,1934361552211000,11.082538,Walk
Fix,NLP,37.4280227,-122.1662674,,,699.999,,1678499546934,,,1934361811000000,,Walk
Fix,FLP,37.4291686,-122.1696079,-1.999401057152013,1.4209492,9.257,192.53268,1678499546968,,,1934361845746733,8.207116,Walk
Fix,GPS,37.4291893239,-122.1696871054,42.24198962134873,1.3752792,10.732445,203.30872,1678499544999,0.6790175,26.965193,1934362552228000,11.094426,Walk
Fix,FLP,37.429161,-122.1696101,-1.7591324947553062,1.4163913,9.026,192.6716,1678499547511,,,1934362388277922,11.558287,Walk
Fix,FLP,37.4291529,-122.1696125,-1.7591324947553062,1.4099048,8.851,192.84373,1678499548053,,,1934362930809049,11.558287,Walk
Fix,GPS,37.4291780668,-122.1696943171,42.49781599335504,1.3744502,10.809658,216.05977,1678499545999,0.9239655,34.938103,1934363552280000,11.104796,Walk
Fix,FLP,37.4291513,-122.1696133,-0.2630430043785239,1.408839,8.716,193.02872,1678499548596,,,1934363473342984,11.048062,Walk
Fix,FLP,37.4291426,-122.1696166,-0.2630430043785239,1.4031279,8.64,193.4168,1678499549138,,,1934364015859281,11.048062,Walk
Fix,GPS,37.4291683197,-122.1697081765,42.101740615719855,1.3941917,10.851584,225.55835,1678499546999,0.7948518,27.142828,1934364552301000,11.099765,Walk
Fix,FLP,37.4291412,-122.1696174,2.0,1.4024622,8.613,193.56203,1678499549681,,,1934364558398588,11.07122,Walk
Fix,FLP,37.4291322,-122.1696215,2.0,1.3979048,8.584,193.84659,1678499550223,,,1934365100932341,11.07122,Walk
Fix,GPS,37.4291603576,-122.1697183067,41.546526749810965,1.3785975,10.857315,223.5367,1678499547999,0.6928288,35.706047,1934365552298000,11.087443,Walk
Fix,FLP,37.4291314,-122.1696224,2.0,1.3980355,8.608,193.88347,1678499550766,,,1934365643460660,10.78254,Walk
Fix,FLP,37.4291209,-122.1696278,2.0,1.394877,8.678,194.01933,1678499551308,,,1934366185984648,10.78254,Walk
Fix,GPS,37.4291580773,-122.1697227905,41.61605350751866,1.3011717,10.8703,223.5367,1678499548999,0.6688818,25.198488,1934366552360000,11.132211,Walk
Fix,FLP,37.4291207,-122.169629,-1.899855753470888,1.3946679,8.758,194.01358,1678499551851,,,1934366728524321,10.79257,Walk
Fix,FLP,37.4291082,-122.1696341,-1.899855753470888,1.3922713,9.03,193.90526,1678499552393,,,1934367271054838,10.79257,Walk
Fix,NLP,37.4290609,-122.1702818,1.899999976158142,,102.656,,1678499552685,,,1934367562000000,8.819729,Walk
Fix,GPS,37.4291479689,-122.1697280075,41.54708974314431,1.2863836,10.9000435,223.5367,1678499549999,0.86413777,177.35036,1934367552326000,11.136394,Walk
Fix,FLP,37.4290964,-122.1696411,-4.400000095367432,1.3835869,9.43,193.77393,1678499553479,,,1934368356118741,8.215802,Walk
Fix,GPS,37.4291385802,-122.1697317421,42.60383280841308,1.2675712,11.006278,186.68375,1678499550999,0.8294419,28.056362,1934368552400000,11.171862,Walk
Fix,GPS,37.4291291429,-122.1697297803,43.75673903209913,1.2469769,11.03398,188.21133,1678499551999,0.7375938,32.179333,1934369552347000,11.195329,Walk
Fix,FLP,37.4290838,-122.1696503,-4.400000095367432,1.3729765,9.831,193.9385,1678499554564,,,1934369441167753,8.935915,Walk
Fix,GPS,37.429124998,-122.1697312894,43.924840095918114,1.1832014,11.018833,188.21133,1678499552999,0.7966387,24.39106,1934370552357000,11.230582,Walk
Fix,FLP,37.4290731,-122.1696607,0.0189656973918417,1.3631924,10.293,194.42891,1678499555649,,,1934370526237699,7.372057,Walk
Fix,FLP,37.429061,-122.1696712,0.0189656973918417,1.3542511,10.609,195.2147,1678499556734,,,1934371611294156,7.372057,Walk
Fix,GPS,37.4291196476,-122.1697365794,42.36933903838998,1.1451054,11.020695,192.79462,1678499553999,0.6796509,37.209446,1934371552334000,11.28326,Walk
Fix,FLP,37.4290538,-122.16968,1.899999976158142,1.3416774,10.777,196.01479,1678499557276,,,1934372153828581,7.5404744,Walk
Fix,NLP,37.4291393,-122.1704474,-4.699999809265137,,61.872,,1678499557654,,,1934372531000000,7.1934714,Walk
Fix,GPS,37.4291109846,-122.1697322316,42.47756263953269,1.1313918,11.036519,195.18369,1678499554999,0.71786475,35.69843,1934372552501000,11.324154,Walk
Fix,FLP,37.4290511,-122.1696865,-1.2418493896956946,1.3249632,10.998,196.59747,1678499557818,,,1934372696361356,10.119542,Walk
Fix,FLP,37.4290443,-122.1696929,-1.2418493896956946,1.3159866,11.218,197.00072,1678499558371,,,1934373248000000,10.119542,Walk
Fix,GPS,37.4291022524,-122.1697315031,43.31923838441169,1.1128448,11.058878,195.18369,1678499555999,0.8713615,12.347842,1934373552416000,11.3530035,Walk
Fix,FLP,37.4290343,-122.1697048,2.0,1.2962676,11.343,197.98126,1678499559446,,,1934374323950041,10.016151,Walk
Fix,GPS,37.4290971096,-122.169733014,43.58202587474266,1.067803,11.085823,183.10892,1678499556999,0.7064143,35.477776,1934374552435000,11.386203,Walk
Fix,FLP,37.429026,-122.1697166,5.414448054436996,1.2739013,11.356,199.06615,1678499560532,,,1934375409011381,10.125944,Walk
Fix,GPS,37.4290884438,-122.1697338163,43.94482201447055,1.0552125,11.121029,183.10892,1678499557999,0.6930087,27.951069,1934375552419000,11.395916,Walk
Fix,GPS,37.4290848833,-122.1697409357,44.44784889211422,1.0289793,11.137869,197.55658,1678499558999,0.6938903,32.229267,1934376552448000,11.399762,Walk
Fix,FLP,37.4290191,-122.1697274,5.669751328862787,1.2506431,11.244,200.1309,1678499561617,,,1934376494073393,9.49085,Walk
Fix,FLP,37.4290164,-122.1697349,5.669751328862787,1.2268674,10.973,200.89145,1678499562158,,,1934377036604338,9.49085,Walk
Fix,GPS,37.4290727512,-122.1697457824,44.84637132564298,1.0604997,11.158862,190.54607,1678499559999,0.79281354,29.048244,1934377552473000,11.384964,Walk
Fix,FLP,37.4290127,-122.169739,2.0,1.2160023,10.757,200.85387,1678499562702,,,1934377579135405,9.50088,Walk
Fix,FLP,37.429008,-122.1697441,2.0,1.1976467,10.656,200.56732,1678499563244,,,1934378121666288,9.4882965,Walk
Fix,GPS,37.4290576526,-122.1697521718,45.10420635826903,1.1209867,11.11577,196.94331,1678499560999,0.66619956,20.858921,1934378552475000,11.34635,Walk
Fix,FLP,37.4290048,-122.1697463,-4.699999809265137,1.1906581,10.489,200.27734,1678499563787,,,1934378664197233,9.727562,Walk
Fix,FLP,37.4289982,-122.1697501,-4.699999809265137,1.1791248,10.434,199.56851,1678499564329,,,1934379206727934,9.727562,Walk
Fix,GPS,37.4290451383,-122.1697560164,45.706160783353184,1.1472976,11.155428,190.42946,1678499561999,0.77134126,28.218943,1934379552529000,11.315786,Walk
Fix,FLP,37.4289949,-122.1697514,-2.909591944009499,1.1762441,10.332,199.11473,1678499564872,,,1934379749258696,11.0159855,Walk
Fix,FLP,37.4289871,-122.169755,-2.909591944009499,1.1701772,10.327,198.39728,1678499565414,,,1934380291777616,11.0159855,Walk
Fix,GPS,37.4290322234,-122.1697607077,45.56971728795658,1.1748515,11.11885,189.91571,1678499562999,0.78500015,28.659832,1934380552501000,11.254478,Walk
Fix,FLP,37.4289828,-122.1697584,-4.699999809265137,1.166016,10.242,197.9311,1678499565957,,,1934380834319731,9.990146,Walk
Fix,FLP,37.4289781,-122.1697607,-4.699999809265137,1.1649075,10.251,197.4354,1678499566499,,,1934381376850248,9.990146,Walk
Fix,GPS,37.4290254727,-122.1697681252,45.48979015300126,1.1632965,11.136083,193.73286,1678499563999,0.7390277,24.410992,1934381552492000,11.200938,Walk
Fix,FLP,37.4289729,-122.1697633,-2.368575238671077,1.1622281,10.218,196.52878,1678499567042,,,1934381919369779,11.327817,Walk
Fix,FLP,37.4289669,-122.1697658,-2.368575238671077,1.1623771,10.256,196.403,1678499567583,,,1934382461910978,11.327817,Walk
Fix,GPS,37.429014618,-122.169772446,44.86469689219371,1.1705055,11.128495,192.8497,1678499564999,0.7008609,30.61551,1934382552508000,11.194834,Walk
Fix,FLP,37.4289601,-122.1697691,2.0,1.1612331,10.257,196.23811,1678499568127,,,1934383004432951,10.8754835,Walk
Fix,FLP,37.4289556,-122.1697708,2.0,1.1579059,10.268,195.33339,1678499568668,,,1934383546965360,10.8754835,Walk
Fix,GPS,37.4290071411,-122.1697724294,45.92169162751614,1.1410683,11.111586,192.8497,1678499565999,0.7657605,69.49198,1934383552612000,11.177595,Walk
Fix,FLP,37.428949,-122.1697733,9.307513316426892,1.1508559,10.285,193.98201,1678499569212,,,1934384089501371,10.885595,Walk
Fix,GPS,37.4289973559,-122.1697727057,46.01943156651058,1.1317534,11.133163,192.8497,1678499566999,0.8685743,37.180412,1934384552562000,11.162201,Walk
Fix,FLP,37.4289472,-122.1697737,8.85083940239852,1.1479849,10.286,193.2248,1678499569755,,,1934384632031217,15.358033,Walk
Fix,FLP,37.4289399,-122.1697753,8.85083940239852,1.1396823,10.268,191.6117,1678499570297,,,1934385174561186,15.358033,Walk
Fix,GPS,37.4289799997,-122.1697629858,46.53764860356438,1.203246,11.147682,166.63011,1678499567999,0.72559124,27.541088,1934385552585000,11.1430855,Walk
Fix,FLP,37.4289385,-122.169775,11.638680381821118,1.1376678,10.281,190.85611,1678499570839,,,1934385717089628,9.081908,Walk
Fix,FLP,37.4289303,-122.1697754,11.638680381821118,1.1364439,10.258,189.86562,1678499571382,,,1934386259622038,9.081908,Walk
Fix,GPS,37.4289652523,-122.1697607829,47.02061785919418,1.2354043,11.17964,176.68,1678499568999,0.8290431,26.713894,1934386552633000,11.146902,Walk
Fix,FLP,37.4289264,-122.1697747,8.951927324228365,1.140272,10.188,189.49623,1678499571925,,,1934386802150602,9.139173,Walk
Fix,FLP,37.4289207,-122.1697747,8.951927324228365,1.1435701,10.161,189.2453,1678499572467,,,1934387344674467,9.139173,Walk
Fix,GPS,37.4289548438,-122.1697542934,47.965282184872216,1.2380182,11.259565,168.36769,1678499569999,0.7957187,27.416666,1934387552759000,11.129015,Walk
Fix,FLP,37.4289161,-122.1697731,-2.4824558440236046,1.1484286,10.044,188.43018,1678499572991,,,1934387868982877,11.572082,Walk
Fix,FLP,37.4289096,-122.1697722,-2.4824558440236046,1.1493468,9.985,187.38924,1678499573552,,,1934388429739164,11.572082,Walk
Fix,GPS,37.42894052,-122.1697527408,47.63268790641746,1.2625127,11.285501,169.08887,1678499570999,0.69901085,28.155909,1934388552738000,11.103425,Walk
Fix,FLP,37.4289049,-122.1697692,-2.7072802771419333,1.1531044,9.884,185.60107,1678499574082,,,1934388959000000,8.494189,Walk
Fix,FLP,37.4288988,-122.1697678,-2.7072802771419333,1.1570257,9.872,184.97943,1678499574610,,,1934389487000000,8.494189,Walk
Fix,GPS,37.42892603,-122.1697486709,47.98732665516433,1.2889194,11.296902,172.98431,1678499571999,0.68815315,26.76481,1934389552664000,11.073127,Walk
Fix,FLP,37.4288885,-122.1697636,-2.0823190525593915,1.1655129,9.746,183.24432,1678499575180,,,1934390057321318,7.6831636,Walk
Fix,GPS,37.4289097013,-122.1697463373,48.35698617478261,1.3242071,11.304977,174.47108,1678499572999,0.68234044,30.31391,1934390552673000,11.036884,Walk
Fix,FLP,37.4288875,-122.1697618,3.764751401363185,1.1694702,9.716,182.3893,1678499575722,,,1934390599844694,8.637044,Walk
Fix,FLP,37.4288771,-122.1697577,3.764751401363185,1.1758347,9.646,180.58575,1678499576265,,,1934391142368376,8.637044,Walk
Fix,GPS,37.4288955406,-122.1697391576,48.49917523086761,1.3444879,11.309616,158.8779,1678499573999,0.6843071,34.32142,1934391552674000,10.994085,Walk
Fix,FLP,37.428876,-122.1697555,0.127805059734392,1.1806136,9.663,179.60968,1678499576807,,,1934391684914457,10.329591,Walk
Fix,FLP,37.4288648,-122.16975,0.127805059734392,1.187333,9.667,177.49101,1678499577350,,,1934392227443205,10.329591,Walk
Fix,GPS,37.4288863284,-122.1697264755,48.34607222306358,1.3497217,11.305066,149.24352,1678499574999,0.68106633,31.125738,1934392552699000,10.942281,Walk
Fix,FLP,37.4288595,-122.1697443,-0.5352890118543172,1.1933419,9.658,175.31718,1678499577892,,,1934392769971769,10.400637,Walk
Fix,FLP,37.4288533,-122.1697404,-0.5352890118543172,1.1971211,9.644,174.16078,1678499578435,,,1934393312500577,10.400637,Walk
Fix,GPS,37.4288789288,-122.1697132498,48.39354815871035,1.3495194,11.310388,148.56725,1678499575999,0.6975682,28.634039,1934393552955000,10.88517,Walk
Fix,FLP,37.4288473,-122.1697339,-0.1540105516883869,1.2030729,9.645,171.95807,1678499578978,,,1934393855026273,9.723714,Walk
Fix,FLP,37.4288412,-122.1697292,-0.1540105516883869,1.2057446,9.628,170.7154,1678499579519,,,1934394397555693,9.723714,Walk
Fix,GPS,37.428869692,-122.1696990823,48.437495242645845,1.3678038,11.323828,152.48392,1678499576999,0.6943761,23.484735,1934394552729000,10.817648,Walk
Fix,FLP,37.4288345,-122.1697211,2.0,1.2103868,9.593,168.34683,1678499580063,,,1934394940086332,9.710528,Walk
Fix,GPS,37.428858101,-122.1696881578,49.06940571054175,1.384982,11.386578,152.12717,1678499577999,0.83930826,26.416517,1934395552750000,10.755766,Walk
Fix,FLP,37.428831,-122.1697164,-1.0533582717996453,1.2127588,9.591,167.07515,1678499580605,,,1934395482603117,9.720437,Walk
Fix,FLP,37.4288242,-122.1697071,-1.0533582717996453,1.2169385,9.547,164.62653,1678499581147,,,1934396025143461,9.720437,Walk
Fix,GPS,37.4288449104,-122.1696760621,49.6224175832073,1.4173625,11.419425,151.18776,1678499578999,0.83630824,24.892475,1934396552901000,10.680752,Walk
Fix,FLP,37.4288209,-122.1697024,-1.134228335281129,1.2202866,9.534,163.4189,1678499581690,,,1934396567671537,9.931941,Walk
Fix,FLP,37.4288133,-122.1696922,-1.134228335281129,1.2243459,9.524,160.94075,1678499582233,,,1934397110199552,9.931941,Walk
Fix,GPS,37.4288342073,-122.1696601382,50.305108740783055,1.4495561,11.457374,135.07558,1678499579999,0.8257737,26.137339,1934397552738000,10.6016,Walk
Fix,FLP,37.4288111,-122.1696874,-1.0533582717996453,1.2254221,9.55,159.5923,1678499582775,,,1934397652717314,11.220025,Walk
Fix,FLP,37.4288038,-122.1696756,-1.0533582717996453,1.2265067,9.587,156.8372,1678499583318,,,1934398195254057,11.220025,Walk
Fix,GPS,37.428823339,-122.1696427699,50.6661346437598,1.488522,11.411418,119.21752,1678499580999,0.67637455,23.559254,1934398552757000,10.516716,Walk
Fix,FLP,37.4288022,-122.1696703,-4.699999809265137,1.2228565,9.605,155.24255,1678499583859,,,1934398737783719,10.491335,Walk
Fix,GPS,37.4288175455,-122.1696213753,50.502776739778376,1.5301771,11.346488,116.93987,1678499581999,0.6299139,19.987484,1934399552770000,10.4233675,Walk
Fix,FLP,37.4287948,-122.1696559,0.0280008017695863,1.2108431,9.629,151.73567,1678499584403,,,1934399280303862,11.67189,Walk
Fix,FLP,37.4287929,-122.1696472,0.0280008017695863,1.2041636,9.593,149.64131,1678499584945,,,1934399822839628,11.67189,Walk
Fix,FLP,37.4287902,-122.1696379,0.0280008017695863,1.1980615,9.637,147.5198,1678499585488,,,1934400365367765,11.67189,Walk
Fix,GPS,37.4288163468,-122.1696040627,50.1538650173918,1.5282413,11.283235,120.68872,1678499582999,0.61984795,26.357273,1934400552786000,10.333016,Walk
Fix,FLP,37.428789,-122.169628,2.0,1.1969526,10.369,144.1986,1678499585990,,,1934400868982877,11.205585,Walk
Fix,FLP,37.4287872,-122.1696217,2.0,1.1999993,11.134,142.72379,1678499586573,,,1934401450423429,11.205585,Walk
Fix,GPS,37.4288156771,-122.1695930083,50.03311382756551,1.4817201,11.268074,117.4644,1678499583999,0.7279033,30.38915,1934401552843000,10.255674,Walk
Fix,FLP,37.4287874,-122.1696135,-1.1230341388699117,1.2063826,12.697,140.13802,1678499587115,,,1934401992954190,11.215694,Walk
Fix,FLP,37.4287859,-122.1696074,-1.1230341388699117,1.2111362,13.562,139.01184,1678499587667,,,1934402544000000,11.215694,Walk
Fix,GPS,37.4288135914,-122.1695796191,49.396549389925,1.4602013,11.1727295,109.15565,1678499584999,0.6190653,22.472643,1934402552862000,10.1778345,Walk
Fix,FLP,37.428788,-122.1695971,2.0,1.2128991,15.075,136.33708,1678499588201,,,1934403078004789,13.702978,Walk
Fix,FLP,37.4287885,-122.1695884,2.0,1.2106113,16.252,134.65411,1678499588724,,,1934403601000000,13.702978,Walk
Fix,GPS,37.4288127925,-122.1695612008,48.93811218900024,1.4732422,11.087032,110.455696,1678499585999,0.62870216,23.45192,1934403552808000,10.104925,Walk
Fix,FLP,37.4287948,-122.1695728,2.0,1.2100171,16.906,131.39162,1678499589282,,,1934404159000000,8.629329,Walk
Fix,GPS,37.428814417,-122.1695448094,48.602828178182506,1.4675026,11.018879,105.970116,1678499586999,0.6303456,31.499218,1934404552848000,10.0374,Walk
Fix,FLP,37.4288024,-122.1695582,1.899999976158142,1.2146049,17.265,128.39186,1678499589828,,,1934404705584623,9.411538,Walk
Fix,FLP,37.4288053,-122.1695445,1.899999976158142,1.2180202,17.587,126.83086,1678499590352,,,1934405230000000,9.411538,Walk
Fix,GPS,37.4288127565,-122.1695328418,48.500852447355,1.4313253,11.002512,106.819595,1678499587999,0.66978115,33.09759,1934405552900000,9.982794,Walk
Fix,FLP,37.4288137,-122.1695207,-0.9845851349053234,1.2271892,17.66,122.99533,1678499590913,,,1934405790651213,13.003026,Walk
Fix,GPS,37.4288118041,-122.1695186195,48.449175143339424,1.4134154,10.941288,97.82946,1678499588999,0.6317301,28.69695,1934406553019000,9.9137125,Walk
Fix,FLP,37.4288165,-122.169511,-0.9845851349053234,1.2295777,17.036,121.6304,1678499591456,,,1934406333181120,13.003026,Walk
Fix,FLP,37.4288226,-122.1694947,-0.4707396742743341,1.2353191,16.185,119.24216,1678499591991,,,1934406868982877,8.9115095,Walk
Fix,GPS,37.4288121812,-122.169505218,48.6028797918573,1.3935902,10.893864,102.58665,1678499589999,0.631901,25.4583,1934407553035000,9.852326,Walk
Fix,FLP,37.4288259,-122.1694881,1.899999976158142,1.2404938,15.159,118.24945,1678499592541,,,1934407418238798,7.9753027,Walk
Fix,GPS,37.4288112652,-122.1694896304,48.717486035926605,1.389663,10.851112,106.2,1678499590999,0.6325954,28.586828,1934408553260000,9.793987,Walk
Fix,FLP,37.42883,-122.1694676,2.0,1.2504528,14.098,116.34651,1678499593626,,,1934408503299467,8.847441,Walk
Fix,FLP,37.4288354,-122.1694501,2.0,1.2580154,13.184,114.5093,1678499594168,,,1934409045829496,8.847441,Walk
Fix,GPS,37.4288089058,-122.1694749243,48.48575442223964,1.3816483,10.830536,97.3882,1678499591999,0.69888836,33.06151,1934409552970000,9.735737,Walk
Fix,FLP,37.4288382,-122.1694449,-0.8076801526122921,1.2615649,12.834,113.50263,1678499594710,,,1934409588359281,10.604074,Walk
Fix,FLP,37.428841,-122.1694282,-0.8076801526122921,1.2666545,12.245,111.67326,1678499595253,,,1934410130889311,10.604074,Walk
Fix,GPS,37.4288095237,-122.1694611671,48.53953466906842,1.366904,10.806263,84.89144,1678499592999,0.63999075,28.19957,1934410552946000,9.674936,Walk
Fix,FLP,37.4288431,-122.1694242,-1.684187565985816,1.2703242,12.004,110.80282,1678499595796,,,1934410673422147,10.693071,Walk
Fix,FLP,37.4288442,-122.1694083,-1.684187565985816,1.2747955,11.583,109.3416,1678499596338,,,1934411215951749,10.693071,Walk
Fix,GPS,37.4288109259,-122.1694463728,48.05730308367144,1.3613973,10.78451,101.132576,1678499593999,0.6355753,27.721598,1934411552940000,9.612953,Walk
Fix,FLP,37.4288456,-122.1694056,2.0,1.2787622,11.488,108.796135,1678499596881,,,1934411758470182,9.55875,Walk
Fix,FLP,37.4288454,-122.1693909,2.0,1.282584,10.802,108.00111,1678499597424,,,1934412301009184,9.55875,Walk
Fix,GPS,37.4288111858,-122.169429322,47.71100297537071,1.3695314,10.756999,110.62969,1678499594999,0.6322317,29.45675,1934412552954000,9.551345,Walk
Fix,FLP,37.4288463,-122.1693849,-0.5000429685821715,1.2857746,10.465,107.60267,1678499597966,,,1934412843539212,9.928886,Walk
Fix,FLP,37.4288454,-122.1693775,-0.5000429685821715,1.2882519,10.298,107.5495,1678499598508,,,1934413386068998,9.928886,Walk
Fix,GPS,37.4288085398,-122.1694165311,47.23871256738288,1.3512571,10.7396345,105.832275,1678499595999,0.6390086,29.238031,1934413553002000,9.493331,Walk
Fix,FLP,37.4288451,-122.1693704,-0.5000429685821715,1.2917572,10.039,107.46228,1678499599051,,,1934413928598722,9.938889,Walk
Fix,GPS,37.4288042658,-122.1694082763,47.339058633771295,1.3144071,10.737704,106.70528,1678499596999,0.64606893,26.097464,1934414553010000,9.441395,Walk
Fix,FLP,37.4288439,-122.1693628,-0.956620280877587,1.2932211,9.827,107.41683,1678499599594,,,1934414471127774,9.938032,Walk
Fix,FLP,37.428843,-122.1693552,-0.956620280877587,1.2939826,9.593,107.29956,1678499600136,,,1934415013658049,9.943053,Walk
Fix,GPS,37.4288011345,-122.169395969,47.39105568214232,1.300345,10.732532,102.73348,1678499597999,0.64316005,29.898224,1934415553023000,9.388284,Walk
Fix,FLP,37.4288417,-122.1693478,-0.956620280877587,1.2938929,9.401,107.216675,1678499600679,,,1934415556191495,9.943053,Walk
Fix,FLP,37.4288403,-122.1693397,-0.5000429685821715,1.2918798,9.184,107.05321,1678499601221,,,1934416098716886,11.642236,Walk
Fix,GPS,37.4288016805,-122.169388145,47.47774866973399,1.2531006,10.720268,104.35133,1678499598999,0.64103687,30.9395,1934416553077000,9.341526,Walk
Fix,FLP,37.4288396,-122.1693357,-2.704444688143994,1.2921067,8.994,106.97141,1678499601764,,,1934416641246672,10.726993,Walk
Fix,FLP,37.4288382,-122.1693273,-2.704444688143994,1.2870787,8.785,106.71424,1678499602306,,,1934417183776213,10.726993,Walk
Fix,GPS,37.4287980082,-122.1693754523,47.6126560419784,1.2507973,10.694771,112.756165,1678499599999,0.63194317,24.304266,1934417553014000,9.291391,Walk
Fix,FLP,37.4288377,-122.1693239,-2.350718818564175,1.2852799,8.678,106.45884,1678499602849,,,1934417726305571,10.812866,Walk
Fix,FLP,37.4288366,-122.1693148,-2.350718818564175,1.278407,8.47,106.0582,1678499603391,,,1934418268834562,10.812866,Walk
Fix,GPS,37.4287909554,-122.169353836,47.69183544104209,1.31586,10.666637,114.48915,1678499600999,0.62928855,23.579021,1934418553103000,9.249454,Walk
Fix,FLP,37.4288357,-122.1693097,2.0,1.2745321,8.225,105.96841,1678499603934,,,1934418811351957,16.256727,Walk
Fix,FLP,37.4288348,-122.1693028,2.0,1.2763382,8.139,105.981964,1678499604476,,,1934419353893034,16.256727,Walk
Fix,GPS,37.4287845162,-122.1693396662,47.56987293101948,1.325916,10.646194,114.74908,1678499601999,0.6367649,27.3401,1934419553052000,9.211359,Walk
Fix,FLP,37.4288339,-122.1692949,2.0,1.2796824,7.901,106.015465,1678499604991,,,1934419868982877,11.552491,Walk
Fix,FLP,37.4288325,-122.1692868,2.0,1.2825772,7.823,106.00014,1678499605561,,,1934420438951322,11.552491,Walk
Fix,GPS,37.4287841961,-122.1693244205,47.47864539010565,1.3263077,10.62211,100.322685,1678499602999,0.6283163,29.464216,1934420553199000,9.179244,Walk
Fix,FLP,37.4288311,-122.1692779,2.0,1.2861294,7.604,105.86936,1678499606104,,,1934420981480619,11.562522,Walk
Fix,FLP,37.4288297,-122.1692704,2.0,1.2879987,7.495,105.61602,1678499606647,,,1934421524009854,11.562522,Walk
Fix,GPS,37.4287867455,-122.1693105227,47.18081821349264,1.3192658,10.588379,90.91359,1678499603999,0.62189555,29.764837,1934421553091000,9.142537,Walk
Fix,FLP,37.428828,-122.1692614,1.899999976158142,1.2897265,7.372,105.23335,1678499607189,,,1934422066538725,10.017534,Walk
Fix,FLP,37.4288266,-122.1692539,1.899999976158142,1.2905488,7.278,104.95405,1678499607732,,,1934422609067228,10.017534,Walk
Fix,GPS,37.4287897874,-122.1692967895,46.571712374188,1.3114729,10.598833,93.15529,1678499604999,0.7537917,35.914288,1934422553135000,9.105796,Walk
Fix,FLP,37.4288247,-122.1692441,1.899999976158142,1.2907324,7.164,104.44215,1678499608274,,,1934423151596280,9.68624,Walk
Fix,FLP,37.4288236,-122.169237,1.899999976158142,1.2912679,7.087,104.08311,1678499608817,,,1934423694125090,9.696319,Walk
Fix,GPS,37.428790807,-122.169280349,46.149480152373975,1.3185966,10.604498,113.18234,1678499605999,0.68685764,33.17431,1934423553095000,9.080786,Walk
Fix,FLP,37.4288216,-122.1692266,1.899999976158142,1.2913998,7.01,103.58486,1678499609359,,,1934424236653593,12.2509165,Walk
Fix,GPS,37.4287894659,-122.1692670659,46.35964393596093,1.3057576,10.612575,109.87511,1678499606999,0.66046876,28.206907,1934424553474000,9.061907,Walk
Fix,FLP,37.4288201,-122.1692214,1.899999976158142,1.2902722,6.864,103.37961,1678499609902,,,1934424779182524,9.106028,Walk
Fix,FLP,37.4288183,-122.1692125,1.899999976158142,1.2922949,6.827,103.611694,1678499610444,,,1934425321711637,9.106028,Walk
Fix,GPS,37.4287847683,-122.1692507566,46.34834461087304,1.3227786,10.574001,109.31242,1678499607999,0.61900795,24.719501,1934425553605000,9.029486,Walk
Fix,FLP,37.4288167,-122.1692045,1.899999976158142,1.2954302,6.697,104.051025,1678499610985,,,1934425862000000,8.242184,Walk
Fix,FLP,37.4288145,-122.1691949,1.899999976158142,1.2986202,6.658,104.423,1678499611529,,,1934426406769864,8.242184,Walk
Fix,GPS,37.4287823497,-122.1692323082,46.1576315792494,1.3464793,10.543563,114.014244,1678499608999,0.6404929,27.377953,1934426553132000,9.004112,Walk
Fix,FLP,37.4288123,-122.1691862,2.0,1.3035529,6.51,105.096535,1678499612055,,,1934426932000000,9.066928,Walk
Fix,FLP,37.4288099,-122.1691769,2.0,1.3072927,6.475,105.47984,1678499612604,,,1934427481000000,9.066928,Walk
Fix,GPS,37.4287809306,-122.1692150304,45.87327684454008,1.3562037,10.51772,109.57468,1678499609999,0.6513554,34.773533,1934427553223000,8.98773,Walk
Fix,FLP,37.4288076,-122.1691681,-2.140836493419286,1.3129094,6.338,106.0313,1678499613110,,,1934427987000000,10.896315,Walk
Fix,FLP,37.4288051,-122.1691584,-2.140836493419286,1.3166511,6.278,106.24278,1678499613690,,,1934428567000000,10.896315,Walk
Fix,GPS,37.4287801282,-122.1691965833,45.76119939161171,1.3728924,10.509418,108.09934,1678499610999,0.63341457,28.745014,1934428553219000,8.96876,Walk
Fix,FLP,37.4288016,-122.1691447,-2.1807665048257974,1.3205817,6.184,106.66111,1678499614241,,,1934429119412321,10.977371,Walk
Fix,GPS,37.4287763881,-122.1691861088,45.55329935268416,1.3425267,10.521044,122.28305,1678499611999,0.6693194,28.014763,1934429553243000,8.9599905,Walk
Fix,FLP,37.428801,-122.1691429,-2.440869370706686,1.3247899,6.189,106.6683,1678499614784,,,1934429661944242,10.843978,Walk
Fix,FLP,37.4287977,-122.1691286,-2.440869370706686,1.3256562,6.146,106.62811,1678499615327,,,1934430204473783,10.843978,Walk
Fix,GPS,37.4287698249,-122.1691756574,44.94198408257884,1.3284318,10.536482,120.96985,1678499612999,0.63643473,26.195269,1934430553218000,8.9467,Walk
Fix,FLP,37.4287975,-122.1691269,-0.9921251048837618,1.3282202,6.159,106.52877,1678499615870,,,1934430747002592,11.088619,Walk
Fix,FLP,37.4287944,-122.1691116,2.0,1.3263317,6.152,106.38616,1678499616412,,,1934431289531279,10.156049,Walk
Fix,GPS,37.4287640092,-122.1691606887,44.91156515101838,1.3366364,10.53036,110.42172,1678499613999,0.62274617,29.950823,1934431553262000,8.928269,Walk
Fix,FLP,37.4287928,-122.1691046,2.0,1.323984,6.16,106.28198,1678499616955,,,1934431832049223,10.156042,Walk
Fix,GPS,37.4287616523,-122.1691411788,45.4483727870219,1.3653035,10.515087,92.74438,1678499614999,0.6297091,27.707394,1934432553256000,8.914465,Walk
Fix,FLP,37.4287908,-122.1690966,2.0,1.3239843,6.16,106.2415,1678499617497,,,1934432374586210,10.156042,Walk
Fix,FLP,37.4287888,-122.1690879,2.0,1.324177,6.187,106.14615,1678499618040,,,1934432917120267,10.15605,Walk
Fix,GPS,37.4287565888,-122.169126084,45.867290085426674,1.3702092,10.49688,93.039406,1678499615999,0.65070105,27.650515,1934433553300000,8.896509,Walk
Fix,FLP,37.4287876,-122.1690827,2.0,1.3266885,6.202,106.10061,1678499618582,,,1934433459631986,11.86247,Walk
Fix,FLP,37.4287851,-122.1690731,2.0,1.328814,6.212,106.03172,1678499619125,,,1934434002175505,11.86247,Walk
Fix,GPS,37.4287538644,-122.1691119244,46.10457331533986,1.3615688,10.464546,106.49824,1678499616999,0.6415254,29.205875,1934434553317000,8.874575,Walk
Fix,FLP,37.4287837,-122.1690677,-1.8014161684327732,1.3319305,6.224,105.95255,1678499619667,,,1934434544704496,10.9647045,Walk
Fix,FLP,37.428781,-122.1690571,-1.8014161684327732,1.3343401,6.252,105.87935,1678499620210,,,1934435087233122,10.9647045,Walk
Fix,GPS,37.4287530569,-122.1690952919,46.41679608353057,1.3660266,10.494234,99.51182,1678499617999,0.73790306,34.200405,1934435553641000,8.851932,Walk
Fix,FLP,37.4287797,-122.1690517,-1.6334954668717003,1.3373955,6.266,105.91124,1678499620752,,,1934435629761930,10.988613,Walk
Fix,FLP,37.4287771,-122.1690401,-1.6334954668717003,1.3394308,6.302,105.87934,1678499621295,,,1934436172281889,10.988613,Walk
Fix,GPS,37.4287548284,-122.1690815704,46.13672332561487,1.349957,10.532113,100.80928,1678499618999,0.77852136,37.820553,1934436553354000,8.836132,Walk
Fix,FLP,37.4287761,-122.1690353,2.0,1.3424721,6.336,105.82142,1678499621837,,,1934436714814847,12.390392,Walk
Fix,FLP,37.4287738,-122.1690234,2.0,1.3424772,6.388,105.68886,1678499622380,,,1934437257348234,12.390392,Walk
Fix,GPS,37.4287577948,-122.1690661764,46.276775640102784,1.3502673,10.589316,78.95664,1678499619999,0.76105213,30.585106,1934437553358000,8.8229885,Walk
Fix,FLP,37.4287729,-122.1690173,2.0,1.3401368,6.374,105.51238,1678499622922,,,1934437799865141,14.404884,Walk
Fix,FLP,37.4287716,-122.1690099,2.0,1.3402056,6.376,105.410934,1678499623465,,,1934438342391203,14.404884,Walk
Fix,GPS,37.4287609578,-122.1690488649,46.201103832049306,1.364457,10.591906,77.638466,1678499620999,0.66786355,29.210756,1934438553385000,8.810356,Walk
Fix,FLP,37.4287706,-122.1690029,2.0,1.3395832,6.32,105.27524,1678499623991,,,1934438868982877,14.414934,Walk
Fix,FLP,37.4287693,-122.1689953,2.0,1.3403888,6.322,105.22861,1678499624550,,,1934439427462674,14.414934,Walk
Fix,GPS,37.4287617408,-122.1690396138,46.0442030111488,1.3190367,10.671325,80.726036,1678499621999,0.7953157,38.687542,1934439553368000,8.827622,Walk
Fix,FLP,37.4287683,-122.1689876,0.2567934261863769,1.3390481,6.258,105.11399,1678499625092,,,1934439969991240,10.363017,Walk
Fix,FLP,37.428767,-122.1689804,0.2567934261863769,1.3381481,6.225,104.94425,1678499625635,,,1934440512520109,10.363017,Walk
Fix,GPS,37.428760304,-122.1690272981,46.12216447301098,1.2979974,10.681231,101.04478,1678499622999,0.68067914,36.06138,1934440553635000,8.824977,Walk
Fix,FLP,37.4287657,-122.1689718,1.899999976158142,1.3335558,6.165,104.68209,1678499626178,,,1934441055045682,9.96308,Walk
Fix,FLP,37.4287646,-122.1689655,1.899999976158142,1.3318325,6.112,104.60054,1678499626720,,,1934441597577238,9.96308,Walk
Fix,GPS,37.4287572631,-122.1690123996,46.09700601256073,1.3007708,10.693833,111.39639,1678499623999,0.6609515,27.675222,1934441553422000,8.826449,Walk
Fix,FLP,37.4287635,-122.168958,-0.1509578871336572,1.3262076,6.056,104.608505,1678499627263,,,1934442140105863,10.308772,Walk
Fix,FLP,37.4287624,-122.1689519,-0.1509578871336572,1.3241655,6.027,104.728584,1678499627805,,,1934442682622647,10.308772,Walk
Fix,GPS,37.4287530814,-122.168999761,45.772270576407664,1.2906482,10.707291,111.16067,1678499624999,0.66208696,33.50393,1934442553399000,8.8328085,Walk
Fix,FLP,37.4287611,-122.1689439,-0.5510946785978703,1.3176844,6.031,104.873695,1678499628348,,,1934443225155668,9.354516,Walk
Fix,GPS,37.4287523604,-122.1689840039,46.09504126347437,1.2945113,10.708157,107.60106,1678499625999,0.658586,33.958763,1934443553680000,8.840185,Walk
Fix,FLP,37.4287606,-122.1689409,1.899999976158142,1.3110985,6.011,104.82581,1678499628890,,,1934443767691618,8.511223,Walk
Fix,FLP,37.4287594,-122.1689341,1.899999976158142,1.3085148,6.021,104.69818,1678499629433,,,1934444310220182,8.511223,Walk
Fix,GPS,37.4287513028,-122.1689733053,46.04930140660403,1.2639766,10.722738,108.629036,1678499626999,0.7287969,38.84833,1934444553420000,8.850351,Walk
Fix,FLP,37.4287588,-122.1689298,3.984428783986076,1.3020673,6.005,104.51421,1678499629975,,,1934444852748686,9.321089,Walk
Fix,FLP,37.4287573,-122.1689221,3.984428783986076,1.2999386,6.032,104.5721,1678499630518,,,1934445395274076,9.321089,Walk
Fix,GPS,37.4287505914,-122.1689615567,45.72927078392809,1.2428255,10.809744,113.28845,1678499627999,0.8153671,38.924393,1934445553434000,8.856251,Walk
Fix,FLP,37.4287562,-122.1689162,0.3474824423572826,1.2949525,6.05,104.74089,1678499631078,,,1934445955000000,11.272114,Walk
Fix,FLP,37.4287546,-122.168909,0.3474824423572826,1.2927176,6.093,104.968056,1678499631612,,,1934446489000000,11.272114,Walk
Fix,GPS,37.4287421623,-122.1689515847,45.44917716055091,1.2428141,10.834165,131.83075,1678499628999,0.74529797,33.845577,1934446553470000,8.867921,Walk
Fix,FLP,37.4287517,-122.1688971,-0.1656012811216385,1.2843724,6.217,105.49725,1678499632652,,,1934447529000000,11.266059,Walk
Fix,GPS,37.4287376859,-122.1689373994,45.16076324558132,1.2497374,10.894131,126.82055,1678499629999,0.8267537,33.458225,1934447553522000,8.874537,Walk
Fix,FLP,37.4287495,-122.1688872,-0.7831038685709188,1.2745116,6.446,105.641235,1678499633230,,,1934448107918791,11.265963,Walk
Fix,GPS,37.4287372966,-122.1689237193,44.95421830657319,1.2462603,10.919118,125.02476,1678499630999,0.6957418,29.651344,1934448553527000,8.876059,Walk
Fix,FLP,37.4287495,-122.1688868,2.0,1.273742,6.525,105.51019,1678499633773,,,1934448650436430,11.305385,Walk
Fix,FLP,37.4287469,-122.1688744,2.0,1.2682272,6.779,105.32131,1678499634315,,,1934449192972379,11.305385,Walk
Fix,GPS,37.4287295628,-122.1689140472,44.47016461137516,1.2437488,10.945378,112.693184,1678499631999,0.67909104,30.098862,1934449553563000,8.876767,Walk
Fix,FLP,37.4287468,-122.1688735,2.0,1.2683245,6.853,105.23161,1678499634857,,,1934449735503752,10.371512,Walk
Fix,FLP,37.4287435,-122.1688597,2.0,1.2641997,7.138,105.15598,1678499635401,,,1934450278021329,10.371512,Walk
Fix,GPS,37.4287247113,-122.1689030197,44.116464486901,1.2349567,10.958963,102.84484,1678499632999,0.6731841,29.18271,1934450553551000,8.880842,Walk
Fix,FLP,37.4287413,-122.1688531,0.1628569995897919,1.2598381,7.265,105.24286,1678499635943,,,1934450820559965,10.37263,Walk
Fix,GPS,37.4287230866,-122.1688845148,44.3923578501848,1.2647697,10.9544325,112.72274,1678499633999,0.6608897,32.56085,1934451553819000,8.878682,Walk
Fix,FLP,37.4287396,-122.1688481,-2.9116388474112043,1.2592863,7.416,105.508575,1678499636485,,,1934451363088224,12.091675,Walk
Fix,FLP,37.4287363,-122.1688399,-2.9116388474112043,1.257655,7.517,106.14444,1678499636991,,,1934451868982877,12.091675,Walk
Fix,GPS,37.4287209555,-122.1688697274,45.1363800280312,1.265673,10.912001,115.08839,1678499634999,0.6324893,34.45214,1934452553578000,8.874127,Walk
Fix,FLP,37.4287344,-122.1688352,-2.9116388474112043,1.2590148,7.628,106.50762,1678499637571,,,1934452448144438,11.894254,Walk
Fix,FLP,37.4287306,-122.1688248,-2.9116388474112043,1.2596134,7.706,107.051476,1678499638113,,,1934452990672452,11.894254,Walk
Fix,GPS,37.4287229473,-122.1688510052,45.423520348624926,1.2926347,10.862536,92.29617,1678499635999,0.6290116,30.834152,1934453553627000,8.8646755,Walk
Fix,FLP,37.4287291,-122.1688209,-4.699999809265137,1.2614877,7.745,107.14534,1678499638656,,,1934453533203763,11.212728,Walk
Fix,FLP,37.4287253,-122.1688093,-4.699999809265137,1.2630609,7.845,107.341354,1678499639198,,,1934454075728849,11.212728,Walk
Fix,GPS,37.4287259904,-122.1688346911,45.51986724503731,1.30375,10.827977,92.395645,1678499636999,0.649923,30.537807,1934454553607000,8.857925,Walk
Fix,FLP,37.4287241,-122.1688063,0.1283207427650552,1.2659945,7.888,107.426834,1678499639741,,,1934454618253996,12.754253,Walk
Fix,FLP,37.42872,-122.1687935,0.1283207427650552,1.268972,7.977,107.68482,1678499640282,,,1934455160785063,12.754253,Walk
Fix,GPS,37.4287211525,-122.1688181408,45.77778264020174,1.3248005,10.854714,112.93204,1678499637999,0.7804725,25.597004,1934455553831000,8.848949,Walk
Fix,FLP,37.4287191,-122.1687911,2.0,1.2723899,8.041,107.88277,1678499640826,,,1934455703313566,14.692847,Walk
Fix,FLP,37.4287149,-122.1687774,2.0,1.276398,8.148,108.27433,1678499641368,,,1934456245830289,14.692847,Walk
Fix,GPS,37.428718579,-122.168800207,45.336893416104935,1.3485001,10.913038,104.71063,1678499638999,0.8062779,28.322416,1934456553620000,8.863737,Walk
Fix,FLP,37.4287124,-122.1687693,-0.6257932802626414,1.2810223,8.205,108.60838,1678499641911,,,1934456788357694,14.702927,Walk
Fix,FLP,37.4287104,-122.1687629,-0.6257932802626414,1.2844685,8.28,108.71633,1678499642453,,,1934457330890104,14.702927,Walk
Fix,GPS,37.4287122874,-122.1687842641,45.37841849908229,1.361431,10.908974,106.66175,1678499639999,0.6672506,37.77509,1934457553669000,8.883006,Walk
Fix,FLP,37.4287075,-122.1687544,1.899999976158142,1.2902635,8.311,108.918625,1678499642991,,,1934457868982877,14.64405,Walk
Fix,FLP,37.4287052,-122.1687471,1.899999976158142,1.2936372,8.384,109.01893,1678499643538,,,1934458415952848,14.64405,Walk
Fix,GPS,37.4287096912,-122.168773298,45.23993028727524,1.3283156,10.909088,103.93764,1678499640999,0.6617247,38.992603,1934458553664000,8.915,Walk
Fix,FLP,37.4287018,-122.1687376,1.899999976158142,1.2975796,8.416,109.28317,1678499644081,,,1934458958480131,12.222024,Walk
Fix,GPS,37.4287109826,-122.1687608344,45.08652873825272,1.3058846,10.972104,88.86636,1678499641999,0.83282685,38.665,1934459553662000,8.954586,Walk
Fix,FLP,37.4286995,-122.1687308,1.899999976158142,1.299248,8.446,109.389,1678499644623,,,1934459501007718,12.222024,Walk
Fix,FLP,37.428696,-122.1687206,1.899999976158142,1.2994977,8.456,109.47934,1678499645165,,,1934460043536955,12.2039385,Walk
Fix,GPS,37.4287102834,-122.1687439356,45.0388616726761,1.3153346,11.02632,86.282555,1678499642999,0.7962724,36.63197,1934460553690000,8.983598,Walk
Fix,FLP,37.428695,-122.1687175,1.899999976158142,1.3001245,8.499,109.34374,1678499645709,,,1934460586063139,10.670992,Walk
Fix,FLP,37.4286923,-122.1687066,1.899999976158142,1.29918,8.52,109.06068,1678499646251,,,1934461128590422,10.670992,Walk
