Fix,Provider,LatitudeDegrees,LongitudeDegrees,AltitudeMeters,SpeedMps,AccuracyMeters,BearingDegrees,UnixTimeMillis,SpeedAccuracyMps,BearingAccuracyDegrees,elapsedRealtimeNanos,VerticalAccuracyMeters,TransitType
Fix,FLP,37.421662,-122.1587214,-8.200000762939453,0.32827553,7.677,278.1141,1678295686555,0.38808858,44.24074,1730498564824000,4.747674,Walk
Fix,GPS,37.4216637356,-122.1587089385,-7.22143693961338,0.90121114,8.200915,278.4337,1678295685000,0.47058624,25.0,1730499564836000,6.761061,Walk
Fix,FLP,37.4216627,-122.1587186,-8.200000762939453,0.67604166,7.789,278.26694,1678295687556,0.47058624,25.0,1730499564836000,4.7580743,Walk
Fix,GPS,37.4216677328,-122.1587069109,-7.365014689410036,0.90550995,7.707958,278.4337,1678295686000,0.32211876,25.0,1730500564845000,6.470924,Walk
Fix,FLP,37.4216647,-122.158719,-8.200000762939453,0.89754367,7.872,278.01868,1678295688556,0.32211876,25.0,1730500564845000,4.767674,Walk
Fix,GPS,37.4216689392,-122.1586997143,-7.553258807306265,1.7393734,7.5718555,40.28419,1678295687000,0.28338122,25.0,1730501564867000,6.234149,Walk
Fix,FLP,37.4216678,-122.1587168,-8.200000762939453,0.7354728,7.819,353.97696,1678295689556,0.28338122,25.0,1730501564867000,4.7780643,Walk
Fix,GPS,37.4216615808,-122.1586864339,-8.612638587522934,1.0807565,6.7678223,47.88542,1678295688000,0.2836895,25.0,1730502564884000,5.811514,Walk
Fix,FLP,37.4216722,-122.1587001,-8.200000762939453,1.1930449,7.722,42.83915,1678295690555,0.2836895,25.0,1730502564884000,4.787684,Walk
Fix,NLP,37.4216121,-122.1587577,-8.5,,19.768,,1678295686511,,,1730498519000000,1.6026175,Walk
Fix,GPS,37.4216623444,-122.1586789546,-9.04881069596249,1.2929646,6.542161,52.545918,1678295689000,0.31865808,25.0,1730503564889000,5.610114,Walk
Fix,FLP,37.4216668,-122.1586763,-8.5,1.219136,7.519,50.673927,1678295691556,0.31865808,25.0,1730503564889000,2.110536,Walk
Fix,GPS,37.4216649117,-122.1586684019,-9.218611053054858,1.3532861,6.4203463,39.455708,1678295690000,0.3955158,25.0,1730504564931000,5.447179,Walk
Fix,FLP,37.4216685,-122.1586692,-8.5,1.3261617,7.239,43.780437,1678295692556,0.3955158,25.0,1730504564931000,2.120136,Walk
Fix,GPS,37.4216713815,-122.1586573705,-9.5587765723679,1.4697522,6.4719086,45.166847,1678295691000,0.3033342,25.0,1730505564932000,5.3685856,Walk
Fix,FLP,37.4216722,-122.1586612,-8.5,1.3982905,6.888,41.74483,1678295693555,0.3033342,25.0,1730505564932000,2.130536,Walk
Fix,GPS,37.4216777437,-122.1586429317,-9.433564504462584,1.4274726,6.5021963,62.42227,1678295692000,0.28898254,25.0,1730506564943000,5.3130608,Walk
Fix,FLP,37.421678,-122.1586499,-8.5,1.468524,6.667,51.567036,1678295694556,0.28898254,25.0,1730506564943000,2.140136,Walk
Fix,GPS,37.4216827476,-122.15863168,-9.529152495202675,1.2208602,6.3560934,60.195282,1678295693000,0.23667057,25.0,1730507564941000,5.2664404,Walk
Fix,FLP,37.4216828,-122.1586363,-8.5,1.3304749,6.507,60.40567,1678295695556,0.23667057,25.0,1730507564941000,2.150536,Walk
Fix,GPS,37.42169194,-122.1586215991,-9.070029095288977,1.1603887,6.0434346,45.37819,1678295694000,0.22677605,25.0,1730508564960000,5.1784286,Walk
Fix,FLP,37.421688,-122.1586245,-8.5,1.208341,6.424,53.43838,1678295696556,0.22677605,25.0,1730508564960000,2.160156,Walk
Fix,NLP,37.4217335,-122.1588556,-8.5,,23.336,,1678295696911,,,1730508919000000,1.0,Walk
Fix,FLP,37.4216908,-122.1586209,-8.5,1.1735297,6.393,47.66038,1678295696911,0.22677605,25.0,1730508919000000,1.3738418,Walk
Fix,GPS,37.4217005111,-122.1586142443,-8.662521937355397,0.98684764,5.847021,45.37819,1678295695000,0.22196443,25.0,1730509564966000,5.07616,Walk
Fix,FLP,37.4216961,-122.158616,-8.5,1.0746272,6.309,45.105396,1678295697555,0.22196443,25.0,1730509564966000,1.3922384,Walk
Fix,GPS,37.421704587,-122.1586082971,-8.29498981593808,1.3777245,5.634837,47.58591,1678295696000,0.21290115,25.0,1730510564982000,4.9820776,Walk
Fix,FLP,37.4217032,-122.1586092,-8.5,1.113238,6.179,46.017963,1678295698556,0.21290115,25.0,1730510564982000,1.3912717,Walk
Fix,GPS,37.4217133434,-122.1585979067,-8.070067588357217,1.4609137,5.5765877,47.719963,1678295697000,0.2451218,25.0,1730511565021000,4.9180813,Walk
Fix,FLP,37.42171,-122.158601,-8.5,1.3981603,6.016,47.005882,1678295699556,0.2451218,25.0,1730511565021000,1.4016718,Walk
Fix,GPS,37.4217203688,-122.1585928029,-7.385893209154377,1.2729783,5.5282774,20.389328,1678295698000,0.22131705,25.0,1730512565011000,4.8677516,Walk
Fix,FLP,37.4217181,-122.1585923,-8.5,1.407394,5.887,36.52443,1678295700557,0.22131705,25.0,1730512565011000,1.4112517,Walk
Fix,GPS,37.4217276177,-122.1585934531,-7.335579455533551,1.6690887,5.4808393,51.554634,1678295699000,0.22793883,25.0,1730513565033000,4.824155,Walk
Fix,FLP,37.4217262,-122.1585886,-8.5,1.4015154,5.748,32.88331,1678295701556,0.22793883,25.0,1730513565033000,1.4216517,Walk
Fix,FLP,37.4217296,-122.1585868,-8.600000381469727,1.4677496,5.675,37.540215,1678295701956,0.22793883,25.0,1730513965000000,1.1910102,Walk
Fix,NLP,37.4217969,-122.1588445,-8.600000381469727,,25.96,,1678295701956,,,1730513965000000,1.0,Walk
Fix,GPS,37.4217335539,-122.1585859123,-6.559701225624037,1.6280072,5.3805637,53.77118,1678295700000,0.2252223,25.0,1730514565043000,4.783696,Walk
Fix,FLP,37.4217331,-122.1585848,-8.600000381469727,1.5594237,5.603,43.747375,1678295702557,0.2252223,25.0,1730514565043000,1.1979703,Walk
Fix,GPS,37.4217402135,-122.1585771087,-6.584837698368596,1.401662,5.3028507,43.452427,1678295701000,0.21840617,25.0,1730515565052000,4.760695,Walk
Fix,FLP,37.4217393,-122.1585777,-8.600000381469727,1.5581802,5.517,45.7795,1678295703556,0.21840617,25.0,1730515565052000,1.2121277,Walk
Fix,GPS,37.4217486432,-122.1585691942,-6.699837457076607,1.111976,5.3150764,38.439274,1678295702000,0.2290891,25.0,1730516565069000,4.7188416,Walk
Fix,FLP,37.421746,-122.1585704,-8.600000381469727,1.4463674,5.45,44.51802,1678295704557,0.2290891,25.0,1730516565069000,1.2217376,Walk
Fix,GPS,37.4217561382,-122.1585624281,-6.557696553160963,1.1853094,5.368327,51.91948,1678295703000,0.2419873,25.0,1730517565087000,4.6678295,Walk
Fix,FLP,37.4217535,-122.1585632,-8.600000381469727,1.3211205,5.407,43.970654,1678295705557,0.2419873,25.0,1730517565087000,1.2321277,Walk
Fix,GPS,37.4217632408,-122.158554706,-6.397531710042853,1.3709179,5.3176513,41.745617,1678295704000,0.22653826,25.0,1730518565107000,4.643216,Walk
Fix,FLP,37.4217608,-122.158556,-8.600000381469727,1.2950548,5.366,44.987885,1678295706557,0.22653826,25.0,1730518565107000,1.2417276,Walk
Fix,NLP,37.4219095,-122.158659,-9.600000381469728,,27.959,,1678295706964,,,1730518972000000,1.0,Walk
Fix,FLP,37.4217639,-122.1585525,-9.600000381469728,1.294833,5.394,44.9837,1678295706963,0.22653826,25.0,1730518972000000,1.1548574,Walk
Fix,GPS,37.4217727894,-122.1585471656,-6.528189601729003,1.2728993,5.2399163,41.395054,1678295705000,0.21204466,25.0,1730519565119000,4.59936,Walk
Fix,FLP,37.4217688,-122.1585484,-9.600000381469728,1.2913709,5.441,44.363686,1678295707556,0.21204466,25.0,1730519565119000,1.16225,Walk
Fix,GPS,37.4217807559,-122.1585424797,-6.64380079809622,0.81584996,5.1739135,41.395054,1678295706000,0.24810822,27.507498,1730520565131000,4.542429,Walk
Fix,FLP,37.421777,-122.1585424,-9.600000381469728,1.1890963,5.415,43.12089,1678295708557,0.24810822,27.507498,1730520565131000,1.1716474,Walk
Fix,GPS,37.4217870184,-122.1585325873,-6.446307157582304,0.861541,5.099803,41.395054,1678295707000,0.24017896,25.0,1730521565164000,4.4761524,Walk
Fix,FLP,37.4217848,-122.158535,-9.600000381469728,1.0592711,5.394,42.61298,1678295709557,0.24017896,25.0,1730521565164000,1.1819903,Walk
Fix,GPS,37.4217937404,-122.1585185945,-6.5069553010531305,1.1169645,5.117504,57.491463,1678295708000,0.27112868,25.0,1730522565233000,4.450409,Walk
Fix,FLP,37.4217917,-122.1585249,-9.600000381469728,1.0125228,5.352,44.502254,1678295710557,0.27112868,25.0,1730522565233000,1.1923803,Walk
Fix,GPS,37.4218042996,-122.1585090819,-6.442405138248941,0.9586691,5.07326,57.491463,1678295709000,0.23734768,25.0,1730523565178000,4.4254756,Walk
Fix,FLP,37.4217994,-122.1585132,-9.600000381469728,1.0308503,5.309,49.22314,1678295711557,0.23734768,25.0,1730523565178000,1.2019503,Walk
Fix,GPS,37.4218147785,-122.1585052444,-5.95945297077208,0.94815767,5.085183,57.491463,1678295710000,0.2453994,25.0,1730524565190000,4.4038143,Walk
Fix,FLP,37.4218085,-122.158505,-9.600000381469728,1.0015458,5.18,52.03727,1678295712557,0.2453994,25.0,1730524565190000,1.2115502,Walk
Fix,NLP,37.4219358,-122.1585612,-9.600000381469728,,25.816,,1678295713003,,,1730525011000000,1.0,Walk
Fix,FLP,37.4218129,-122.1585025,-9.600000381469728,0.9939136,5.164,52.666874,1678295713002,0.2453994,25.0,1730525011000000,1.100466,Walk
Fix,GPS,37.4218238121,-122.1584995754,-5.594416844810367,0.7607969,5.0377297,57.491463,1678295711000,0.27393547,25.0,1730525565367000,4.442295,Walk
Fix,FLP,37.421818,-122.1584994,-9.600000381469728,0.94413334,5.187,53.35043,1678295713557,0.27393547,25.0,1730525565367000,1.107346,Walk
Fix,GPS,37.4218330243,-122.1584931639,-5.515581393641915,0.9383891,5.0398383,57.491463,1678295712000,0.2735072,25.0,1730526565400000,4.500872,Walk
Fix,FLP,37.4218269,-122.1584937,-9.600000381469728,0.888473,5.162,54.78201,1678295714557,0.2735072,25.0,1730526565400000,1.117756,Walk
Fix,GPS,37.4218450249,-122.1584840034,-5.237341546736065,1.0123587,5.0632873,34.973316,1678295713000,0.31865698,25.0,1730527565226000,4.5772686,Walk
Fix,FLP,37.4218368,-122.158487,-9.600000381469728,0.91718805,5.149,52.300232,1678295715557,0.31865698,25.0,1730527565226000,1.127356,Walk
Fix,GPS,37.4218580402,-122.1584723298,-4.898109639415318,1.1440033,5.170104,47.539494,1678295714000,0.30198723,25.0,1730528565244000,4.6416426,Walk
Fix,FLP,37.4218486,-122.1584781,-9.600000381469728,0.96508276,5.15,47.149784,1678295716557,0.30198723,25.0,1730528565244000,1.134592,Walk
Fix,NLP,37.4218923,-122.1585918,-9.600000381469728,,32.702,,1678295717023,,,1730529031000000,1.0,Walk
Fix,FLP,37.4218545,-122.1584732,-9.600000381469728,0.98748416,5.198,47.13528,1678295717023,0.30198723,25.0,1730529031000000,1.045071,Walk
Fix,GPS,37.4218678681,-122.1584583807,-4.637415683369311,1.2663462,5.2358503,45.799572,1678295715000,0.3313825,25.0,1730529565386000,4.694877,Walk
Fix,FLP,37.4218607,-122.1584664,-9.600000381469728,1.0202545,5.254,46.8135,1678295717557,0.3313825,25.0,1730529565386000,1.051461,Walk
Fix,GPS,37.4218790306,-122.1584456116,-4.459105275845853,1.2106726,5.3097057,44.81524,1678295716000,0.32671487,25.0,1730530565282000,4.7686305,Walk
Fix,FLP,37.4218712,-122.1584541,-9.600000381469728,1.0945146,5.206,45.98391,1678295718557,0.32671487,25.0,1730530565282000,1.0559953,Walk
Fix,GPS,37.421888076,-122.1584360823,-4.114103883923275,1.3358132,5.323428,39.481422,1678295717000,0.2845468,25.0,1730531565316000,4.75654,Walk
Fix,FLP,37.4218819,-122.1584421,-9.600000381469728,1.1483635,5.255,44.485012,1678295719557,0.2845468,25.0,1730531565316000,1.067603,Walk
Fix,GPS,37.4218976318,-122.1584252213,-3.382486718704421,1.0240221,5.3297014,38.056316,1678295718000,0.2830824,25.0,1730532565330000,4.748437,Walk
Fix,FLP,37.4218917,-122.1584316,-9.600000381469728,1.167316,5.321,42.293316,1678295720557,0.2830824,25.0,1730532565330000,1.0752474,Walk
Fix,GPS,37.4219044847,-122.1584155957,-2.968569438482927,1.0861534,5.345904,46.875202,1678295719000,0.26660174,25.0,1730533565329000,4.7235894,Walk
Fix,FLP,37.4219007,-122.1584212,-9.600000381469728,1.1194421,5.365,41.84486,1678295721557,0.26660174,25.0,1730533565329000,1.0856575,Walk
Fix,NLP,37.4220483,-122.1584483,-9.800000190734863,,17.073,,1678295722004,,,1730534012000000,1.0,Walk
Fix,FLP,37.4219041,-122.158417,-9.800000190734863,1.1195666,5.418,41.84878,1678295722004,0.26660174,25.0,1730534012000000,1.0064605,Walk
Fix,GPS,37.4219105735,-122.1584052888,-2.7724817870024783,0.9140995,5.3164377,46.875202,1678295720000,0.28116074,25.0,1730534565323000,4.687353,Walk
Fix,FLP,37.4219084,-122.1584106,-9.800000190734863,1.0766854,5.441,42.53577,1678295722556,0.28116074,25.0,1730534565323000,0.9789144,Walk
Fix,GPS,37.4219172117,-122.1583956149,-2.3292115867378707,0.9294499,5.238913,46.875202,1678295721000,0.26633197,25.0,1730535565441000,4.6060104,Walk
Fix,FLP,37.4219145,-122.1584009,-9.800000190734863,1.0021024,5.447,44.004364,1678295723557,0.26633197,25.0,1730535565441000,1.0263112,Walk
Fix,GPS,37.4219270315,-122.1583872503,-2.093730134299708,0.99338555,5.2158327,46.875202,1678295722000,0.23949192,25.0,1730536566780000,4.5560336,Walk
Fix,FLP,37.4219224,-122.1583913,-9.800000190734863,0.9900324,5.444,44.62245,1678295724557,0.23949192,25.0,1730536566780000,1.0363472,Walk
Fix,GPS,37.421939398,-122.158381342,-2.2026161966495352,0.9866016,5.1692567,46.875202,1678295723000,0.22120234,25.0,1730537565387000,4.473957,Walk
Fix,FLP,37.4219325,-122.1583828,-9.800000190734863,0.9911111,5.413,45.152264,1678295725557,0.22120234,25.0,1730537565387000,1.0494343,Walk
Fix,GPS,37.4219535723,-122.1583772698,-2.3074350588043124,0.9922335,5.118469,46.875202,1678295724000,0.23263279,25.0,1730538565388000,4.4237986,Walk
Fix,FLP,37.4219445,-122.1583767,-9.800000190734863,0.9909234,5.379,45.42079,1678295726556,0.23263279,25.0,1730538565388000,1.0598344,Walk
Fix,NLP,37.4220315,-122.1584282,-9.90000057220459,,15.263,,1678295727085,,,1730539093000000,1.0,Walk
Fix,FLP,37.4219508,-122.1583741,-9.90000057220459,0.9914525,5.359,45.455414,1678295727085,0.23263279,25.0,1730539093000000,0.97175694,Walk
Fix,GPS,37.4219653473,-122.1583738889,-2.72235545318078,1.1457617,5.101437,29.441452,1678295725000,0.2743856,11.597846,1730539565456000,4.364371,Walk
Fix,FLP,37.4219577,-122.1583725,-9.90000057220459,1.0211613,5.339,40.324303,1678295727557,0.2743856,11.597846,1730539565456000,0.980677,Walk
Fix,GPS,37.4219787722,-122.1583693404,-2.7800537107720538,1.0632768,5.1251836,37.325806,1678295726000,0.26310718,12.935798,1730540565479000,4.314552,Walk
Fix,FLP,37.4219707,-122.1583687,-9.90000057220459,1.0652275,5.262,35.54563,1678295728557,0.26310718,12.935798,1730540565479000,0.9911087,Walk
Fix,GPS,37.4219917707,-122.1583626777,-3.1331578789669217,1.3914527,5.07281,37.945526,1678295727000,0.25101647,10.0,1730541565529000,4.301326,Walk
Fix,FLP,37.4219841,-122.1583634,-9.90000057220459,1.1349299,5.232,36.2787,1678295729556,0.25101647,10.0,1730541565529000,1.0052192,Walk
Fix,GPS,37.4220039439,-122.158352322,-3.5017525194719403,1.3281273,5.043761,39.60549,1678295728000,0.2204105,8.910092,1730542565911000,4.305485,Walk
Fix,FLP,37.4219974,-122.1583556,-9.90000057220459,1.2577262,5.208,37.2319,1678295730557,0.2204105,8.910092,1730542565911000,1.0148692,Walk
Fix,GPS,37.4220148608,-122.158342471,-3.564284587976964,1.0642989,5.049444,40.74587,1678295729000,0.24245429,12.36948,1730543565455000,4.2659955,Walk
Fix,FLP,37.4220093,-122.1583462,-9.90000057220459,1.2439127,5.188,38.36711,1678295731557,0.24245429,12.36948,1730543565455000,1.0243993,Walk
Fix,GPS,37.4220238471,-122.158335445,-4.1738599789417865,1.1949788,5.050869,25.78724,1678295730000,0.2429438,10.609534,1730544565472000,4.2437134,Walk
Fix,FLP,37.4220196,-122.158338,-9.90000057220459,1.1703649,5.075,35.91956,1678295732557,0.2429438,10.609534,1730544565472000,1.0340192,Walk
Fix,FLP,37.4220246,-122.1583343,-9.90000057220459,1.1703043,5.122,33.53467,1678295733109,0.2429438,10.609534,1730545117000000,0.96737224,Walk
Fix,NLP,37.4220231,-122.1584305,-9.90000057220459,,18.138,,1678295733108,,,1730545117000000,1.0,Walk
Fix,GPS,37.4220349093,-122.1583302556,-4.534123775294809,0.48189536,5.264016,25.78724,1678295731000,0.32570148,33.79405,1730545565687000,4.3136954,Walk
Fix,FLP,37.4220303,-122.1583311,-9.90000057220459,1.0589244,5.132,32.5282,1678295733557,0.32570148,33.79405,1730545565687000,0.97328687,Walk
Fix,GPS,37.4220405154,-122.1583259725,-4.632764148146833,0.97104913,5.789793,25.78724,1678295732000,0.44394767,55.672802,1730546565531000,4.532755,Walk
Fix,FLP,37.4220381,-122.158327,-9.90000057220459,0.88666165,5.199,30.415462,1678295734557,0.44394767,55.672802,1730546565531000,0.9831332,Walk
Fix,GPS,37.4220479233,-122.158314469,-4.777346147678495,1.2176775,6.1687565,37.38077,1678295733000,0.41198897,18.398817,1730547565597000,4.788296,Walk
Fix,FLP,37.4220454,-122.1583205,-9.90000057220459,0.94140035,5.349,31.203625,1678295735556,0.41198897,18.398817,1730547565597000,0.994023,Walk
Fix,GPS,37.4220601017,-122.1583040148,-4.636121288339827,0.98084974,6.3309073,37.38077,1678295734000,0.38958478,22.705446,1730548565561000,5.007561,Walk
Fix,FLP,37.422054,-122.1583108,-15.105798934245172,1.0074534,5.605,33.65436,1678295736557,0.38958478,22.705446,1730548565561000,0.9976935,Walk
Fix,FLP,37.4220594,-122.1583056,-21.21618202486677,1.0041747,5.783,34.11028,1678295737124,0.38958478,22.705446,1730549133000000,0.95833886,Walk
Fix,NLP,37.4220475,-122.1583542,-9.90000057220459,,15.6,,1678295737124,,,1730549133000000,1.0,Walk
Fix,GPS,37.4220703671,-122.1582941542,-4.953358917683948,0.8086162,6.46151,37.38077,1678295735000,0.37618548,35.78632,1730549565933000,5.18248,Walk
Fix,FLP,37.4220643,-122.1583007,-15.105798934245172,0.97965246,6.005,34.498318,1678295737557,0.37618548,35.78632,1730549565933000,0.96233886,Walk
Fix,GPS,37.4220777735,-122.1582831171,-5.340744041942829,0.93474066,6.578014,37.38077,1678295736000,0.40552273,18.87792,1730550565563000,5.312664,Walk
Fix,FLP,37.4220735,-122.1582907,-13.14420375107114,0.9395705,6.156,35.470425,1678295738557,0.40552273,18.87792,1730550565563000,0.9733023,Walk
Fix,GPS,37.4220851122,-122.1582690273,-5.582585803126586,0.821123,6.676219,37.38077,1678295737000,0.3954952,18.964474,1730551565644000,5.396178,Walk
Fix,FLP,37.4220816,-122.1582794,-12.944985377481792,0.91949695,6.431,36.06421,1678295739557,0.3954952,18.964474,1730551565644000,0.9833069,Walk
Fix,GPS,37.4220924857,-122.1582575007,-5.540061837317944,0.58175695,6.7783937,37.38077,1678295738000,0.39936888,21.44696,1730552565955000,5.4741783,Walk
Fix,FLP,37.422089,-122.1582673,-4.263809580876036,0.83713996,6.58,36.037083,1678295740556,0.39936888,21.44696,1730552565955000,0.9923069,Walk
Fix,GPS,37.4220978001,-122.1582505036,-5.50518412399556,0.0,6.8506413,37.38077,1678295739000,0.37416875,180.0,1730553565875000,5.507268,Walk
Fix,FLP,37.4220947,-122.1582574,-2.694580707670106,0.5794003,6.694,33.43618,1678295741557,0.37416875,180.0,1730553565875000,1.0033013,Walk
Fix,NLP,37.4221024,-122.1582536,-9.90000057220459,,31.411,,1678295742170,,,1730554179000000,1.0,Walk
Fix,FLP,37.4220971,-122.1582538,-0.8693529634007433,0.45372298,6.759,31.095804,1678295742171,0.37416875,180.0,1730554179000000,0.9536437,Walk
Fix,GPS,37.4221011437,-122.1582436377,-5.262612044476418,0.34949487,6.5890718,37.38077,1678295740000,0.3915573,64.166466,1730554565916000,5.479167,Walk
Fix,FLP,37.4220991,-122.1582502,-3.178035489168984,0.44045353,6.801,31.793093,1678295742557,0.3915573,64.166466,1730554565916000,0.9601586,Walk
Fix,GPS,37.4221052391,-122.158236454,-5.149679353009634,0.5069479,6.808114,37.38077,1678295741000,0.40099823,41.55261,1730555565684000,5.497588,Walk
Fix,FLP,37.422103,-122.1582432,-3.178035489168984,0.42801145,6.83,33.726673,1678295743556,0.40099823,41.55261,1730555565684000,0.97010857,Walk
Fix,FLP,37.4221067,-122.1582369,-9.90000057220459,0.35163894,6.879,31.607075,1678295744557,0.39876613,35.741142,1730556565703000,0.9800933,Walk
Fix,GPS,37.4221090627,-122.1582308328,-5.785284660001221,0.0,7.050455,37.38077,1678295742000,0.39876613,35.741142,1730556565703000,5.3700824,Walk
Fix,GPS,37.4221212445,-122.1582192443,-5.7940487794229805,0.6878987,6.834399,37.38077,1678295743000,0.39381528,9.332214,1730557565850000,5.2271314,Walk
Fix,FLP,37.422112,-122.1582298,-6.2967932726503335,0.29940566,6.926,32.482594,1678295745556,0.39381528,9.332214,1730557565850000,0.9890833,Walk
Fix,GPS,37.4221330283,-122.1582071973,-5.35748629200389,0.85871357,7.090828,37.38077,1678295744000,0.4201312,17.898191,1730558565906000,5.233079,Walk
Fix,FLP,37.4221216,-122.1582196,-9.90000057220459,0.48874956,6.947,36.679577,1678295746557,0.4201312,17.898191,1730558565906000,1.0000399,Walk
Fix,NLP,37.422149,-122.1584219,-9.90000057220459,,29.216,,1678295747206,,,1730559214000000,1.5756865,Walk
Fix,FLP,37.4221276,-122.1582133,-6.2967932726503335,0.5396118,6.991,36.81996,1678295747206,0.4201312,17.898191,1730559214000000,0.95919436,Walk
Fix,GPS,37.4221511517,-122.1581861009,-4.645658568048878,0.6855901,7.2190437,37.38077,1678295745000,0.40504968,57.993156,1730559566057000,5.262401,Walk
Fix,FLP,37.4221339,-122.1582063,-9.90000057220459,0.551582,7.091,36.644836,1678295747558,0.40504968,57.993156,1730559566057000,0.96417433,Walk
Fix,GPS,37.4221666164,-122.1581683284,-4.812366679149836,0.54227084,7.3528576,37.38077,1678295746000,0.3937634,24.940205,1730560566009000,5.303301,Walk
Fix,FLP,37.4221485,-122.1581898,-9.90000057220459,0.5703596,7.127,36.494614,1678295748557,0.3937634,24.940205,1730560566009000,0.97520846,Walk
Fix,GPS,37.4221883052,-122.1581515479,-4.893867036130186,1.0847294,7.3670983,25.187502,1678295747000,0.39249903,19.452156,1730561566106000,5.341312,Walk
Fix,FLP,37.4221653,-122.1581726,-9.90000057220459,0.63006866,7.223,33.99308,1678295749557,0.39249903,19.452156,1730561566106000,0.9852985,Walk
Fix,GPS,37.4222118834,-122.1581389418,-4.254663395069298,1.313199,7.3165526,35.43562,1678295748000,0.41417748,17.02014,1730562566041000,5.374588,Walk
Fix,FLP,37.4221864,-122.1581559,-9.90000057220459,0.8176631,7.303,31.393818,1678295750558,0.41417748,17.02014,1730562566041000,0.9951685,Walk
Fix,GPS,37.4222311438,-122.158125099,-4.044673199911495,0.9887646,7.2657013,35.43562,1678295749000,0.42570242,17.255802,1730563565825000,5.408726,Walk
Fix,FLP,37.4222085,-122.1581403,-9.90000057220459,0.9485897,7.343,32.974606,1678295751557,0.42570242,17.255802,1730563565825000,1.0051585,Walk
Fix,FLP,37.4222204,-122.1581317,-9.90000057220459,0.9567856,7.416,33.294666,1678295752245,0.42570242,17.255802,1730564253000000,0.99145263,Walk
Fix,NLP,37.4221331,-122.1583153,-9.90000057220459,,38.929,,1678295752245,,,1730564253000000,1.3781366,Walk
Fix,GPS,37.4222457682,-122.1581142497,-3.893015309320364,0.99015266,7.262932,35.43562,1678295750000,0.42119804,10.0,1730564566156000,5.455234,Walk
Fix,FLP,37.4222287,-122.1581258,-14.705427818001134,0.9662349,7.433,33.728916,1678295752558,0.42119804,10.0,1730564566156000,0.99547267,Walk
Fix,GPS,37.4222731907,-122.1580983767,-2.9868437018420417,1.1041284,7.284193,32.613857,1678295752000,0.43702427,21.185661,1730566565876000,5.6122346,Walk
Fix,FLP,37.422254,-122.1581081,-17.183683283643568,0.99685925,7.423,34.17427,1678295754557,0.43702427,21.185661,1730566565876000,1.0154626,Walk
Fix,GPS,37.4222875518,-122.1580904134,-3.2426632695233133,1.4271873,7.294062,41.402103,1678295753000,0.39509913,15.2102375,1730567566115000,5.6662974,Walk
Fix,FLP,37.422272,-122.1580973,-9.90000057220459,1.0768338,7.414,34.723198,1678295755558,0.39509913,15.2102375,1730567566115000,1.0254626,Walk
Fix,GPS,37.4223016171,-122.1580803513,-3.1752411762567667,1.212593,7.2965126,39.711052,1678295754000,0.47345525,21.237509,1730568565863000,5.726598,Walk
Fix,FLP,37.4222885,-122.1580866,-12.771550330982386,1.1718391,7.413,36.78009,1678295756557,0.47345525,21.237509,1730568565863000,1.0354626,Walk
Fix,NLP,37.4223513,-122.1580967,-10.800000190734863,,49.103,,1678295757256,,,1730569265000000,1.665025,Walk
Fix,FLP,37.4222977,-122.1580802,-10.800000190734863,1.1767217,7.418,36.982914,1678295757257,0.47345525,21.237509,1730569265000000,1.1290963,Walk
Fix,GPS,37.4223131749,-122.1580713273,-3.552921530319135,0.687861,7.512066,39.711052,1678295755000,0.43387076,18.82255,1730569566231000,5.792405,Walk
Fix,FLP,37.4223028,-122.158077,-10.800000190734863,1.0850569,7.438,36.811485,1678295757557,0.43387076,18.82255,1730569566231000,1.1331263,Walk
Fix,GPS,37.4223157549,-122.1580681629,-3.5864306934864394,0.7499817,7.4904957,39.711052,1678295756000,0.39245778,14.27602,1730570565976000,5.782178,Walk
Fix,FLP,37.4223126,-122.1580697,-12.771550330982386,0.91759264,7.473,37.03655,1678295758557,0.39245778,14.27602,1730570565976000,1.1431063,Walk
Fix,GPS,37.4223209422,-122.1580667984,-3.768031261124385,0.5605184,7.4492025,39.711052,1678295757000,0.41021153,25.837215,1730571566250000,5.789389,Walk
Fix,FLP,37.4223189,-122.1580653,-7.6670227385329,0.80256987,7.51,37.687244,1678295759558,0.41021153,25.837215,1730571566250000,1.0260466,Walk
Fix,GPS,37.4223208275,-122.158065657,-3.615309850526624,0.8088967,7.3944297,39.711052,1678295758000,0.39682528,16.457428,1730572566275000,5.795361,Walk
Fix,FLP,37.4223229,-122.158063,-7.6670227385329,0.7404849,7.535,38.034718,1678295760557,0.39682528,16.457428,1730572566275000,1.0360566,Walk
Fix,GPS,37.4223295153,-122.1580571015,-3.5624347529077194,0.81184393,7.286048,39.711052,1678295759000,0.41042286,18.376608,1730573565918000,5.7929907,Walk
Fix,FLP,37.4223264,-122.1580598,-7.6670227385329,0.7691569,7.546,38.54242,1678295761557,0.41042286,18.376608,1730573565918000,1.0460266,Walk
Fix,NLP,37.4225621,-122.1578932,-11.200000762939451,,34.388,,1678295762269,,,1730574277000000,1.3797237,Walk
Fix,FLP,37.4223301,-122.1580563,-9.90000057220459,0.77593964,7.546,38.63844,1678295762269,0.41042286,18.376608,1730574277000000,1.0072888,Walk
Fix,GPS,37.4223351529,-122.1580533561,-3.8552324859498697,0.99720424,7.25569,39.711052,1678295760000,0.41075015,20.401937,1730574566191000,5.822187,Walk
Fix,FLP,37.4223326,-122.1580543,-9.90000057220459,0.8065949,7.532,38.67635,1678295762558,0.41075015,20.401937,1730574566191000,1.0101367,Walk
Fix,GPS,37.4223498682,-122.1580484889,-4.3501991442853205,1.1842842,7.026722,15.81241,1678295761000,0.39887765,16.836874,1730575566374000,5.8300295,Walk
Fix,FLP,37.4223408,-122.1580496,-11.200000762939451,0.88949114,7.474,34.473278,1678295763557,0.39887765,16.836874,1730575566374000,1.0201267,Walk
Fix,GPS,37.4223705648,-122.1580384399,-4.839270102646902,0.9893111,6.9089212,15.81241,1678295762000,0.40145755,12.942104,1730576566371000,5.8375664,Walk
Fix,FLP,37.4223547,-122.1580445,-4.717819213775556,0.9465162,7.388,24.462746,1678295764558,0.40145755,12.942104,1730576566371000,1.0272456,Walk
Fix,GPS,37.4223875066,-122.1580263192,-5.022321133394835,0.88227695,6.925495,15.81241,1678295763000,0.40126258,26.2378,1730577566336000,5.8622894,Walk
Fix,FLP,37.4223714,-122.1580366,-4.463738789508554,0.94155747,7.294,19.949411,1678295765557,0.40126258,26.2378,1730577566336000,1.0361316,Walk
Fix,GPS,37.4224048158,-122.1580160776,-5.469496948812792,1.0494634,6.9125204,64.52085,1678295764000,0.39033884,22.309958,1730578565993000,5.856755,Walk
Fix,FLP,37.422388,-122.1580265,-3.6852536110083207,0.90789706,7.214,24.287083,1678295766557,0.39033884,22.309958,1730578565993000,1.0472456,Walk
Fix,NLP,37.4226287,-122.1578342,-11.200000762939451,,33.45,,1678295767358,,,1730579367000000,1.280898,Walk
Fix,FLP,37.4223982,-122.1580197,-8.470436570901327,0.8981245,7.165,30.150215,1678295767359,0.39033884,22.309958,1730579367000000,1.0071794,Walk
Fix,GPS,37.4224202882,-122.1580051424,-5.957791142434827,1.0592986,6.9224405,62.571808,1678295765000,0.39658323,22.178993,1730579566379000,5.8569117,Walk
Fix,FLP,37.422405,-122.1580147,-0.7868160157084247,0.90173846,7.129,35.029945,1678295767558,0.39658323,22.178993,1730579566379000,1.0033704,Walk
Fix,GPS,37.4224358533,-122.1579911119,-6.571272651007308,0.97860396,6.9472694,62.571808,1678295766000,0.4201025,10.656174,1730580566069000,5.8495717,Walk
Fix,FLP,37.4224196,-122.1580024,-1.1787327549275446,0.9059049,7.092,47.306503,1678295768558,0.4201025,10.656174,1730580566069000,1.0133704,Walk
Fix,GPS,37.4224501072,-122.1579780348,-7.067137558702207,0.8406768,6.887302,62.571808,1678295767000,0.37496892,8.7072315,1730581566325000,5.8331695,Walk
Fix,FLP,37.422434,-122.1579891,-3.7733303033329975,0.8846576,7.068,55.189453,1678295769558,0.37496892,8.7072315,1730581566325000,1.0233804,Walk
Fix,GPS,37.4224598766,-122.1579637231,-7.192379477452736,0.81431633,6.8276987,62.571808,1678295768000,0.36915976,19.548687,1730582566404000,5.816996,Walk
Fix,FLP,37.4224472,-122.1579756,-5.129291829830144,0.85514534,7.053,58.68831,1678295770557,0.36915976,19.548687,1730582566404000,1.033628,Walk
Fix,GPS,37.4224689174,-122.157952484,-7.246396135294176,0.6326869,6.7528887,62.571808,1678295769000,0.36584544,18.422365,1730583566316000,5.7782187,Walk
Fix,FLP,37.4224582,-122.1579625,-5.129291829830144,0.80939025,7.033,60.27276,1678295771558,0.36584544,18.422365,1730583566316000,1.0462294,Walk
Fix,NLP,37.4225628,-122.1578967,-11.200000762939451,,51.992,,1678295772355,,,1730584363000000,1.7692735,Walk
Fix,FLP,37.4224642,-122.1579544,-11.200000762939451,0.77881485,7.084,60.844917,1678295772355,0.36584544,18.422365,1730584363000000,1.1773087,Walk
Fix,GPS,37.4224764173,-122.1579441872,-7.145619925249271,0.47904685,6.771588,62.571808,1678295770000,0.37210518,36.284157,1730584566456000,5.7748938,Walk
Fix,FLP,37.4224678,-122.1579512,-5.219286711869273,0.73316365,7.065,60.930573,1678295772558,0.37210518,36.284157,1730584566456000,1.0159883,Walk
Fix,GPS,37.422482053,-122.1579340844,-6.93917087259953,0.49092418,6.758131,62.571808,1678295771000,0.37055263,44.893963,1730585566462000,5.7586846,Walk
Fix,FLP,37.4224753,-122.1579419,-7.773208073830411,0.63579273,6.966,61.186676,1678295773558,0.37055263,44.893963,1730585566462000,1.0400401,Walk
Fix,GPS,37.4224847693,-122.1579268353,-7.583923593372516,0.545891,6.7727737,62.571808,1678295772000,0.36674938,17.47074,1730586566198000,5.784272,Walk
Fix,FLP,37.422481,-122.1579328,-11.200000762939451,0.58800197,6.936,61.633183,1678295774558,0.36674938,17.47074,1730586566198000,1.0500401,Walk
Fix,GPS,37.4224899773,-122.1579191791,-8.284105594298426,0.76906115,6.745126,62.571808,1678295773000,0.3612273,52.18961,1730587566150000,5.7982316,Walk
Fix,FLP,37.4224856,-122.1579246,-7.773208073830411,0.5884546,6.914,62.462223,1678295775558,0.3612273,52.18961,1730587566150000,1.0486678,Walk
Fix,GPS,37.4225002287,-122.1579102927,-8.01135630169546,1.0415955,6.7393656,27.948982,1678295774000,0.37971956,18.773067,1730588566178000,5.8162513,Walk
Fix,FLP,37.4224922,-122.1579161,-7.773208073830411,0.6542475,6.899,55.551685,1678295776558,0.37971956,18.773067,1730588566178000,1.0700202,Walk
Fix,GPS,37.4225112983,-122.1578990804,-8.028668994395193,0.97050375,6.7566624,27.948982,1678295775000,0.38763982,18.826454,1730589566523000,5.830388,Walk
Fix,FLP,37.4225023,-122.1579071,-5.0163365470678585,0.7618874,6.756,41.730927,1678295777557,0.38763982,18.826454,1730589566523000,1.0800501,Walk
Fix,GPS,37.4225175522,-122.157885093,-7.557855731759699,0.70603085,6.712319,27.948982,1678295776000,0.37121755,41.824974,1730590566219000,5.8085713,Walk
Fix,FLP,37.4225123,-122.1578962,-11.200000762939451,0.8012376,6.751,36.320442,1678295778558,0.37121755,41.824974,1730590566219000,1.0900202,Walk
Fix,GPS,37.42253007,-122.1578760907,-7.264083504853203,0.94218016,6.728761,27.948982,1678295777000,0.37913805,26.059544,1730591566474000,5.8076816,Walk
Fix,FLP,37.4225217,-122.1578849,-11.200000762939451,0.8046241,6.742,33.725006,1678295779558,0.37913805,26.059544,1730591566474000,1.1000202,Walk
Fix,GPS,37.422543043,-122.1578634846,-6.792009742294828,1.1337619,6.801469,44.963985,1678295778000,0.40715584,19.940617,1730592566560000,5.8201733,Walk
Fix,FLP,37.4225333,-122.1578738,-11.200000762939451,0.8772752,6.74,33.98161,1678295780558,0.40715584,19.940617,1730592566560000,1.1100302,Walk
Fix,GPS,37.4225583381,-122.1578531725,-6.99943062384925,0.7152095,6.843254,44.963985,1678295779000,0.4104655,50.338665,1730593566234000,5.862861,Walk
Fix,FLP,37.4225462,-122.1578618,-11.200000762939451,0.9229638,6.754,37.503277,1678295781557,0.4104655,50.338665,1730593566234000,1.1190301,Walk
Fix,FLP,37.4225555,-122.1578543,-4.212079628249242,0.8886977,6.852,38.364967,1678295782405,0.4104655,50.338665,1730594413000000,1.0230808,Walk
Fix,NLP,37.4227601,-122.1579975,-11.200000762939451,,27.917,,1678295782405,,,1730594413000000,1.2582986,Walk
Fix,GPS,37.4225698764,-122.1578459494,-7.876585891704346,1.1264657,6.877334,43.323547,1678295780000,0.40331286,19.730486,1730594566430000,5.9209156,Walk
Fix,FLP,37.4225593,-122.1578516,-6.705583668654739,0.9249641,6.853,39.21859,1678295782557,0.40331286,19.730486,1730594566430000,1.0266296,Walk
Fix,GPS,37.4225823712,-122.1578376674,-8.741436969969303,1.3886824,6.916441,45.60317,1678295781000,0.42587134,17.031097,1730595566343000,5.9910965,Walk
Fix,FLP,37.4225721,-122.157842,-6.705583668654739,1.0324123,6.887,41.166622,1678295783558,0.42587134,17.031097,1730595566343000,1.0356296,Walk
Fix,GPS,37.4225952086,-122.1578259332,-8.847112325266107,0.90341467,6.948268,45.60317,1678295782000,0.42118534,23.323069,1730596566374000,6.040277,Walk
Fix,FLP,37.4225851,-122.1578319,-7.369449390075175,1.0891166,6.915,42.590115,1678295784558,0.42118534,23.323069,1730596566374000,1.0456396,Walk
Fix,GPS,37.4226074388,-122.1578193349,-8.783563436643682,1.1099582,6.907687,35.077488,1678295783000,0.3911282,18.771727,1730597566489000,6.0520425,Walk
Fix,FLP,37.4225977,-122.1578224,-7.369449390075175,1.0504503,6.951,41.82496,1678295785558,0.3911282,18.771727,1730597566489000,1.0566396,Walk
Fix,GPS,37.42261923,-122.1578088845,-9.067694105101712,1.238891,6.8811793,34.15972,1678295784000,0.40215537,17.456018,1730598566360000,6.08598,Walk
Fix,FLP,37.4226106,-122.1578136,-9.14624806083075,1.0883482,6.976,38.981174,1678295786558,0.40215537,17.456018,1730598566360000,1.0666496,Walk
Fix,NLP,37.4227894,-122.1577687,-11.300000190734863,,23.647,,1678295787495,,,1730599503000000,1.0,Walk
Fix,FLP,37.4226199,-122.1578065,-11.300000190734863,1.1256189,6.992,37.590065,1678295787495,0.40215537,17.456018,1730599503000000,1.0134104,Walk
Fix,GPS,37.4226324935,-122.1577983465,-9.377341529421129,0.805825,6.7722845,34.15972,1678295785000,0.38583794,13.493697,1730599566329000,6.0530934,Walk
Fix,GPS,37.4226462538,-122.1577923291,-9.214176811633124,0.6863447,6.692935,34.15972,1678295786000,0.34969008,16.453653,1730600566609000,6.003339,Walk
Fix,FLP,37.4226357,-122.1577961,-11.300000190734863,0.895629,6.947,34.289722,1678295788558,0.34969008,16.453653,1730600566609000,1.0244205,Walk
Fix,GPS,37.4226601799,-122.1577861774,-8.53352035000392,0.5559019,6.5596232,34.15972,1678295787000,0.33099622,24.962065,1730601566696000,5.9356737,Walk
Fix,FLP,37.4226481,-122.1577896,-7.204146991337787,0.79725903,6.911,33.886257,1678295789558,0.33099622,24.962065,1730601566696000,1.0451397,Walk
Fix,GPS,37.4226680234,-122.1577792757,-8.567880283936168,0.84934205,6.528307,34.15972,1678295788000,0.35359806,31.219906,1730602567384000,5.9024315,Walk
Fix,FLP,37.4226605,-122.1577831,-7.204146991337787,0.733947,6.839,33.600815,1678295790559,0.35359806,31.219906,1730602567384000,1.0587202,Walk
Fix,GPS,37.422676933,-122.1577673937,-8.613576016345796,0.68722004,6.5283237,34.15972,1678295789000,0.3592844,32.76316,1730603566565000,5.895602,Walk
Fix,FLP,37.4226703,-122.1577756,-7.204146991337787,0.75977826,6.755,33.572117,1678295791558,0.3592844,32.76316,1730603566565000,1.0687202,Walk
Fix,FLP,37.4226769,-122.1577686,-6.512425800009041,0.7407168,6.697,33.723335,1678295792547,0.3592844,32.76316,1730604555000000,1.0200135,Walk
Fix,NLP,37.4227589,-122.1578409,-11.300000190734863,,19.919,,1678295792547,,,1730604555000000,1.0,Walk
Fix,GPS,37.4226858526,-122.1577553902,-8.292370848822952,0.48216414,6.5015755,34.15972,1678295790000,0.34525603,34.816204,1730604567717000,5.8765407,Walk
Fix,GPS,37.4226915041,-122.1577446697,-7.839932936735154,1.0185884,6.4772453,33.28313,1678295791000,0.35805777,18.50351,1730605566769000,5.8550906,Walk
Fix,FLP,37.4226866,-122.1577555,-7.112561701320416,0.68387645,6.637,33.44078,1678295793557,0.35805777,18.50351,1730605566769000,1.0309935,Walk
Fix,GPS,37.4227046714,-122.1577337223,-8.008712121249808,1.4338084,6.5296345,46.52554,1678295792000,0.4011609,15.407416,1730606566433000,5.85706,Walk
Fix,FLP,37.4226956,-122.1577439,-7.112561701320416,0.8523811,6.605,35.705395,1678295794558,0.4011609,15.407416,1730606566433000,1.0399934,Walk
Fix,GPS,37.4227165895,-122.1577195295,-7.899304960973327,1.3575968,6.5070143,42.815678,1678295793000,0.38515538,15.423213,1730607566527000,5.864403,Walk
Fix,FLP,37.4227075,-122.1577306,-7.112561701320416,1.0372268,6.596,39.649822,1678295795558,0.38515538,15.423213,1730607566527000,1.0500034,Walk
Fix,GPS,37.4227290661,-122.1577067435,-7.637085606926432,1.514457,6.5060673,21.421186,1678295794000,0.3861272,12.786173,1730608566699000,5.8731985,Walk
Fix,FLP,37.4227204,-122.1577167,-4.698602700327676,1.1633606,6.596,36.91455,1678295796558,0.3861272,12.786173,1730608566699000,1.0609934,Walk
Fix,GPS,37.4227460504,-122.1576957934,-7.806508525577947,1.4940637,6.5452952,24.460257,1678295795000,0.40423557,13.691872,1730609566502000,5.8929467,Walk
Fix,FLP,37.422735,-122.1577044,-13.357315938000696,1.2735701,6.506,30.540314,1678295797558,0.40423557,13.691872,1730609566502000,1.0700034,Walk
Fix,GPS,37.4227584981,-122.1576852891,-8.27460641534711,1.3868437,6.607774,40.754986,1678295796000,0.42416385,16.539652,1730610566751000,5.902576,Walk
Fix,FLP,37.4227499,-122.1576929,-6.211835818564985,1.3314128,6.518,30.027035,1678295798558,0.42416385,16.539652,1730610566751000,1.0810034,Walk
Fix,GPS,37.4227670571,-122.1576702274,-8.660881238470077,1.0778788,6.6327868,51.53313,1678295797000,0.40827802,21.594563,1730611566880000,5.877626,Walk
Fix,FLP,37.4227622,-122.1576803,-6.211835818564985,1.3007029,6.541,34.323532,1678295799558,0.40827802,21.594563,1730611566880000,1.0910034,Walk
Fix,GPS,37.4227724955,-122.157657903,-8.838463383235277,0.70970446,6.712788,51.53313,1678295798000,0.41208988,88.91486,1730612566858000,5.887491,Walk
Fix,FLP,37.4227711,-122.1576667,-8.05619682730633,1.2203041,6.573,37.997833,1678295800557,0.41208988,88.91486,1730612566858000,1.1009834,Walk
Fix,GPS,37.4227759687,-122.157646335,-8.689870147354462,0.8093848,6.842182,51.53313,1678295799000,0.4179664,56.783447,1730613566894000,5.899065,Walk
Fix,FLP,37.4227774,-122.1576542,-5.5817766810731655,1.1559724,6.623,38.945824,1678295801557,0.4179664,56.783447,1730613566894000,1.1110535,Walk
Fix,GPS,37.4227788485,-122.157635345,-9.171940827868632,0.83638895,6.9236026,51.53313,1678295800000,0.40736365,48.535255,1730614566556000,5.9328256,Walk
Fix,FLP,37.4227814,-122.1576426,-5.192584160809979,1.080887,6.693,40.809914,1678295802558,0.40736365,48.535255,1730614566556000,1.1210134,Walk
Fix,GPS,37.4227861256,-122.1576255414,-9.113606642260816,0.75970125,6.977311,51.53313,1678295801000,0.3985824,53.23932,1730615566814000,5.9393177,Walk
Fix,FLP,37.4227854,-122.1576317,-5.743217995122052,1.0106686,6.768,42.756805,1678295803557,0.3985824,53.23932,1730615566814000,1.1309835,Walk
Fix,GPS,37.4227923176,-122.1576153459,-8.815737189090195,0.0,7.011406,51.53313,1678295802000,0.39204165,175.4078,1730616566699000,5.9485664,Walk
Fix,FLP,37.4227889,-122.1576229,-5.743217995122052,0.66214824,6.851,48.75179,1678295804557,0.39204165,175.4078,1730616566699000,1.140665,Walk
Fix,GPS,37.4227923176,-122.1576153459,-8.355158589034907,0.0,6.726845,51.53313,1678295803000,0.3854661,47.712074,1730617566955000,5.8843813,Walk
Fix,FLP,37.4227914,-122.1576174,-5.743217995122052,0.2936589,6.899,54.989212,1678295805558,0.3854661,47.712074,1730617566955000,1.151685,Walk
Fix,GPS,37.4228013159,-122.1576055687,-8.625108990783048,0.68167114,6.5163145,51.53313,1678295804000,0.39233458,17.536266,1730618566964000,5.8278775,Walk
Fix,FLP,37.4227945,-122.1576129,-5.743217995122052,0.2517766,6.88,55.242294,1678295806557,0.39233458,17.536266,1730618566964000,1.161685,Walk
Fix,GPS,37.4228039505,-122.157595968,-8.555364710038283,0.65174836,6.780746,51.53313,1678295805000,0.40384072,21.100218,1730619566644000,5.885317,Walk
Fix,FLP,37.4228001,-122.1576049,-3.795594763113997,0.41997164,6.831,51.957092,1678295807558,0.40384072,21.100218,1730619566644000,1.170925,Walk
Fix,GPS,37.4228106951,-122.1575856162,-8.202740425007226,0.5435926,6.9667635,51.53313,1678295806000,0.40497035,37.3655,1730620566923000,5.9225397,Walk
Fix,FLP,37.4228052,-122.1575954,-7.405023959141957,0.49525574,6.812,51.309246,1678295808557,0.40497035,37.3655,1730620566923000,1.181675,Walk
Fix,GPS,37.4228216065,-122.1575764782,-7.866802774791117,0.58266103,7.043437,51.53313,1678295807000,0.3999606,18.77929,1730621566730000,5.906736,Walk
Fix,FLP,37.422812,-122.1575857,-7.405023959141957,0.52129734,6.813,51.07015,1678295809557,0.3999606,18.77929,1730621566730000,1.2060643,Walk
Fix,GPS,37.422837106,-122.1575664372,-8.10680404206883,0.77312255,7.0816803,51.53313,1678295808000,0.39718017,11.8068285,1730622566710000,5.880356,Walk
Fix,FLP,37.4228223,-122.1575758,-6.389458463144663,0.58192825,6.835,50.58932,1678295810558,0.39718017,11.8068285,1730622566710000,1.2149844,Walk
Fix,GPS,37.4228542175,-122.1575565217,-8.500148481645462,0.9635366,7.150599,51.53313,1678295809000,0.3996995,13.376024,1730623566799000,5.848325,Walk
Fix,FLP,37.4228361,-122.1575653,-4.680381520665037,0.6928535,6.885,50.32464,1678295811558,0.3996995,13.376024,1730623566799000,1.2249844,Walk
Fix,GPS,37.4228702962,-122.1575447408,-8.893603884878816,1.0073756,7.2111855,40.73077,1678295810000,0.42551574,22.907776,1730624567062000,5.846008,Walk
Fix,FLP,37.4228519,-122.1575543,-11.300000190734863,0.79572564,7.033,49.11267,1678295812559,0.42551574,22.907776,1730624567062000,1.2359843,Walk
Fix,GPS,37.422889667,-122.1575326416,-9.373516239327383,0.78600305,7.232048,40.73077,1678295811000,0.4308857,23.86594,1730625567063000,5.836111,Walk
Fix,FLP,37.4228688,-122.1575429,-8.871736534144006,0.8328838,7.088,45.917027,1678295813559,0.4308857,23.86594,1730625567063000,1.2450044,Walk
Fix,GPS,37.4229046649,-122.1575224735,-9.553566116600091,0.694593,7.29648,40.73077,1678295812000,0.43568495,21.94909,1730626566806000,5.8657794,Walk
Fix,FLP,37.4228862,-122.1575317,-8.871736534144006,0.80274326,7.16,43.686882,1678295814557,0.43568495,21.94909,1730626566806000,1.2550244,Walk
Fix,GPS,37.4229145893,-122.1575129757,-10.163331267858991,0.61960274,7.3465047,40.73077,1678295813000,0.4236688,41.19145,1730627566725000,5.8890653,Walk
Fix,FLP,37.4229011,-122.1575215,-8.871736534144006,0.75791293,7.212,42.372925,1678295815557,0.4236688,41.19145,1730627566725000,1.2650044,Walk
Fix,GPS,37.4229243755,-122.1575049135,-10.604852191196578,0.39940712,7.4516077,40.73077,1678295814000,0.40891543,67.17271,1730628567114000,5.9019427,Walk
Fix,FLP,37.4229131,-122.1575122,-11.300000190734863,0.69380474,7.267,41.895164,1678295816559,0.40891543,67.17271,1730628567114000,1.2760044,Walk
Fix,GPS,37.4229362815,-122.1574967363,-10.7402009374634,0.565775,7.383832,40.73077,1678295815000,0.4032166,20.136442,1730629566828000,5.894488,Walk
Fix,FLP,37.4229241,-122.1575039,-19.089161520870697,0.61750245,7.312,41.272846,1678295817558,0.4032166,20.136442,1730629566828000,1.2859844,Walk
Fix,GPS,37.4229560741,-122.1574907007,-10.088445409013834,0.9656918,7.3782578,40.73077,1678295816000,0.39944336,20.488342,1730630567136000,5.862181,Walk
Fix,FLP,37.4229375,-122.157496,-20.50737032913897,0.6493803,7.351,40.466404,1678295818559,0.39944336,20.488342,1730630567136000,1.2959844,Walk
Fix,GPS,37.422974641,-122.1574820372,-10.337794258625417,1.1613585,7.3979044,30.756147,1678295817000,0.4085849,18.49814,1730631566914000,5.840805,Walk
Fix,FLP,37.4229549,-122.1574879,-11.300000190734863,0.78495514,7.378,38.356667,1678295819558,0.4085849,18.49814,1730631566914000,1.3049943,Walk
Fix,GPS,37.4229912407,-122.1574720908,-10.839221600331465,1.3860741,7.4734154,32.73819,1678295818000,0.44008464,16.919575,1730632566842000,5.823977,Walk
Fix,FLP,37.4229731,-122.1574791,-11.300000190734863,0.9346868,7.4,35.044323,1678295820558,0.44008464,16.919575,1730632566842000,1.3159844,Walk
Fix,GPS,37.4230105712,-122.1574616437,-10.819248584301985,1.1313324,7.4112463,27.247543,1678295819000,0.44592068,20.440586,1730633567099000,5.8212194,Walk
Fix,FLP,37.4229918,-122.1574691,-13.344169673679936,1.0480545,7.416,33.212902,1678295821559,0.44592068,20.440586,1730633567099000,1.3249844,Walk
Fix,GPS,37.4230274654,-122.1574549133,-11.342662256400518,0.63317776,7.305871,27.247543,1678295820000,0.41060495,25.411936,1730634567063000,5.847357,Walk
Fix,FLP,37.4230103,-122.1574603,-11.300000190734863,0.9968513,7.403,30.461218,1678295822558,0.41060495,25.411936,1730634567063000,1.3359843,Walk
Fix,GPS,37.4230408454,-122.1574511009,-11.417193982619825,0.51673067,7.26219,27.247543,1678295821000,0.39576903,12.116688,1730635567224000,5.8924394,Walk
Fix,FLP,37.4230264,-122.1574542,-11.300000190734863,0.81678504,7.385,26.570919,1678295823559,0.39576903,12.116688,1730635567224000,1.3459843,Walk
Fix,GPS,37.4230545739,-122.1574489696,-11.233606976456652,0.5469493,7.2266273,27.247543,1678295822000,0.4044489,34.81748,1730636566917000,5.950314,Walk
Fix,FLP,37.4230406,-122.1574502,-11.300000190734863,0.69785064,7.358,25.063965,1678295824558,0.4044489,34.81748,1730636566917000,1.3559943,Walk
Fix,GPS,37.4230682289,-122.1574477158,-11.597707245633902,0.8258613,7.261721,27.247543,1678295823000,0.41011807,11.581473,1730637567257000,6.0270047,Walk
Fix,FLP,37.4230546,-122.1574472,-11.300000190734863,0.69058806,7.321,26.39729,1678295825558,0.41011807,11.581473,1730637567257000,1.3660043,Walk
Fix,GPS,37.4230837797,-122.157447939,-11.173451869865987,1.1358153,7.278364,340.18542,1678295824000,0.42128012,19.176983,1730638567180000,6.112574,Walk
Fix,FLP,37.4230695,-122.1574456,-9.154020409885916,0.74925125,7.284,20.52951,1678295826559,0.42128012,19.176983,1730638567180000,1.3759844,Walk
Fix,GPS,37.4231027795,-122.1574518,-10.781521423675736,0.9470661,7.356743,340.18542,1678295825000,0.44647923,12.695063,1730639567002000,6.2287745,Walk
Fix,FLP,37.4230862,-122.1574478,-8.292974525137566,0.79986703,7.272,1.0642192,1678295827558,0.44647923,12.695063,1730639567002000,1.3859944,Walk
Fix,GPS,37.4231180048,-122.1574569303,-11.053525236981883,0.7226072,7.4622874,340.18542,1678295826000,0.4512215,30.783508,1730640567195000,6.3645964,Walk
Fix,FLP,37.4231041,-122.1574526,-8.292974525137566,0.83421713,7.294,347.8714,1678295828559,0.4512215,30.783508,1730640567195000,1.3959844,Walk
Fix,GPS,37.4231296212,-122.1574624844,-11.085570138392546,0.73256993,7.633703,340.18542,1678295827000,0.45544335,21.195436,1730641567367000,6.526367,Walk
Fix,FLP,37.423118,-122.1574574,-11.300000190734863,0.7998686,7.345,345.34723,1678295829559,0.45544335,21.195436,1730641567367000,1.4059944,Walk
Fix,GPS,37.4231421078,-122.1574712052,-11.286961884253245,1.1080217,7.7799015,297.39746,1678295828000,0.47008288,22.91956,1730642567003000,6.704436,Walk
Fix,FLP,37.4231306,-122.1574637,-14.133414927034522,0.7778343,7.428,338.88794,1678295830559,0.47008288,22.91956,1730642567003000,1.4159844,Walk
Fix,GPS,37.4231471855,-122.1574881498,-10.683703857651818,1.1549366,7.9582834,306.69232,1678295829000,0.46807963,21.794855,1730643567037000,6.8928723,Walk
Fix,FLP,37.423141,-122.1574738,-11.300000190734863,0.8201194,7.535,325.26328,1678295831559,0.46807963,21.794855,1730643567037000,1.4259844,Walk
Fix,GPS,37.4231542837,-122.1575026188,-10.812226932926531,1.26068,8.111536,316.36768,1678295830000,0.4762595,20.904863,1730644567075000,7.102675,Walk
Fix,FLP,37.4231491,-122.1574878,-11.300000190734863,0.92236376,7.667,319.37564,1678295832559,0.4762595,20.904863,1730644567075000,1.4359944,Walk
Fix,GPS,37.4231562326,-122.1575116009,-11.383939901760062,1.0447916,8.180191,320.16418,1678295831000,0.48507583,25.731762,1730645567212000,7.267056,Walk
Fix,FLP,37.4231559,-122.1575011,-4.750735302979685,1.0018829,7.807,318.60248,1678295833558,0.48507583,25.731762,1730645567212000,1.4459944,Walk
Fix,GPS,37.4231653566,-122.1575287161,-11.478500302826731,0.8010058,8.24173,320.16418,1678295832000,0.47754562,26.608774,1730646567287000,7.3822827,Walk
Fix,FLP,37.4231616,-122.1575137,-11.300000190734863,0.98490864,7.923,319.0072,1678295834559,0.47754562,26.608774,1730646567287000,1.4559844,Walk
Fix,GPS,37.4231725876,-122.1575467633,-11.23285719098643,0.8938477,8.115845,320.16418,1678295833000,0.44999072,16.488853,1730647567408000,7.3966155,Walk
Fix,FLP,37.4231686,-122.1575286,-11.300000190734863,0.9331345,8.049,319.35443,1678295835559,0.44999072,16.488853,1730647567408000,1.4660044,Walk
Fix,GPS,37.4231793351,-122.1575654758,-10.443666003068552,0.52219445,8.114947,320.16418,1678295834000,0.45863265,68.316414,1730648567421000,7.4480042,Walk
Fix,FLP,37.4231755,-122.1575453,-11.300000190734863,0.893689,8.11,319.35837,1678295836559,0.45863265,68.316414,1730648567421000,1.4760044,Walk
Fix,GPS,37.423187275,-122.1575820803,-10.19050402795926,0.91003484,8.010884,320.16418,1678295835000,0.42640257,44.565872,1730649567081000,7.456709,Walk
Fix,FLP,37.4231825,-122.1575626,-9.044750350395695,0.84320825,8.134,319.15073,1678295837558,0.42640257,44.565872,1730649567081000,1.4859843,Walk
Fix,GPS,37.4231929364,-122.1576032706,-10.602612655544474,1.0422451,7.924732,319.7365,1678295836000,0.4483429,23.823606,1730650567457000,7.4978795,Walk
Fix,FLP,37.4231898,-122.157581,-6.541269731135479,0.8815901,8.115,319.1237,1678295838558,0.4483429,23.823606,1730650567457000,1.4961344,Walk
Fix,GPS,37.4231964973,-122.1576225836,-10.660379362382836,0.70857483,7.9265604,319.7365,1678295837000,0.4562754,35.450275,1730651567479000,7.5418663,Walk
Fix,FLP,37.423196,-122.1576007,-6.541269731135479,0.89674926,8.06,318.91528,1678295839558,0.4562754,35.450275,1730651567479000,1.5059844,Walk
Fix,GPS,37.4231992379,-122.1576343688,-10.251660472461603,0.80961126,7.8797708,319.7365,1678295838000,0.40602866,22.20632,1730652567200000,7.46445,Walk
Fix,FLP,37.4232003,-122.1576183,-2.4297638302157267,0.84689647,8.01,318.82117,1678295840559,0.40602866,22.20632,1730652567200000,1.5159944,Walk
Fix,GPS,37.423199934,-122.1576529075,-10.469497196223204,1.0934407,7.6675577,330.58774,1678295839000,0.32928747,18.019625,1730653567118000,7.331475,Walk
Fix,FLP,37.423208,-122.1576289,1.8681201278274315,0.8428044,8.721,318.41132,1678295841697,,,1730653705650682,1.5256244,Walk
Fix,GPS,37.423206059,-122.1576668824,-10.572929115535764,0.99099785,7.4354315,330.58774,1678295840000,0.29857323,13.960762,1730654567131000,7.186404,Walk
Fix,FLP,37.4232133,-122.1576374,4.851134305824566,0.84918857,9.292,317.74933,1678295842561,,,1730654570921922,1.5352244,Walk
Fix,GPS,37.4232119458,-122.15768269,-11.084033730256175,0.58350855,7.2484884,330.58774,1678295841000,0.29417866,6.9857187,1730655567146000,7.0424814,Walk
Fix,FLP,37.4232207,-122.1576531,1.428457731712328,0.86504674,9.91,316.5734,1678295843539,,,1730655547350205,1.5448244,Walk
Fix,FLP,37.4232247,-122.1576678,1.428457731712328,0.85733026,10.133,315.4147,1678295844154,,,1730656162141892,1.5448244,Walk
Fix,GPS,37.4232196605,-122.1577037705,-11.909511399414075,0.9184205,6.498949,330.58774,1678295842000,0.25715145,11.870717,1730656567265000,6.806074,Walk
Fix,FLP,37.4232288,-122.1576872,-5.48359456231551,0.8385407,10.285,313.57983,1678295845058,,,1730657066250047,1.5552244,Walk
Fix,GPS,37.4232279664,-122.1577240082,-12.144228167426231,0.98375744,6.100275,330.58774,1678295843000,0.27907395,14.932863,1730657567341000,6.542301,Walk
Fix,FLP,37.4232362,-122.1576941,-8.526710106477879,0.8442191,10.515,313.64478,1678295845647,,,1730657655835008,1.5648444,Walk
Fix,GPS,37.4232345679,-122.1577438324,-12.46700480684752,0.94083446,5.947791,330.58774,1678295844000,0.28154036,24.105719,1730658567224000,6.3626003,Walk
Fix,FLP,37.4232524,-122.1577104,-11.300000190734863,0.8616166,10.053,313.69565,1678295846541,,,1730658549006211,1.5752244,Walk
Fix,NLP,37.4233356,-122.1579737,-11.300000190734863,,27.403,,1678295846845,,,1730658854000000,1.0,Walk
Fix,FLP,37.4232626,-122.1577229,-11.300000190734863,0.8819938,9.948,313.4312,1678295847047,,,1730659055315476,0.957039,Walk
Fix,GPS,37.4232399806,-122.1577587098,-12.490588347923586,0.99311775,5.697973,330.58774,1678295845000,0.25761804,14.992865,1730659567222000,6.2112584,Walk
Fix,FLP,37.4232658,-122.1577276,-11.300000190734863,0.88721645,9.753,313.29153,1678295847589,,,1730659597793932,0.98843086,Walk
Fix,GPS,37.4232466387,-122.157769166,-12.79810220561175,0.9228271,5.5380735,330.58774,1678295846000,0.25430492,11.031709,1730660567223000,6.086358,Walk
Fix,FLP,37.4232746,-122.1577419,-11.300000190734863,0.90177256,9.584,312.8267,1678295848511,,,1730660519994127,1.0043681,Walk
Fix,FLP,37.4232803,-122.1577535,-11.300000190734863,0.9099644,9.75,312.3293,1678295849108,,,1730661116733080,1.0043681,Walk
Fix,GPS,37.4232552335,-122.1577857502,-13.30447105718606,1.071938,5.4765377,326.29404,1678295847000,0.2380299,13.243903,1730661567233000,5.919712,Walk
Fix,FLP,37.4232816,-122.1577587,-11.300000190734863,0.91244376,9.813,311.95212,1678295849653,,,1730661661247850,1.0158867,Walk
Fix,GPS,37.4232714455,-122.1578068677,-13.675429909785665,1.0657008,5.3379974,305.40295,1678295848000,0.26134682,12.330976,1730662567560000,5.7797036,Walk
Fix,FLP,37.4232875,-122.1577741,-11.300000190734863,0.92348,10.348,311.0325,1678295850590,,,1730662599507311,1.0260379,Walk
Fix,FLP,37.4232929,-122.1577862,-11.300000190734863,0.9396136,10.638,310.45505,1678295851278,,,1730663287000000,1.0260379,Walk
Fix,GPS,37.4232797058,-122.1578242894,-13.303002722164734,1.0352129,5.2681046,313.57547,1678295849000,0.256378,13.415782,1730663567567000,5.6376886,Walk
Fix,FLP,37.4232971,-122.1577972,-11.300000190734863,0.9528941,11.033,309.8179,1678295851805,,,1730663813000000,1.0364279,Walk
Fix,NLP,37.4236616,-122.1577092,-11.5,,24.885,,1678295851909,,,1730663917000000,1.0,Walk
Fix,FLP,37.4233109,-122.1578049,-11.5,0.9645686,11.217,310.00046,1678295852384,,,1730664392000000,0.9517993,Walk
Fix,GPS,37.4232877509,-122.1578361064,-12.612120838782266,0.9455163,5.244649,313.57547,1678295850000,0.26570997,12.530807,1730664567278000,5.5575275,Walk
Fix,FLP,37.4233348,-122.1578132,-11.5,0.9765724,11.244,311.2063,1678295853251,,,1730665259000000,0.95898926,Walk
Fix,GPS,37.4232964291,-122.1578496433,-12.514683996686928,0.73410493,5.433588,313.57547,1678295851000,0.27625734,18.340336,1730665567297000,5.496674,Walk
Fix,FLP,37.4233452,-122.1578207,-11.5,0.96878445,11.329,311.92352,1678295853829,,,1730665837000000,0.9700524,Walk
Fix,FLP,37.423351,-122.1578269,-11.5,0.9596668,11.354,312.13947,1678295854353,,,1730666361000000,0.9700524,Walk
Fix,GPS,37.4233031636,-122.1578632451,-13.263826848599702,1.0073347,5.4784303,304.1189,1678295852000,0.2448526,12.528965,1730666567333000,5.4796166,Walk
Fix,FLP,37.423361,-122.1578391,-11.5,0.94707054,11.525,312.47626,1678295855258,,,1730667266000000,0.97967243,Walk
Fix,GPS,37.4233109589,-122.1578780229,-13.533694673244565,1.3161329,5.454761,308.10355,1678295853000,0.24946354,10.115975,1730667567492000,5.451441,Walk
Fix,FLP,37.4233654,-122.1578485,-11.5,0.9685483,11.591,312.31555,1678295855801,,,1730667809000000,0.9905472,Walk
Fix,GPS,37.4233224054,-122.1578950881,-13.689134386746018,1.266995,5.5497036,318.13004,1678295854000,0.23951292,10.599384,1730668567375000,5.4203563,Walk
Fix,FLP,37.4233693,-122.1578598,-11.5,0.9987864,11.557,311.94904,1678295856559,,,1730668567375000,1.0001671,Walk
Fix,NLP,37.4236154,-122.1577577,-11.5,,20.412,,1678295856982,,,1730668990000000,1.0,Walk
Fix,FLP,37.4233812,-122.1578683,-11.5,1.0301591,11.423,312.05594,1678295857303,,,1730669312000000,0.93343234,Walk
Fix,GPS,37.423339526,-122.1579186489,-14.098617193128453,1.0102856,5.267173,314.81006,1678295855000,0.23898481,12.947887,1730669567357000,5.2564726,Walk
Fix,FLP,37.4234041,-122.1578746,-11.5,1.0392423,11.485,313.37158,1678295858317,,,1730670325000000,0.9402923,Walk
Fix,GPS,37.4233494019,-122.1579342961,-14.07557431853156,0.7162853,5.1619964,314.81006,1678295856000,0.23957664,29.03061,1730670567376000,5.153419,Walk
Fix,FLP,37.423418,-122.157885,-11.5,1.0243632,11.494,314.55444,1678295859290,,,1730671298000000,0.9498824,Walk
Fix,GPS,37.4233572064,-122.1579446984,-14.199637333915208,0.67559373,5.1233997,314.81006,1678295857000,0.23313484,61.995037,1730671567390000,5.0659666,Walk
Fix,FLP,37.4234226,-122.1578936,-11.5,0.9936352,11.458,314.61765,1678295859816,,,1730671824000000,0.9580132,Walk
Fix,FLP,37.4234261,-122.1579004,-11.5,0.97848815,11.438,314.5353,1678295860339,,,1730672347000000,0.9580132,Walk
Fix,GPS,37.4233623535,-122.1579571391,-14.542977506807803,1.2492839,5.131139,286.03943,1678295858000,0.21988241,9.069983,1730672567396000,5.012693,Walk
Fix,FLP,37.4234288,-122.1579102,-11.5,0.9774192,11.421,314.23038,1678295860882,,,1730672890000000,0.9681008,Walk
Fix,GPS,37.423367674,-122.1579724885,-14.379817321475183,1.3318702,5.178075,299.48224,1678295859000,0.29004222,11.499322,1730673567597000,4.9776406,Walk
Fix,FLP,37.4234303,-122.157922,-11.5,1.001561,11.384,313.6381,1678295861559,,,1730673567597000,0.97770077,Walk
Fix,NLP,37.4234527,-122.1580536,-11.0,,30.352,,1678295861903,,,1730673911000000,1.0,Walk
Fix,FLP,37.4234329,-122.1579388,-11.0,1.0252988,11.39,312.89804,1678295862419,,,1730674427000000,0.9231708,Walk
Fix,GPS,37.4233763723,-122.1579830886,-13.699279182039064,1.0045086,5.2878075,318.23157,1678295860000,0.32223824,17.632427,1730674567436000,4.929434,Walk
Fix,FLP,37.4234378,-122.1579577,-11.0,1.0303091,11.523,312.1139,1678295863358,,,1730675367000000,0.93008876,Walk
Fix,GPS,37.4233843875,-122.1579900811,-13.751952136414952,0.83370966,5.3158736,318.23157,1678295861000,0.28074944,10.329152,1730675567456000,4.8798842,Walk
Fix,FLP,37.4234394,-122.1579699,-11.0,1.0198894,11.574,310.99814,1678295863940,,,1730675948000000,0.94048876,Walk
Fix,GPS,37.4233881837,-122.1579953632,-14.136423262955336,1.009107,5.2214303,308.85944,1678295862000,0.26810014,14.363996,1730676567460000,4.8710737,Walk
Fix,FLP,37.4234396,-122.1579813,-11.0,0.9997258,11.551,309.6872,1678295864559,,,1730676567460000,0.9500785,Walk
Fix,FLP,37.4234419,-122.1579948,-11.0,0.99231166,11.557,308.58197,1678295865437,,,1730677446000000,0.9500785,Walk
Fix,GPS,37.4233980602,-122.1580053695,-14.53515569700138,1.142257,5.346207,303.63324,1678295863000,0.24763805,11.317944,1730677567499000,4.9078293,Walk
Fix,FLP,37.4234454,-122.1580117,-11.0,1.0021985,11.653,307.39435,1678295866487,,,1730678495000000,0.9593159,Walk
Fix,GPS,37.4234080216,-122.1580233918,-14.817797574581263,1.159371,5.3467326,294.43268,1678295864000,0.27454424,11.868044,1730678567509000,4.9666195,Walk
Fix,NLP,37.423297,-122.1580682,-10.90000057220459,,18.423,,1678295866918,,,1730678926000000,1.0,Walk
Fix,FLP,37.4234419,-122.1580297,-10.90000057220459,1.0197003,11.819,306.0249,1678295867410,,,1730679418000000,0.9151719,Walk
Fix,GPS,37.4234134945,-122.1580391182,-14.642545335591292,1.0218506,5.453972,301.9485,1678295865000,0.28056285,14.215454,1730679567510000,4.9840875,Walk
Fix,FLP,37.4234344,-122.1580499,-10.90000057220459,1.0151702,11.759,304.11725,1678295868458,,,1730680466000000,0.9213897,Walk
Fix,GPS,37.423418476,-122.1580494547,-14.342329487295906,0.99097216,5.54033,301.9485,1678295866000,0.25469184,15.03239,1730680567515000,4.935812,Walk
Fix,FLP,37.4234319,-122.1580679,-10.90000057220459,1.007792,11.754,301.44913,1678295869470,,,1730681479000000,0.9310157,Walk
Fix,GPS,37.4234231409,-122.1580573445,-14.40703771967685,0.8892214,5.6229725,301.9485,1678295867000,0.2416418,22.5841,1730681567680000,4.924738,Walk
Fix,FLP,37.4234327,-122.1580844,-10.90000057220459,0.99927926,11.841,299.65338,1678295870483,,,1730682492000000,0.94080937,Walk
Fix,GPS,37.4234292956,-122.1580662526,-14.235077436707572,0.63788337,5.7133074,301.9485,1678295868000,0.26533088,17.342701,1730682567559000,4.9023337,Walk
Fix,FLP,37.4234356,-122.1580996,-10.90000057220459,0.97205776,11.828,298.13336,1678295871515,,,1730683523000000,0.95099974,Walk
Fix,GPS,37.4234350631,-122.1580758742,-13.784011953437478,1.0217992,5.6881156,325.09332,1678295869000,0.21844,12.710963,1730683567562000,4.8507996,Walk
Fix,NLP,37.4233771,-122.1582494,-11.0,,27.653,,1678295871978,,,1730683986000000,1.0,Walk
Fix,FLP,37.4234379,-122.158116,-11.0,0.9311388,11.888,296.628,1678295872508,,,1730684516000000,0.90500844,Walk
Fix,GPS,37.4234446875,-122.1580902368,-13.244226936549849,0.9579833,5.6663995,325.09332,1678295870000,0.2508009,13.574455,1730684567571000,4.791279,Walk
Fix,FLP,37.4234405,-122.158134,-11.0,0.939911,11.995,296.1215,1678295873504,,,1730685512000000,0.9113984,Walk
Fix,GPS,37.4234521525,-122.1581020691,-12.674860618668893,1.149189,5.366186,319.2484,1678295871000,0.19691785,9.717806,1730685567588000,4.671561,Walk
