Fix,Provider,LatitudeDegrees,LongitudeDegrees,AltitudeMeters,SpeedMps,AccuracyMeters,BearingDegrees,UnixTimeMillis,SpeedAccuracyMps,BearingAccuracyDegrees,elapsedRealtimeNanos,VerticalAccuracyMeters,TransitType
Fix,NLP,37.4273773,-122.1560812,-14.80000114440918,,12.491,,1678300201496,,,1735013505000000,1.0,Walk
Fix,GPS,37.4274989359,-122.1565402626,27.463461255658167,2.8236144,13.179064,319.99188,1678300203998,0.6154719,180.0,1735018635073000,19.175423,Walk
Fix,FLP,37.4273798,-122.1560903,-14.80000114440918,0.44233352,15.549,289.25064,1678300206627,,,1735018635073000,1.0505105,Walk
Fix,FLP,37.4273538,-122.1561243,-14.80000114440918,2.478273,19.288,223.37604,1678300207160,,,1735019168717128,1.0505105,Walk
Fix,GPS,37.4275186512,-122.1565629316,11.93521625013976,1.0768499,19.899807,312.30078,1678300204998,0.44681224,25.0,1735019635372000,25.239666,Walk
Fix,FLP,37.4273531,-122.1561338,-14.80000114440918,2.650019,21.667,224.06967,1678300207703,,,1735019711231044,1.0609305,Walk
Fix,FLP,37.4273704,-122.1561612,-14.80000114440918,1.7983348,27.595,247.32945,1678300208245,,,1735020253772060,1.0609305,Walk
Fix,GPS,37.4275377012,-122.1565903049,2.821407662162134,1.381691,20.05235,311.7289,1678300205999,0.5585575,25.0,1735020635132000,22.779406,Walk
Fix,FLP,37.4273796,-122.1561647,-14.80000114440918,1.5975482,28.843,255.2211,1678300208788,,,1735020796300441,1.0713105,Walk
Fix,FLP,37.4273896,-122.1561965,-14.80000114440918,1.4918412,33.844,263.59265,1678300209330,,,1735021338828151,1.0713105,Walk
Fix,GPS,37.4275564604,-122.1566143236,-3.3952476225673207,1.5463612,20.241594,320.76413,1678300206999,0.60350674,25.0,1735021635078000,20.945366,Walk
Fix,FLP,37.4274027,-122.1562275,-14.80000114440918,1.4976608,34.273,270.15567,1678300209873,,,1735021881356167,1.0809305,Walk
Fix,FLP,37.4274102,-122.1562504,-14.80000114440918,1.5050645,35.993,273.21295,1678300210415,,,1735022423884121,1.0809305,Walk
Fix,GPS,37.4275729766,-122.1566334867,-8.29081119660949,1.6509106,20.463387,318.77835,1678300207999,0.6385728,25.0,1735022635089000,19.51455,Walk
Fix,FLP,37.4274251,-122.1562868,-14.80000114440918,1.5366114,37.313,278.04294,1678300210958,,,1735022966401149,1.0905305,Walk
Fix,NLP,37.4273885,-122.1561555,-14.200000762939451,,48.9,,1678300211556,,,1735023565000000,3.5532384,Walk
Fix,FLP,37.4274328,-122.156307,-14.200000762939451,1.5574832,36.992,280.03207,1678300211500,,,1735023508928799,2.1345446,Walk
Fix,GPS,37.4275898229,-122.1566522318,-11.978287220387884,1.7294452,20.698343,322.48166,1678300208999,0.58736837,25.0,1735023635120000,18.361372,Walk
Fix,FLP,37.4274612,-122.1563812,-14.200000762939451,1.655665,36.542,284.28766,1678300212043,,,1735024051469752,2.1667626,Walk
Fix,GPS,37.4276021172,-122.1566679849,-15.041911498953285,1.7257699,20.93385,322.72375,1678300209999,0.64507294,25.0,1735024635139000,17.41056,Walk
Fix,FLP,37.4274733,-122.1564165,-14.200000762939451,1.7072005,35.158,284.47916,1678300212585,,,1735024593994228,2.1288087,Walk
Fix,FLP,37.4274954,-122.1564803,-14.200000762939451,1.7830418,32.196,283.98312,1678300213128,,,1735025136521083,2.1288087,Walk
Fix,GPS,37.4276123411,-122.1566785173,-17.330569743214916,1.650856,21.145206,330.49445,1678300210999,0.563315,25.0,1735025635135000,16.609922,Walk
Fix,FLP,37.4275031,-122.1565043,-14.200000762939451,1.7990736,30.754,282.67758,1678300213671,,,1735025679047390,2.1561546,Walk
Fix,FLP,37.4275182,-122.1565522,-14.200000762939451,1.8094532,27.759,280.10504,1678300214213,,,1735026221573513,2.1561546,Walk
Fix,NLP,37.4271715,-122.1564976,-14.200000762939451,,60.015,,1678300214553,,,1735026561000000,3.3637059,Walk
Fix,GPS,37.4276264336,-122.1566843297,-19.33791792860232,1.609942,21.381235,342.57166,1678300211999,0.5232205,25.0,1735026635143000,15.927436,Walk
Fix,FLP,37.4275271,-122.1565765,-14.200000762939451,1.7933285,25.801,277.37943,1678300214756,,,1735026764104763,2.9457932,Walk
Fix,FLP,37.4275356,-122.1566098,-14.200000762939451,1.7649435,23.397,274.58994,1678300215297,,,1735027306615749,2.9457932,Walk
Fix,GPS,37.4276332216,-122.1566878593,-21.03043550407126,1.4913287,21.5794,352.25217,1678300212999,0.5400936,25.0,1735027635157000,15.333454,Walk
Fix,FLP,37.4275426,-122.1566317,-14.200000762939451,1.724884,20.418,271.85428,1678300215841,,,1735027849153896,3.0389092,Walk
Fix,FLP,37.4275451,-122.1566416,-14.200000762939451,1.706832,19.357,270.56952,1678300216383,,,1735028391681484,3.0389092,Walk
Fix,GPS,37.4276380175,-122.1566865967,-23.38403540533442,1.3644941,21.800982,14.794545,1678300213999,0.55594766,27.437948,1735028635314000,14.81515,Walk
Fix,FLP,37.4275498,-122.1566583,-14.200000762939451,1.6787839,17.215,269.0337,1678300216926,,,1735028934210048,2.9733336,Walk
Fix,FLP,37.4275523,-122.1566679,-14.200000762939451,1.6681088,16.929,269.0764,1678300217468,,,1735029476739345,2.9733336,Walk
Fix,GPS,37.4276461787,-122.1566834545,-24.91076899673875,1.3369344,22.065163,14.794545,1678300214999,0.74436176,25.0,1735029635242000,14.363779,Walk
Fix,FLP,37.4275575,-122.1566776,-14.200000762939451,1.6454667,16.272,269.7863,1678300217991,,,1735029999000000,2.97879,Walk
Fix,GPS,37.4276591631,-122.1566819206,-27.03283142195599,1.3685752,22.396166,14.794545,1678300215999,0.8263488,80.94021,1735030635436000,13.962585,Walk
Fix,FLP,37.4275606,-122.1566899,-14.200000762939451,1.6318599,16.03,270.63028,1678300218553,,,1735030561800441,2.9907796,Walk
Fix,FLP,37.427567,-122.1567004,-14.200000762939451,1.6064918,15.889,272.31607,1678300219096,,,1735031104331630,2.9907796,Walk
Fix,FLP,37.4275704,-122.1567074,-17.27593361153008,1.595245,15.867,273.15308,1678300219638,,,1735031646862209,3.000658,Walk
Fix,NLP,37.4270217,-122.1568327,-14.100000381469728,,45.828,,1678300219585,,,1735031594000000,4.454097,Walk
Fix,GPS,37.427672511,-122.1566795363,-28.86387780317884,1.4802836,22.872993,14.794545,1678300216999,0.9120666,180.0,1735031635246000,13.602765,Walk
Fix,FLP,37.4275791,-122.1567195,-17.27593361153008,1.5699075,15.845,275.3149,1678300220181,,,1735032189385463,3.0567179,Walk
Fix,GPS,37.4276855896,-122.1566834803,-30.22381996709256,1.4451011,24.290693,356.21088,1678300217999,0.7319282,25.0,1735032635241000,13.275566,Walk
Fix,FLP,37.4275865,-122.1567267,-16.301816511299606,1.5573328,15.9,276.8017,1678300220723,,,1735032731911586,3.093322,Walk
Fix,FLP,37.4275905,-122.1567354,-16.301816511299606,1.5521879,15.992,277.37085,1678300221266,,,1735033274456142,3.093322,Walk
Fix,GPS,37.4276907634,-122.1566805664,-31.218844223318133,1.4061755,24.653353,3.757282,1678300218999,0.6837679,25.0,1735033635269000,12.9870825,Walk
Fix,FLP,37.427598,-122.156743,-14.100000381469728,1.5398784,16.111,278.61255,1678300221795,,,1735033803089321,3.2027237,Walk
Fix,FLP,37.4276022,-122.1567502,-14.100000381469728,1.5334299,16.228,279.29935,1678300222331,,,1735034340000000,3.2027237,Walk
Fix,GPS,37.4274445527,-122.1565178888,-20.181026771802934,1.540158,17.69667,3.757282,1678300219999,0.9675742,25.0,1735034635338000,11.851191,Walk
Fix,FLP,37.4276074,-122.156762,-9.065180469085696,1.517521,16.512,280.3234,1678300222894,,,1735034902045131,3.4175968,Walk
Fix,GPS,37.4273961706,-122.1564808475,-21.141556668904304,1.2752676,15.306423,3.757282,1678300220999,0.6648967,32.591198,1735035635418000,11.521881,Walk
Fix,FLP,37.4276061,-122.1567644,-8.92661498281931,1.5148181,16.624,279.90848,1678300223436,,,1735035444576503,3.428737,Walk
Fix,FLP,37.4275961,-122.1567663,-8.92661498281931,1.4801297,16.808,277.63232,1678300223979,,,1735035987091213,3.428737,Walk
Fix,NLP,37.4270177,-122.1568721,-14.100000381469728,,42.5,,1678300224640,,,1735036649000000,4.9225636,Walk
Fix,FLP,37.4275885,-122.1567639,-8.92661498281931,1.4541731,16.852,275.86816,1678300224521,,,1735036529628749,3.398284,Walk
Fix,GPS,37.4273797403,-122.1564641966,-22.03194709433444,1.6374891,14.066303,201.72818,1678300221999,0.73353255,37.470158,1735036635338000,11.307257,Walk
Fix,FLP,37.4275599,-122.1567487,-8.92661498281931,1.3842232,16.59,270.47302,1678300225063,,,1735037072144863,3.3992639,Walk
Fix,GPS,37.4273655863,-122.1564447044,-22.37274238401328,1.7982047,12.987375,195.16002,1678300222999,1.2214392,25.0,1735037635355000,11.1373205,Walk
Fix,FLP,37.4275475,-122.1567409,-1.2240620955567678,1.3640792,16.337,268.3711,1678300225606,,,1735037614680935,3.3877683,Walk
Fix,FLP,37.4275169,-122.1567221,-1.2240620955567678,1.3196423,15.58,263.49057,1678300226149,,,1735038157208462,3.3877683,Walk
Fix,GPS,37.4273478067,-122.1564411723,-23.165992485842644,1.8226349,11.178677,200.97296,1678300223999,0.54683083,25.0,1735038635364000,10.914712,Walk
Fix,FLP,37.4275041,-122.1567135,-0.3493401988534543,1.2904668,15.091,260.69553,1678300226691,,,1735038699729274,3.3976183,Walk
Fix,FLP,37.4274939,-122.1567017,-0.3493401988534543,1.2677927,16.034,257.47067,1678300227355,,,1735039364334006,3.3976183,Walk
Fix,GPS,37.4273204478,-122.1564327702,-22.713710028713503,1.2539902,9.716996,200.97296,1678300224999,0.6448527,25.0,1735039635320000,10.698639,Walk
Fix,FLP,37.427478,-122.1566788,-0.5720789010133487,1.1626531,17.36,253.46233,1678300227861,,,1735039870701437,3.4059725,Walk
Fix,NLP,37.4272877,-122.1562058,-14.200000762939451,,34.48,,1678300228144,,,1735040152000000,14.646238,Walk
Fix,FLP,37.4274534,-122.1566293,-0.5720789010133487,1.0581151,17.378,248.6522,1678300228369,,,1735040377051169,3.3959951,Walk
Fix,GPS,37.4273018725,-122.1564330199,-23.19619757337132,1.6991765,9.434731,200.97296,1678300225999,1.9100283,25.0,1735040635306000,10.593675,Walk
Fix,FLP,37.4274284,-122.1565817,-2.2981048756088924,0.9863417,17.161,242.59737,1678300228875,,,1735040883403769,3.4146552,Walk
Fix,FLP,37.4274138,-122.1565618,-2.2981048756088924,0.9918055,17.177,239.64478,1678300229380,,,1735041389740073,3.4146552,Walk
Fix,GPS,37.4272841443,-122.156443847,-21.97072089073724,1.7500085,8.958065,190.5675,1678300226999,0.42666885,25.0,1735041635345000,10.409299,Walk
Fix,FLP,37.4273837,-122.1565297,-2.2981048756088924,1.0068672,16.993,233.16039,1678300229888,,,1735041896107505,3.4250653,Walk
Fix,FLP,37.4273648,-122.1565206,-2.2981048756088924,1.0158842,17.138,229.34134,1678300230394,,,1735042402458884,3.4250653,Walk
Fix,GPS,37.4272700966,-122.1564467442,-21.865445904174496,1.681161,8.579524,203.83095,1678300227999,0.47281358,25.0,1735042635348000,10.238079,Walk
Fix,FLP,37.4273372,-122.1565048,-7.758326602820439,1.050909,17.357,224.05417,1678300230900,,,1735042908811301,3.4545922,Walk
Fix,FLP,37.4273233,-122.1565004,-7.758326602820439,1.0760593,17.689,222.38683,1678300231406,,,1735043415164390,3.4545922,Walk
Fix,GPS,37.4272588539,-122.156451929,-22.451030162398837,1.5748842,8.169558,216.37007,1678300228999,0.36693123,25.0,1735043635382000,10.058145,Walk
Fix,FLP,37.4273032,-122.1564929,-11.788492089039488,1.1213024,16.988,220.29015,1678300231912,,,1735043921515219,3.6446414,Walk
Fix,FLP,37.4272918,-122.1564924,-11.788492089039488,1.1429914,16.803,219.60278,1678300232419,,,1735044427873008,3.6446414,Walk
Fix,GPS,37.427247873,-122.1564638007,-22.14226190891865,1.5442499,7.8911667,214.24951,1678300229999,0.5075062,27.977636,1735044635363000,9.906369,Walk
Fix,NLP,37.4270321,-122.1568744,-14.200000762939451,,48.163,,1678300233000,,,1735045008000000,4.167198,Walk
Fix,FLP,37.4272767,-122.1564873,-14.200000762939451,1.1806967,14.878,218.522,1678300232926,,,1735044934227378,3.7415426,Walk
Fix,FLP,37.4272631,-122.1564855,-14.200000762939451,1.213088,14.159,217.81892,1678300233432,,,1735045440584128,3.7415426,Walk
Fix,GPS,37.4272380306,-122.1564725192,-22.704927858748576,1.4949163,7.7489643,201.55193,1678300230999,0.43520483,25.0,1735045635424000,9.768829,Walk
Fix,FLP,37.4272515,-122.1564861,-14.200000762939451,1.2360494,13.61,216.74934,1678300233937,,,1735045946938071,3.7737668,Walk
Fix,FLP,37.4272439,-122.1564882,-14.200000762939451,1.2455361,13.369,215.97351,1678300234445,,,1735046453298240,3.7737668,Walk
Fix,GPS,37.4272259005,-122.1564839758,-23.09101231832376,1.5244191,7.59844,229.13263,1678300231999,0.43271562,25.0,1735046635404000,9.604773,Walk
Fix,FLP,37.427236,-122.15649,-14.200000762939451,1.262449,13.002,215.98175,1678300234951,,,1735046959655662,3.8016984,Walk
Fix,FLP,37.4272302,-122.1564944,-14.200000762939451,1.2699649,12.877,216.75212,1678300235458,,,1735047466010886,3.8016984,Walk
Fix,GPS,37.4272163306,-122.1564998027,-23.17597666849388,1.5509632,7.595957,225.38849,1678300232999,0.45053026,25.0,1735047635411000,9.48323,Walk
Fix,FLP,37.4272225,-122.1564996,-14.200000762939451,1.2877237,12.668,217.88577,1678300235964,,,1735047972374900,3.8259783,Walk
Fix,FLP,37.4272167,-122.1565046,-14.200000762939451,1.298176,12.517,218.37315,1678300236470,,,1735048478729819,3.8259783,Walk
Fix,GPS,37.4272072724,-122.1565095098,-23.57739318653101,1.5019867,7.590229,208.33543,1678300233999,0.44973135,25.0,1735048635500000,9.350634,Walk
Fix,FLP,37.4272095,-122.1565092,-14.200000762939451,1.3136016,12.392,218.25061,1678300236977,,,1735048985090659,3.850684,Walk
Fix,FLP,37.4272029,-122.1565135,-14.200000762939451,1.3185526,12.159,217.50363,1678300237559,,,1735049568266201,3.850684,Walk
Fix,GPS,37.4271968262,-122.1565184387,-23.349664775107843,1.4785328,7.462865,206.89015,1678300234999,0.48981914,25.0,1735049635437000,9.2341175,Walk
Fix,NLP,37.4269673,-122.1569626,-14.200000762939451,,51.19,,1678300238022,,,1735050030000000,3.390183,Walk
Fix,FLP,37.4271953,-122.1565178,-14.200000762939451,1.3309101,12.228,215.7489,1678300238102,,,1735050110802700,3.477167,Walk
Fix,FLP,37.4271901,-122.1565224,-14.200000762939451,1.3357164,12.297,215.33623,1678300238644,,,1735050653330714,3.477167,Walk
Fix,GPS,37.4271860833,-122.156529554,-23.386682806687585,1.4781628,7.3610187,211.11201,1678300235999,0.42119744,25.0,1735050635457000,9.133155,Walk
Fix,FLP,37.4271837,-122.1565284,-14.200000762939451,1.3458594,12.287,214.8836,1678300239187,,,1735051195856898,3.4724905,Walk
Fix,FLP,37.427178,-122.1565337,-14.200000762939451,1.3519281,12.238,214.88979,1678300239730,,,1735051738382777,3.4724905,Walk
Fix,GPS,37.4271759814,-122.1565410065,-23.335453126940408,1.4743056,7.262079,213.89983,1678300236999,0.42366564,25.0,1735051635473000,9.055385,Walk
Fix,FLP,37.427171,-122.1565409,-14.200000762939451,1.3632354,12.017,214.96712,1678300240251,,,1735052260000000,3.4727805,Walk
Fix,GPS,37.4271660722,-122.156549487,-23.32736384273142,1.4536471,7.275148,208.65453,1678300237999,0.41926393,25.0,1735052635487000,8.976971,Walk
Fix,FLP,37.4271654,-122.1565468,-14.200000762939451,1.3720598,11.496,215.09366,1678300240794,,,1735052802000000,3.482233,Walk
Fix,FLP,37.4271596,-122.1565521,-14.200000762939451,1.3762532,11.185,215.03973,1678300241309,,,1735053317000000,3.482233,Walk
Fix,GPS,37.4271580903,-122.1565563195,-23.5982844651853,1.4111087,7.2322493,207.22458,1678300238999,0.4765698,25.49777,1735053635498000,8.915753,Walk
Fix,FLP,37.4271544,-122.156557,-14.200000762939451,1.3807861,10.497,214.97186,1678300241815,,,1735053823000000,3.492643,Walk
Fix,FLP,37.4271487,-122.1565624,-14.200000762939451,1.3831089,10.165,215.07457,1678300242331,,,1735054339000000,3.492643,Walk
Fix,GPS,37.4271518482,-122.1565637877,-24.232550400424746,1.3687878,7.205982,216.44923,1678300239999,0.41710377,25.0,1735054635540000,8.860415,Walk
Fix,NLP,37.4269585,-122.1566958,-14.5,,80.156,,1678300243015,,,1735055023000000,4.079856,Walk
Fix,FLP,37.4271424,-122.1565689,-14.5,1.3831052,9.455,215.35048,1678300242877,,,1735054885034388,3.5892756,Walk
Fix,GPS,37.427143487,-122.1565770635,-24.33082793409691,1.3751289,7.180688,220.15582,1678300240999,0.44094503,25.0,1735055635524000,8.8176985,Walk
Fix,FLP,37.4271373,-122.1565743,-14.5,1.3806653,8.446,215.63142,1678300243415,,,1735055423040676,3.5970957,Walk
Fix,FLP,37.4271365,-122.1565768,-14.5,1.3750672,7.988,216.64212,1678300243627,0.44094503,25.0,1735055635524000,3.5970957,Walk
Fix,NLP,37.4267784,-122.1557134,-14.30000114440918,,28.829,,1678300244648,,,1735056656000000,3.2867234,Walk
Fix,FLP,37.4271339,-122.1565818,-14.30000114440918,1.3694605,7.482,217.31447,1678300244648,0.44094503,25.0,1735056656000000,3.4356837,Walk
Fix,GPS,37.4271358148,-122.156590441,-24.500034307727866,1.3801402,7.2020235,220.14726,1678300241999,0.37272954,25.0,1735056635548000,8.704592,Walk
Fix,FLP,37.4271261,-122.1565892,-14.30000114440918,1.3231901,82.843,219.55516,1678300245413,,,1735057421380515,3.4373584,Walk
Fix,GPS,37.4271268877,-122.1566067172,-24.58829665804748,1.4051876,7.184571,222.43503,1678300242999,0.3317906,25.0,1735057635562000,8.596513,Walk
Fix,FLP,37.4271183,-122.1565978,-14.30000114440918,1.236503,13.006,222.85266,1678300246426,,,1735058434103965,3.4433765,Walk
Fix,GPS,37.4271191817,-122.1566216583,-24.243501422892944,1.4119658,7.119519,241.95439,1678300243999,0.30833158,25.0,1735058635588000,8.46799,Walk
Fix,FLP,37.4271111,-122.1566131,-14.30000114440918,1.2261407,12.679,221.52489,1678300247437,,,1735059446835044,3.4423435,Walk
Fix,GPS,37.4271145352,-122.1566425272,-23.305002914228144,1.4497685,6.682607,236.69618,1678300244999,0.5130814,25.0,1735059635696000,8.183163,Walk
Fix,FLP,37.4271061,-122.1566305,-14.30000114440918,1.2380776,12.149,223.83472,1678300248451,,,1735060459570090,3.4528134,Walk
Fix,GPS,37.4271067841,-122.1566610815,-22.38979355462297,1.4746951,6.3944592,236.06581,1678300245999,0.40135047,25.0,1735060635595000,7.953824,Walk
Fix,FLP,37.4271029,-122.1566416,-14.30000114440918,1.2516904,11.798,225.10886,1678300248957,,,1735060965941367,3.470067,Walk
Fix,FLP,37.427099,-122.1566508,-14.30000114440918,1.2496339,11.653,226.51169,1678300249464,,,1735061472297629,3.470067,Walk
Fix,NLP,37.4269421,-122.1571184,-14.200000762939451,,76.856,,1678300249708,,,1735061716000000,11.543365,Walk
Fix,GPS,37.427102745,-122.1566740374,-22.058944315930127,1.4506619,6.148322,254.34564,1678300246999,0.38339952,25.0,1735061635677000,7.7815576,Walk
Fix,FLP,37.4270972,-122.156662,-14.200000762939451,1.239546,11.305,230.59846,1678300249970,,,1735061978680259,5.9113364,Walk
Fix,GPS,37.4271005096,-122.1566897247,-21.88831573559081,1.4439507,5.975741,256.77917,1678300247999,0.41332448,25.0,1735062635859000,7.660962,Walk
Fix,FLP,37.4270943,-122.1566708,-14.200000762939451,1.232748,11.206,232.305,1678300250477,,,1735062485055381,6.55397,Walk
Fix,FLP,37.4270921,-122.1566794,-14.200000762939451,1.2315192,11.089,233.72937,1678300250983,,,1735062991409018,6.55397,Walk
Fix,FLP,37.4270901,-122.1566882,-14.200000762939451,1.2342277,10.713,234.88307,1678300251489,,,1735063497798362,6.55397,Walk
Fix,GPS,37.4270977737,-122.1567061121,-21.47201463257917,1.44311,5.8698697,256.27896,1678300248999,0.40950948,25.0,1735063635635000,7.5484643,Walk
Fix,FLP,37.427089,-122.156699,-14.200000762939451,1.2402139,10.376,236.9667,1678300251996,,,1735064004173361,6.034713,Walk
Fix,FLP,37.4270873,-122.1567074,-14.200000762939451,1.2419101,10.106,238.22029,1678300252501,,,1735064510547141,6.034713,Walk
Fix,GPS,37.4270949139,-122.1567194403,-21.080270579398565,1.4256566,5.772848,248.36284,1678300249999,0.39562967,25.0,1735064635750000,7.44121,Walk
Fix,FLP,37.4270865,-122.1567173,-14.200000762939451,1.2458057,9.857,240.42882,1678300253008,,,1735065016921470,6.0353203,Walk
Fix,FLP,37.4270847,-122.1567264,-14.200000762939451,1.2484941,9.648,241.50288,1678300253514,,,1735065523293784,6.0353203,Walk
Fix,GPS,37.4270909969,-122.156733533,-20.702042875504844,1.4154651,5.6751356,265.98935,1678300250999,0.3489327,25.0,1735065635695000,7.328343,Walk
Fix,FLP,37.4270837,-122.1567368,-14.200000762939451,1.2520931,9.514,243.59843,1678300254021,,,1735066029672385,6.2060776,Walk
Fix,FLP,37.4270823,-122.1567459,-14.200000762939451,1.2525487,9.287,244.88135,1678300254555,,,1735066563145046,6.2060776,Walk
Fix,NLP,37.427007,-122.1569888,-14.200000762939451,,22.5,,1678300254693,,,1735066701000000,1.9195001,Walk
Fix,GPS,37.4270886349,-122.156748081,-20.380456541081887,1.4075158,5.632877,265.6884,1678300251999,0.26674533,25.0,1735066635673000,7.276404,Walk
Fix,FLP,37.4270808,-122.156761,-14.200000762939451,1.2602746,9.183,248.03593,1678300255096,,,1735067105693935,5.1120534,Walk
Fix,FLP,37.4270788,-122.1567727,-14.200000762939451,1.265982,9.119,249.08006,1678300255640,,,1735067648234524,5.1120534,Walk
Fix,GPS,37.4270872577,-122.1567630141,-20.0118693058483,1.4008095,5.6824226,264.43582,1678300252999,0.27663353,25.0,1735067635690000,7.2474623,Walk
Fix,FLP,37.4270771,-122.1567873,-14.200000762939451,1.2742586,9.074,250.92523,1678300256181,,,1735068190778286,4.9483747,Walk
Fix,GPS,37.4270859585,-122.1567774615,-19.86781471821825,1.3923,5.665007,267.46735,1678300253999,0.40561616,25.0,1735068635720000,7.2276263,Walk
Fix,FLP,37.4270762,-122.156796,-14.200000762939451,1.2793108,9.048,251.70583,1678300256725,,,1735068733322658,4.8787227,Walk
Fix,FLP,37.4270753,-122.1568088,-14.200000762939451,1.2865349,9.038,253.1047,1678300257274,,,1735069282000000,4.8787227,Walk
Fix,FLP,37.4270745,-122.1568179,-14.200000762939451,1.2895011,9.048,253.9114,1678300257788,,,1735069797000000,4.8787227,Walk
Fix,GPS,37.4270848799,-122.1567930199,-19.647338665237307,1.3948405,5.7054,268.10962,1678300254999,0.28740025,25.0,1735069635839000,7.2065234,Walk
Fix,GPS,37.4270834372,-122.1568125962,-19.000093981361896,1.4261379,5.6815233,270.1515,1678300255999,0.31557208,25.0,1735070635747000,7.1957808,Walk
Fix,FLP,37.4270732,-122.1568376,-14.200000762939451,1.2965763,9.194,255.788,1678300258860,,,1735070868000000,4.9683847,Walk
Fix,GPS,37.4270822356,-122.156832658,-18.62353462130334,1.4495801,5.594953,260.00427,1678300256999,0.31709152,25.0,1735071635965000,7.129472,Walk
Fix,NLP,37.42701,-122.1569455,-14.100000381469728,,28.738,,1678300259757,,,1735071766000000,2.2130625,Walk
Fix,FLP,37.4270724,-122.1568533,-14.100000381469728,1.3047583,9.426,256.836,1678300259437,,,1735071446057522,4.136871,Walk
Fix,FLP,37.4270713,-122.1568633,-14.100000381469728,1.3162913,9.561,257.09506,1678300259980,,,1735071988602016,4.137311,Walk
Fix,GPS,37.4270773559,-122.1568468666,-18.465890712558053,1.4357105,5.1909385,246.5591,1678300257999,0.044271085,25.0,1735072635964000,6.6779027,Walk
Fix,FLP,37.4270702,-122.1568674,-14.100000381469728,1.3223425,9.621,256.70172,1678300260523,,,1735072531152370,4.0031285,Walk
Fix,FLP,37.4270665,-122.156884,-14.100000381469728,1.3328866,9.803,256.24384,1678300261608,,,1735073616251430,4.0031285,Walk
Fix,GPS,37.4270732937,-122.1568602122,-17.829597291331616,1.4095323,5.12617,246.5591,1678300258999,0.25501952,47.210278,1735073635769000,6.522523,Walk
Fix,GPS,37.427079155,-122.1568687016,-17.951904606878625,1.3636732,4.911559,246.5591,1678300259999,0.03728435,180.0,1735074635780000,6.3715296,Walk
Fix,FLP,37.4270644,-122.1569005,-14.100000381469728,1.3320601,9.947,257.82483,1678300262692,,,1735074701358730,4.096042,Walk
Fix,FLP,37.4270646,-122.1569107,-14.100000381469728,1.3215096,10.038,259.69153,1678300263234,,,1735075243903591,4.096042,Walk
Fix,GPS,37.4270800375,-122.1568762935,-17.871455672224897,1.2948979,4.9825335,246.5591,1678300260999,0.46744674,180.0,1735075635994000,6.3062544,Walk
Fix,FLP,37.4270654,-122.1569153,-14.100000381469728,1.3222975,10.078,260.25366,1678300263778,,,1735075786453578,4.0600924,Walk
Fix,FLP,37.4270649,-122.1569247,-14.100000381469728,1.3134199,10.111,259.0632,1678300264321,,,1735076329001308,4.0600924,Walk
Fix,GPS,37.4270714582,-122.1568798932,-18.01009514022919,1.2630744,4.8421793,201.95694,1678300261999,0.4447326,25.0,1735076635865000,6.2037616,Walk
Fix,NLP,37.4270156,-122.1569855,-14.200000762939451,,46.576,,1678300264755,,,1735076763000000,7.6229277,Walk
Fix,FLP,37.4270645,-122.1569293,-14.200000762939451,1.2680091,10.137,255.2134,1678300264863,,,1735076871544521,4.741619,Walk
Fix,FLP,37.4270619,-122.1569345,-14.200000762939451,1.2199768,10.192,253.14189,1678300265405,,,1735077414102931,4.741619,Walk
Fix,GPS,37.4270591108,-122.1568882077,-17.869932967304468,1.2839048,5.0042453,208.74591,1678300262999,0.35461348,25.0,1735077635866000,6.161358,Walk
Fix,FLP,37.4270562,-122.1569401,-14.200000762939451,1.1273901,10.203,248.45605,1678300265947,,,1735077956655422,4.660662,Walk
Fix,GPS,37.4270459573,-122.1568989255,-17.80246232440012,1.3180827,5.03616,212.60014,1678300263999,0.28684172,25.0,1735078635848000,6.03208,Walk
Fix,FLP,37.4270532,-122.1569394,-14.200000762939451,1.0794456,10.192,245.64198,1678300266491,,,1735078499203518,4.6645207,Walk
Fix,FLP,37.427046,-122.1569407,-14.200000762939451,1.010295,10.154,239.94878,1678300267033,,,1735079041740139,4.6645207,Walk
Fix,GPS,37.4270345262,-122.1569084583,-17.737331993558975,1.3362682,5.082075,216.88036,1678300264999,0.34738162,25.0,1735079636064000,5.9497814,Walk
Fix,FLP,37.4270421,-122.1569402,-14.200000762939451,0.99062437,10.131,237.21468,1678300267576,,,1735079584298977,4.6749306,Walk
Fix,FLP,37.4270331,-122.1569414,-14.200000762939451,0.9672007,10.099,232.0465,1678300268118,,,1735080126842189,4.6749306,Walk
Fix,GPS,37.4270234795,-122.1569124709,-17.31770452041378,1.3344189,4.8050895,216.88815,1678300265999,0.301887,25.0,1735080635865000,5.790978,Walk
Fix,FLP,37.4270289,-122.1569412,-14.200000762939451,0.96839124,10.094,229.95822,1678300268661,,,1735080669387538,4.6902423,Walk
Fix,FLP,37.4270186,-122.1569432,-14.200000762939451,0.9775234,10.026,226.30035,1678300269203,,,1735081211930385,4.6902423,Walk
Fix,GPS,37.427011548,-122.1569220577,-17.19946446349441,1.3531771,4.8501525,209.38869,1678300266999,0.32511663,25.0,1735081635889000,5.7387624,Walk
Fix,FLP,37.4270139,-122.1569437,-14.200000762939451,0.9880196,10.017,224.90164,1678300269745,,,1735081754479397,4.7265835,Walk
Fix,NLP,37.4269637,-122.1569335,-14.200000762939451,,56.1,,1678300269743,,,1735081751000000,5.49611,Walk
Fix,FLP,37.4270031,-122.1569451,-14.200000762939451,1.0176686,10.02,221.48843,1678300270288,,,1735082297019985,4.7265835,Walk
Fix,GPS,37.4269980863,-122.156932634,-17.71671738337088,1.3850019,4.7081933,209.38869,1678300267999,0.47996095,125.518906,1735082635895000,5.6565003,Walk
Fix,FLP,37.4269947,-122.1569446,-14.200000762939451,1.0384915,9.837,219.31345,1678300270795,,,1735082803089321,4.741855,Walk
Fix,FLP,37.4269879,-122.1569464,-14.200000762939451,1.0505393,9.705,218.26575,1678300271373,,,1735083382094143,4.741855,Walk
Fix,GPS,37.4269865173,-122.1569391166,-17.83491770855064,1.3835105,4.9239044,209.38869,1678300268999,0.55748606,110.68996,1735083636036000,5.6784954,Walk
Fix,FLP,37.4269777,-122.1569476,-14.200000762939451,1.0805576,9.249,215.85965,1678300271916,,,1735083924638881,4.763519,Walk
Fix,GPS,37.42697566,-122.1569395764,-18.111776316856545,1.3294889,5.196727,209.38869,1678300269999,0.80178255,180.0,1735084636159000,5.7405562,Walk
Fix,FLP,37.4269735,-122.1569492,-14.200000762939451,1.0917937,9.02,215.19908,1678300272458,,,1735084467188442,4.774039,Walk
Fix,FLP,37.4269716,-122.1569521,-14.200000762939451,1.1028248,9.084,215.72205,1678300272775,,,1735084783702292,4.774039,Walk
Fix,GPS,37.4269663271,-122.1569372171,-18.27545464904826,1.373048,5.5306044,209.38869,1678300270999,0.88900244,40.157837,1735085635933000,5.8286285,Walk
Fix,FLP,37.4269679,-122.1569629,-14.200000762939451,1.1068591,9.343,217.95714,1678300273300,,,1735085308159506,4.7816253,Walk
Fix,FLP,37.4269656,-122.1569649,-14.100000381469728,1.1162839,9.299,218.44565,1678300273806,,,1735085814532310,4.266471,Walk
Fix,NLP,37.426906,-122.1567782,-14.100000381469728,,57.924,,1678300273821,,,1735085829000000,2.7034116,Walk
Fix,FLP,37.4269603,-122.1569703,-14.100000381469728,1.133397,9.199,219.37854,1678300274312,,,1735086320904074,4.266471,Walk
Fix,GPS,37.426959788,-122.1569400689,-18.422780402009625,1.2896116,5.8750243,209.38869,1678300271999,0.8225592,57.67241,1735086635956000,5.927152,Walk
Fix,FLP,37.4269546,-122.1569731,-14.100000381469728,1.1461617,8.86,219.941,1678300274819,,,1735086827277121,4.2599187,Walk
Fix,FLP,37.4269506,-122.1569754,-14.100000381469728,1.1522392,8.715,220.04419,1678300275325,,,1735087333650168,4.2599187,Walk
Fix,GPS,37.4269509793,-122.156946079,-18.62065160959966,1.2749542,6.2239914,209.38869,1678300272999,0.8703831,70.05699,1735087635988000,6.0468616,Walk
Fix,FLP,37.4269445,-122.1569773,-14.100000381469728,1.1616718,8.522,220.14812,1678300275832,,,1735087840023703,4.286241,Walk
Fix,GPS,37.4269384702,-122.1569508201,-18.74768171454434,1.3782604,6.614999,209.38869,1678300273999,1.0787666,87.46524,1735088635982000,6.1717744,Walk
Fix,FLP,37.4269388,-122.1569795,-14.100000381469728,1.1691903,8.374,220.23341,1678300276337,,,1735088346401389,4.295821,Walk
Fix,FLP,37.4269343,-122.1569802,-14.100000381469728,1.1778857,8.313,220.13225,1678300276843,,,1735088852772300,4.295821,Walk
Fix,FLP,37.4269289,-122.1569834,-14.100000381469728,1.186608,8.308,220.08414,1678300277351,,,1735089359147055,4.295821,Walk
Fix,GPS,37.42692771,-122.1569474121,-19.30448314720896,1.3211346,7.0332317,209.38869,1678300274999,1.0727285,180.0,1735089635995000,6.322443,Walk
Fix,FLP,37.4269232,-122.1569847,-14.100000381469728,1.19942,7.992,219.84839,1678300277856,,,1735089865521262,4.306231,Walk
Fix,FLP,37.4269174,-122.1569882,-14.100000381469728,1.2046363,7.649,219.59673,1678300278362,,,1735090371896140,4.306231,Walk
Fix,GPS,37.4269145124,-122.1569453909,-19.421395176649355,1.3667217,7.533247,209.38869,1678300275999,1.327718,25.809343,1735090636006000,6.5206833,Walk
Fix,NLP,37.4270107,-122.156918,-14.100000381469728,,45.6,,1678300278790,,,1735090798000000,4.3285837,Walk
Fix,FLP,37.4269117,-122.1569905,-14.100000381469728,1.2182851,7.04,219.10078,1678300278869,,,1735090878270896,4.206908,Walk
Fix,FLP,37.4269075,-122.1569941,-14.100000381469728,1.2244303,6.95,218.92989,1678300279376,,,1735091384647483,4.206908,Walk
Fix,GPS,37.4269075422,-122.1569538892,-19.280076748483832,1.2582972,7.9399595,209.38869,1678300276999,1.214582,105.22134,1735091636035000,6.7067475,Walk
Fix,FLP,37.4268976,-122.1570018,-14.100000381469728,1.2358191,6.928,218.43979,1678300280388,,,1735092397391623,4.216498,Walk
Fix,GPS,37.4269109483,-122.1569547916,-19.536255402076577,0.9514313,8.323808,209.38869,1678300277999,1.055559,45.692593,1735092636038000,6.9355063,Walk
Fix,FLP,37.4268868,-122.1570097,-14.100000381469728,1.2247576,7.22,217.96808,1678300281402,,,1735093410148521,4.224542,Walk
Fix,GPS,37.4269216961,-122.1569640616,-21.16379202612368,1.0139585,8.551693,352.35077,1678300278999,0.6627232,34.86832,1735093636382000,7.076597,Walk
Fix,FLP,37.4268806,-122.1570144,-14.100000381469728,1.2041293,7.532,217.67117,1678300281908,,,1735093916520835,4.2342124,Walk
Fix,GPS,37.4269299529,-122.15698039,-23.217051612560454,1.225915,8.759182,352.35077,1678300279999,0.87698555,180.0,1735094636065000,7.2745256,Walk
Fix,FLP,37.4268745,-122.1570192,-14.100000381469728,1.1869279,7.89,217.27177,1678300282414,,,1735094422885092,4.2438126,Walk
Fix,FLP,37.4268677,-122.1570254,-14.100000381469728,1.1805832,8.225,216.90262,1678300283020,,,1735095028713100,4.2438126,Walk
Fix,GPS,37.4269324197,-122.1569891104,-23.739963369691488,1.0626533,8.955532,352.35077,1678300280999,1.0884768,32.76711,1735095636083000,7.49989,Walk
Fix,FLP,37.4268649,-122.1570279,-14.100000381469728,1.1829805,8.569,216.71317,1678300283563,,,1735095571242397,4.2542224,Walk
Fix,NLP,37.4269727,-122.1569577,-14.100000381469728,,39.6,,1678300283819,,,1735095827000000,3.0674655,Walk
Fix,FLP,37.4268581,-122.1570351,-14.100000381469728,1.1859365,9.251,216.40912,1678300284105,,,1735096113802089,3.9828026,Walk
Fix,GPS,37.4269273694,-122.1570110928,-25.20334772810435,1.3937347,9.166339,352.35077,1678300281999,1.1431829,102.617004,1735096636184000,7.7487965,Walk
Fix,FLP,37.4268561,-122.1570375,-14.100000381469728,1.1865101,9.487,216.42772,1678300284648,,,1735096656342006,4.004431,Walk
Fix,FLP,37.4268495,-122.1570445,-14.100000381469728,1.1891481,9.921,215.51665,1678300285189,,,1735097198890835,4.004431,Walk
Fix,GPS,37.4269282539,-122.1570239093,-25.91797197601396,1.3857796,9.381905,352.35077,1678300282999,1.4100785,89.35998,1735097636126000,8.005917,Walk
Fix,FLP,37.426847,-122.1570464,-14.100000381469728,1.1903007,10.159,214.38863,1678300285733,,,1735097741436367,4.0131207,Walk
Fix,FLP,37.4268399,-122.1570529,-14.100000381469728,1.1989859,10.506,213.14388,1678300286274,,,1735098283980251,4.0131207,Walk
Fix,GPS,37.4269280229,-122.1570412886,-26.019920126134764,1.3181973,9.695267,352.35077,1678300283999,1.5277078,25.0,1735098636287000,8.274712,Walk
Fix,FLP,37.4268364,-122.1570578,-14.100000381469728,1.2103715,10.913,213.24432,1678300286795,,,1735098803089321,4.0121727,Walk
Fix,FLP,37.426832,-122.1570627,-14.100000381469728,1.2150266,11.27,213.56766,1678300287361,,,1735099369065700,4.0121727,Walk
Fix,GPS,37.426921516,-122.1570484884,-26.462953779461444,1.2087795,10.039881,352.35077,1678300284999,1.423127,180.0,1735099636130000,8.527107,Walk
Fix,FLP,37.4268282,-122.1570687,-14.100000381469728,1.2183812,11.702,214.23047,1678300287903,,,1735099911607448,4.0682836,Walk
Fix,FLP,37.426824,-122.157074,-14.100000381469728,1.2178992,11.947,214.60008,1678300288438,,,1735100446000000,4.0682836,Walk
Fix,GPS,37.4269122897,-122.157058563,-26.4554276287043,1.2110693,10.415556,352.35077,1678300285999,1.6792458,180.0,1735100636153000,8.77832,Walk
Fix,NLP,37.4268544,-122.1571302,-13.800000190734863,,20.743,,1678300288803,,,1735100811000000,2.2295349,Walk
Fix,FLP,37.4268194,-122.1570874,-13.800000190734863,1.2147484,12.526,215.73094,1678300288988,,,1735100996693996,3.6393588,Walk
Fix,GPS,37.426913524,-122.1570657859,-26.913894353189438,1.0308555,10.912729,352.35077,1678300286999,0.7926066,44.116165,1735101636742000,9.100408,Walk
Fix,FLP,37.4268187,-122.1570926,-13.800000190734863,1.2151052,12.721,215.90045,1678300289531,,,1735101539237209,3.7400312,Walk
Fix,FLP,37.4268148,-122.1571046,-13.800000190734863,1.1969185,12.882,217.17795,1678300290073,,,1735102081769557,3.7400312,Walk
Fix,GPS,37.426914044,-122.1570786232,-27.46909877312933,1.0763397,11.505186,352.35077,1678300287999,0.8155227,25.0,1735102636180000,9.461317,Walk
Fix,FLP,37.4268145,-122.1571088,-13.800000190734863,1.176796,12.96,218.51152,1678300290616,,,1735102624314602,3.711666,Walk
Fix,GPS,37.4269172865,-122.1570870968,-27.63423865128615,1.0366968,12.358343,352.35077,1678300288999,1.0270535,180.0,1735103636286000,9.814603,Walk
Fix,FLP,37.4268085,-122.1571226,-13.800000190734863,1.1438575,13.163,221.17061,1678300291701,,,1735103709416164,3.762366,Walk
Fix,FLP,37.4268063,-122.1571347,-13.800000190734863,1.0719601,13.425,226.35783,1678300292242,,,1735104251961452,3.762366,Walk
Fix,GPS,37.4269198024,-122.1571006147,-28.64265273434277,1.0526321,13.516791,352.35077,1678300289999,1.2019075,36.81221,1735104636466000,10.140777,Walk
Fix,FLP,37.4268071,-122.1571396,-13.800000190734863,1.0346141,13.537,229.57677,1678300292786,,,1735104794506557,3.7705314,Walk
Fix,FLP,37.426806,-122.1571538,-13.800000190734863,0.974255,13.678,236.19252,1678300293329,,,1735105337051235,3.7705314,Walk
Fix,GPS,37.4269187563,-122.1571170755,-29.88138890614922,1.1060114,14.938685,352.35077,1678300290999,1.2107394,180.0,1735105636757000,10.451421,Walk
Fix,NLP,37.42668,-122.1570841,-13.90000057220459,,30.179,,1678300294150,,,1735106159000000,2.2996824,Walk
Fix,FLP,37.4268084,-122.1571631,-13.90000057220459,0.9341427,13.816,242.73059,1678300293871,,,1735105879595363,3.6701014,Walk
Fix,FLP,37.4268053,-122.1571658,-13.90000057220459,0.93497366,13.948,242.6305,1678300294414,,,1735106422139065,3.6701014,Walk
Fix,GPS,37.4269193214,-122.1571312249,-30.67629641641123,1.1243858,16.48421,352.35077,1678300291999,1.2955239,180.0,1735106636543000,10.797079,Walk
Fix,FLP,37.4267993,-122.1571746,-18.52928556055562,0.926339,14.123,245.23482,1678300294956,,,1735106964681789,3.6760614,Walk
Fix,GPS,37.4269194081,-122.1571467322,-31.610421862238983,1.1486762,18.116951,352.35077,1678300292999,1.3827425,180.0,1735107636278000,11.143521,Walk
Fix,FLP,37.4267981,-122.15718,-18.52928556055562,0.9213295,14.303,247.79291,1678300295498,,,1735107507223720,3.6760614,Walk
Fix,FLP,37.4267968,-122.1571895,-18.52928556055562,0.9208011,14.404,252.05669,1678300296041,,,1735108049764797,3.6410198,Walk
Fix,GPS,37.4269190611,-122.1571621098,-32.45100644360671,1.1310219,19.884026,352.35077,1678300293999,1.5170753,180.0,1735108636627000,11.5077915,Walk
Fix,FLP,37.4267967,-122.1571937,-11.38538290200399,0.92386925,14.474,254.00206,1678300296584,,,1735108592293117,3.6551955,Walk
Fix,FLP,37.426796,-122.1572039,-11.38538290200399,0.9334183,14.613,257.0689,1678300297126,,,1735109134832607,3.6551955,Walk
Fix,FLP,37.4267954,-122.1572106,-11.38538290200399,0.9412029,14.727,257.94138,1678300297669,,,1735109677380214,3.6551955,Walk
Fix,GPS,37.4269190377,-122.1571757367,-32.95705544396659,1.1326513,21.774532,352.35077,1678300294999,1.6405058,180.0,1735109636355000,11.883877,Walk
Fix,FLP,37.4267942,-122.1572214,-7.419670452734728,0.9567382,14.95,259.12195,1678300298211,,,1735110219915859,3.6652753,Walk
Fix,NLP,37.4268643,-122.155268,,,800.0,,1678300298117,,,1735110125000000,,Walk
Fix,FLP,37.4267929,-122.1572316,-7.419670452734728,0.9716927,15.232,259.92255,1678300298754,,,1735110762450771,3.6652753,Walk
Fix,GPS,37.4269188954,-122.1571895688,-33.519096379850936,1.1358227,23.77986,352.35077,1678300295999,1.7553272,180.0,1735110636300000,12.270295,Walk
Fix,FLP,37.4267911,-122.1572417,-7.419670452734728,0.98584056,15.544,260.4018,1678300299299,,,1735111308000000,3.6737854,Walk
Fix,GPS,37.42691864,-122.1572036168,-34.15432655746226,1.1403478,25.892984,352.35077,1678300296999,1.8631253,180.0,1735111636339000,12.661534,Walk
Fix,FLP,37.4267873,-122.1572567,-2.514319635356188,1.0049155,16.306,260.40457,1678300299839,,,1735111847516872,3.6851254,Walk
Fix,FLP,37.4267856,-122.157263,-2.514319635356188,1.0118382,16.747,260.09457,1678300300382,,,1735112390047939,3.6851254,Walk
Fix,GPS,37.4269182763,-122.1572178903,-34.88254441073264,1.146154,28.108034,352.35077,1678300297999,1.9650505,180.0,1735112636394000,13.050213,Walk
Fix,FLP,37.4267825,-122.1572725,-7.226444888706773,1.0246552,17.18,259.44543,1678300300923,,,1735112932566494,3.6937854,Walk
Fix,FLP,37.4267805,-122.1572794,-7.226444888706773,1.0313954,17.636,259.09848,1678300301467,,,1735113475109707,3.6937854,Walk
Fix,GPS,37.4269178319,-122.1572323181,-35.70495484631736,1.1526285,30.420002,352.35077,1678300298999,2.0619683,180.0,1735113636410000,13.428625,Walk
Fix,FLP,37.426777,-122.1572893,-7.226444888706773,1.0436685,18.087,258.46744,1678300302009,,,1735114017620998,3.7047555,Walk
Fix,FLP,37.4267747,-122.1572963,-7.226444888706773,1.0499563,18.549,258.2339,1678300302551,,,1735114560161587,3.7047555,Walk
Fix,GPS,37.4269175919,-122.157245947,-36.34714520119104,1.1532496,32.824554,352.35077,1678300299999,2.1545506,180.0,1735114636473000,13.789777,Walk
Fix,FLP,37.4267707,-122.1573065,-7.226444888706773,1.0611883,19.156,257.74994,1678300303094,,,1735115102688015,3.7137554,Walk
Fix,FLP,37.4267683,-122.1573135,-7.226444888706773,1.0666729,19.636,257.6684,1678300303637,,,1735115645212673,3.7137554,Walk
Fix,NLP,37.4261297,-122.1568548,-13.600000381469728,,75.55,,1678300304045,,,1735116053000000,46.59154,Walk
Fix,FLP,37.4267642,-122.1573221,-6.414039876751716,1.0761595,20.125,257.56348,1678300304179,,,1735116187724147,3.6649318,Walk
Fix,FLP,37.4267616,-122.1573291,-6.414039876751716,1.08073,20.629,257.63446,1678300304717,,,1735116725000000,3.6649318,Walk
Fix,FLP,37.4267581,-122.1573369,-4.374589661243597,1.0857108,21.004,257.40268,1678300305241,,,1735117249000000,3.6766317,Walk
Fix,FLP,37.4267536,-122.1573496,-4.374589661243597,1.0905691,21.757,256.99283,1678300305794,,,1735117803089321,3.6766317,Walk
Fix,FLP,37.426749,-122.1573565,-3.2891445192810664,1.0949699,22.292,256.17807,1678300306349,,,1735118357827297,3.6906219,Walk
Fix,FLP,37.4267433,-122.1573637,-3.2891445192810664,1.0981796,22.624,255.13565,1678300306891,,,1735118900347317,3.6906219,Walk
Fix,FLP,37.4267376,-122.1573714,-6.396334041399548,1.1009922,23.324,254.06516,1678300307433,,,1735119442867397,3.703657,Walk
Fix,FLP,37.4267313,-122.1573772,-6.396334041399548,1.1014049,23.44,252.7975,1678300307977,,,1735119985386135,3.703657,Walk
Fix,FLP,37.4267251,-122.1573837,-6.396334041399548,1.101226,23.778,251.51753,1678300308519,,,1735120527896877,3.703657,Walk
Fix,NLP,37.4262792,-122.1566524,-13.700000762939451,,55.163,,1678300309003,,,1735121011000000,4.997051,Walk
Fix,FLP,37.4267145,-122.1573909,-10.126892985404602,1.1004281,24.285,249.09554,1678300309061,,,1735121070421108,3.6171236,Walk
Fix,FLP,37.4267082,-122.1573971,-10.126892985404602,1.0998673,24.559,247.88513,1678300309603,,,1735121612937221,3.6171236,Walk
Fix,FLP,37.4267009,-122.1574038,-9.029037448453336,1.0990409,24.709,246.60385,1678300310147,,,1735122155452602,3.625892,Walk
Fix,FLP,37.4266941,-122.1574101,-9.029037448453336,1.1001048,24.904,245.44597,1678300310662,,,1735122670000000,3.625892,Walk
Fix,FLP,37.426686,-122.157417,-9.029037448453336,1.1018518,24.902,244.26521,1678300311197,,,1735123206000000,3.625892,Walk
Fix,FLP,37.4266717,-122.1574284,-5.982006906608078,1.1057657,25.064,242.14253,1678300311773,,,1735123782992824,3.63898,Walk
Fix,FLP,37.4266639,-122.1574342,-5.982006906608078,1.1087198,25.125,241.13243,1678300312317,,,1735124325504543,3.63898,Walk
Fix,FLP,37.4266551,-122.1574402,-4.6119015232733815,1.1110007,25.066,240.02007,1678300312859,,,1735124868012294,3.653892,Walk
Fix,FLP,37.4266469,-122.1574456,-4.6119015232733815,1.1123991,25.07,238.89719,1678300313402,,,1735125410525539,3.653892,Walk
Fix,FLP,37.4266378,-122.1574513,-5.982006906608078,1.111657,24.951,237.60477,1678300313945,,,1735125953034817,3.663902,Walk
Fix,FLP,37.4266294,-122.1574563,-5.982006906608078,1.1096584,24.928,236.27147,1678300314486,,,1735126495533412,3.663902,Walk
Fix,FLP,37.42662,-122.1574617,-6.909282359585369,1.1056849,24.809,234.77597,1678300315029,,,1735127038050808,3.673912,Walk
Fix,FLP,37.4266111,-122.1574667,-6.909282359585369,1.102537,24.708,233.33603,1678300315572,,,1735127580545925,3.673912,Walk
Fix,FLP,37.4266022,-122.1574704,-8.515711990427675,1.1001307,24.703,231.8981,1678300316118,,,1735128127000000,3.683932,Walk
Fix,FLP,37.4265854,-122.1574784,-8.515711990427675,1.0976396,24.714,229.30939,1678300316657,,,1735128665569179,3.683932,Walk
Fix,FLP,37.4265768,-122.1574817,0.1214263604924212,1.0955597,24.669,227.91722,1678300317200,,,1735129208071681,3.6989121,Walk
Fix,FLP,37.4265682,-122.1574853,0.1214263604924212,1.0938953,24.738,226.55937,1678300317742,,,1735129750566982,3.6989121,Walk
Fix,FLP,37.4265595,-122.1574881,0.1214263604924212,1.0927564,24.856,225.18964,1678300318284,,,1735130293070339,3.6989121,Walk
Fix,FLP,37.4265505,-122.1574914,-8.894513790783328,1.0919551,24.97,223.84789,1678300318795,,,1735130803089321,3.713902,Walk
Fix,NLP,37.4265645,-122.1577522,-13.700000762939451,,64.167,,1678300319270,,,1735131278000000,2.6308856,Walk
Fix,FLP,37.4265377,-122.1574932,-10.572366242140788,1.0917764,25.176,221.47975,1678300319369,,,1735131378086269,3.6028886,Walk
Fix,FLP,37.4265287,-122.1574962,-10.572366242140788,1.0921212,25.241,220.2568,1678300319912,,,1735131920587490,3.6028886,Walk
Fix,FLP,37.4265195,-122.1574994,2.667344014550622,1.0913899,25.407,218.93768,1678300320455,,,1735132463088406,3.6210601,Walk
Fix,FLP,37.4265108,-122.1575015,2.667344014550622,1.0905104,25.415,217.54984,1678300320997,,,1735133005588711,3.6210601,Walk
Fix,FLP,37.426502,-122.157504,2.667344014550622,1.0911487,25.526,216.30916,1678300321540,,,1735133548078517,3.6210601,Walk
Fix,FLP,37.4264926,-122.1575068,-9.262678713329109,1.0934222,25.603,215.17952,1678300322082,,,1735134090587429,3.6343565,Walk
Fix,FLP,37.4264837,-122.1575094,-9.262678713329109,1.0965455,25.663,214.18431,1678300322592,,,1735134600000000,3.6343565,Walk
Fix,FLP,37.4264745,-122.1575122,-9.262678713329109,1.0997021,25.742,213.20868,1678300323118,,,1735135126000000,3.64606,Walk
Fix,FLP,37.4264652,-122.1575152,-9.262678713329109,1.1032465,25.851,212.3176,1678300323660,,,1735135669000000,3.64606,Walk
Fix,NLP,37.4263832,-122.1575742,-13.700000762939451,,84.243,,1678300324493,,,1735136502000000,8.255107,Walk
Fix,FLP,37.42645,-122.1575189,0.1487650786791405,1.1093248,25.952,210.68506,1678300324252,,,1735136260578335,3.659291,Walk
Fix,FLP,37.4264374,-122.1575215,0.1487650786791405,1.1151717,26.147,209.35612,1678300324794,,,1735136803074734,3.659291,Walk
Fix,FLP,37.426429,-122.157524,1.7350684002105865,1.1183294,26.223,208.7021,1678300325337,,,1735137345561184,3.662681,Walk
Fix,FLP,37.4264211,-122.1575258,1.7350684002105865,1.1209131,26.415,207.9683,1678300325880,,,1735137888063808,3.662681,Walk
Fix,FLP,37.426413,-122.1575279,1.7350684002105865,1.1230315,26.578,207.1834,1678300326422,,,1735138430561489,3.672691,Walk
Fix,FLP,37.4264046,-122.1575303,1.7350684002105865,1.1259052,26.783,206.48175,1678300326965,,,1735138973056301,3.672691,Walk
Fix,FLP,37.4263965,-122.1575327,-1.7743487139263507,1.129935,26.993,206.02895,1678300327507,,,1735139515550685,3.68325,Walk
Fix,FLP,37.4263884,-122.1575354,-1.7743487139263507,1.1342816,27.117,205.69434,1678300328050,,,1735140058048854,3.68325,Walk
Fix,FLP,37.4263804,-122.157538,-1.7743487139263507,1.1381309,27.356,205.30867,1678300328598,,,1735140606000000,3.68325,Walk
Fix,FLP,37.4263721,-122.1575409,-7.294226086866324,1.1413513,27.699,204.85236,1678300329121,,,1735141130000000,3.69822,Walk
Fix,NLP,37.4265717,-122.1577454,-13.700000762939451,,76.188,,1678300329305,,,1735141313000000,1.7071638,Walk
Fix,FLP,37.4263549,-122.157546,-9.336006350342425,1.1481944,28.352,203.7607,1678300329677,,,1735141685523159,3.5872726,Walk
Fix,FLP,37.4263477,-122.1575485,-9.336006350342425,1.1502773,28.622,203.3995,1678300330220,,,1735142228012478,3.5992625,Walk
Fix,FLP,37.4263403,-122.1575512,-9.336006350342425,1.1525601,28.91,203.09355,1678300330761,,,1735142770507351,3.5992625,Walk
Fix,FLP,37.426333,-122.1575536,0.8018829657428768,1.1545169,29.183,202.71063,1678300331303,,,1735143312998744,3.6092725,Walk
Fix,GPS,37.4262478851,-122.1573772303,-38.00695124026673,1.2037129,16.03177,247.04477,1678300328999,0.4935966,75.91012,1735143636834000,15.281666,Walk
Fix,FLP,37.426317,-122.1575444,0.8018829657428768,1.1622233,28.861,201.2228,1678300331847,,,1735143855489773,3.6121256,Walk
Fix,FLP,37.4263042,-122.1575372,0.8018829657428768,1.1689053,28.467,200.3914,1678300332388,,,1735144397977199,3.6121256,Walk
Fix,GPS,37.4262338547,-122.157366603,-35.5840922337206,1.3357108,13.720337,247.04477,1678300329999,0.60960054,33.914135,1735144636873000,14.414652,Walk
Fix,FLP,37.4262809,-122.1575117,-10.841358021554647,1.1898451,27.126,198.60672,1678300332932,,,1735144940470607,3.6659942,Walk
Fix,FLP,37.4262654,-122.1574995,-10.841358021554647,1.2030382,26.028,197.63907,1678300333474,,,1735145482942287,3.6659942,Walk
Fix,GPS,37.4262271215,-122.157357258,-33.521021960223166,1.2189295,12.621371,247.04477,1678300330999,0.66792816,99.275795,1735145637209000,13.776196,Walk
Fix,FLP,37.4262435,-122.1574749,-8.770102788428666,1.2204919,24.456,195.803,1678300334017,,,1735146025450588,3.637616,Walk
Fix,NLP,37.4259005,-122.1566667,-13.700000762939451,,70.01,,1678300334360,,,1735146369000000,7.7027416,Walk
Fix,GPS,37.4262205968,-122.1573551083,-33.35796226041104,1.0984607,11.864875,194.9143,1678300331999,0.67966866,36.994858,1735146636902000,13.236886,Walk
Fix,FLP,37.4262259,-122.1574573,-9.769384981506334,1.227788,21.739,194.0326,1678300334558,,,1735146567937221,3.6402245,Walk
Fix,FLP,37.4262139,-122.1574473,-9.769384981506334,1.2264428,21.01,192.66591,1678300335097,,,1735147105000000,3.6402245,Walk
Fix,GPS,37.4262098069,-122.1573621169,-33.55754629310345,1.1699784,11.213696,197.11751,1678300332999,0.73631275,25.88829,1735147637067000,12.784672,Walk
Fix,FLP,37.4262,-122.1574341,-8.232990372344474,1.2194117,18.476,190.28099,1678300335644,,,1735147652907802,3.603325,Walk
Fix,FLP,37.4261831,-122.1574231,-8.232990372344474,1.2148113,15.781,187.94217,1678300336187,,,1735148195407925,3.603325,Walk
Fix,GPS,37.4261945945,-122.1573693298,-33.469138539103625,1.3231446,10.730726,198.85213,1678300333999,0.6898611,25.0,1735148636900000,12.369402,Walk
Fix,FLP,37.4261793,-122.1574182,-1.9353054937440248,1.2151154,14.409,186.8679,1678300336729,,,1735148737896389,3.646122,Walk
Fix,FLP,37.4261632,-122.1574085,-1.9353054937440248,1.2206893,13.295,184.92154,1678300337271,,,1735149280384975,3.646122,Walk
Fix,GPS,37.426173649,-122.1573723993,-33.743929880842,1.5169476,10.546074,211.99457,1678300334999,0.820694,25.0,1735149636882000,12.142798,Walk
Fix,FLP,37.4261533,-122.1573999,-1.3547331396413185,1.2382318,11.258,183.52681,1678300337795,,,1735149803089321,3.6520097,Walk
Fix,FLP,37.4261454,-122.1573959,-1.3547331396413185,1.2508068,11.068,182.76555,1678300338357,,,1735150365361294,3.6520097,Walk
Fix,GPS,37.4261553958,-122.157382776,-34.54384629704816,1.6419063,10.392572,197.7019,1678300335999,0.8141326,25.0,1735150637106000,11.950057,Walk
Fix,FLP,37.4261393,-122.1573928,-1.3547331396413185,1.2719616,10.516,182.6496,1678300338899,,,1735150907834804,3.6306477,Walk
Fix,NLP,37.4261424,-122.156726,-13.700000762939451,,59.193,,1678300339464,,,1735151472000000,8.376792,Walk
Fix,FLP,37.4261362,-122.1573921,-5.544386598975976,1.2840065,10.763,182.6478,1678300339442,,,1735151450336330,3.570323,Walk
Fix,GPS,37.4261398179,-122.1573848724,-35.170049795496425,1.6657559,10.288715,188.20615,1678300336999,0.7260383,25.0,1735151636963000,11.743873,Walk
Fix,FLP,37.4261303,-122.1573904,-1.3547331396413185,1.3182253,11.658,182.72733,1678300339984,,,1735151992823696,3.614153,Walk
Fix,FLP,37.4261244,-122.15739,-1.3547331396413185,1.3306451,12.011,182.54646,1678300340527,,,1735152535311000,3.614153,Walk
Fix,GPS,37.4261301231,-122.157385369,-35.15138149057341,1.5959659,10.1797905,173.51546,1678300337999,0.8748859,28.922487,1735152637060000,11.588634,Walk
Fix,FLP,37.4261183,-122.1573887,-1.3547331396413185,1.3495333,12.543,181.8494,1678300341069,,,1735153077797817,3.5853539,Walk
Fix,FLP,37.4261125,-122.1573876,-1.3547331396413185,1.3567743,12.815,181.1831,1678300341599,,,1735153607000000,3.5853539,Walk
Fix,GPS,37.4261210143,-122.1573764658,-35.174675556854304,1.5550467,10.071152,149.84029,1678300338999,0.846696,34.414783,1735153636965000,11.435502,Walk
Fix,FLP,37.4261026,-122.1573833,-9.939797330320758,1.3653344,13.851,178.55977,1678300342154,,,1735154162763210,3.589896,Walk
Fix,GPS,37.4261129623,-122.1573636827,-34.872738015180595,1.5336429,9.986888,132.92264,1678300339999,0.8594193,33.31732,1735154636993000,11.279842,Walk
Fix,FLP,37.4261023,-122.1573807,-4.850218671585381,1.3622735,14.632,177.15833,1678300342697,,,1735154705255885,3.645638,Walk
Fix,FLP,37.4260929,-122.1573736,-4.850218671585381,1.348034,15.241,174.05379,1678300343239,,,1735155247740139,3.645638,Walk
Fix,GPS,37.4261049206,-122.1573540119,-34.1420431521902,1.495003,9.650578,143.731,1678300340999,0.683404,32.48391,1735155637459000,10.993512,Walk
Fix,FLP,37.4260924,-122.1573696,-4.850218671585381,1.3403355,16.237,172.4377,1678300343781,,,1735155790229213,3.6174629,Walk
Fix,FLP,37.426084,-122.1573607,-4.850218671585381,1.3320131,16.206,169.51929,1678300344324,,,1735156332715054,3.6174629,Walk
Fix,NLP,37.4260783,-122.1567436,-13.700000762939451,,104.448,,1678300344696,,,1735156704000000,4.352677,Walk
Fix,GPS,37.4260977987,-122.1573479054,-34.126278559269025,1.4396117,9.503355,153.46523,1678300341999,0.8916099,27.318584,1735156637019000,10.819965,Walk
Fix,FLP,37.4260815,-122.1573536,-4.850218671585381,1.3332376,16.115,166.54135,1678300344867,,,1735156875200344,3.5988047,Walk
Fix,FLP,37.4260767,-122.1573503,-4.850218671585381,1.3357928,16.079,165.83803,1678300345408,,,1735157417685513,3.5988047,Walk
Fix,GPS,37.4260914183,-122.1573449314,-33.94130725840155,1.3745806,9.3754015,134.88942,1678300342999,0.8779284,32.001007,1735157637046000,10.664034,Walk
Fix,FLP,37.4260739,-122.157344,-4.850218671585381,1.3367718,15.686,164.43713,1678300345952,,,1735157960171291,3.5702775,Walk
Fix,FLP,37.4260697,-122.1573391,-4.850218671585381,1.3361672,15.388,163.6018,1678300346494,,,1735158502655177,3.5702775,Walk
Fix,GPS,37.4260852791,-122.1573343067,-34.15971226701046,1.3520225,9.4495945,132.59222,1678300343999,0.93038964,29.401697,1735158637033000,10.579321,Walk
Fix,FLP,37.4260666,-122.1573315,-4.780393960952125,1.3339173,14.67,162.05203,1678300347037,,,1735159045139797,3.575197,Walk
Fix,FLP,37.426062,-122.157326,-4.780393960952125,1.333538,14.264,161.29063,1678300347538,,,1735159547000000,3.575197,Walk
Fix,GPS,37.4260747616,-122.1573132575,-33.92660898105956,1.4147918,9.36809,133.03786,1678300344999,0.6316049,25.0,1735159637079000,10.437603,Walk
Fix,FLP,37.4260551,-122.157315,-5.712860451457601,1.3328704,12.951,159.26776,1678300348121,,,1735160130108364,3.5851371,Walk
Fix,GPS,37.426067178,-122.1573012837,-33.75940353692918,1.4082634,9.434645,145.7799,1678300345999,0.8488472,25.0,1735160637302000,10.370355,Walk
Fix,FLP,37.4260534,-122.1573116,-7.261853045098057,1.336518,12.428,158.63538,1678300348664,,,1735160672581020,3.6388116,Walk
Fix,FLP,37.4260449,-122.1573016,-7.261853045098057,1.3414146,11.352,157.40741,1678300349207,,,1735161215076564,3.6388116,Walk
Fix,FLP,37.4260419,-122.1572974,-7.261853045098057,1.345703,10.304,156.86662,1678300349749,,,1735161757548794,3.53221,Walk
Fix,GPS,37.4260578388,-122.1572884959,-33.59584299829227,1.4177738,9.489884,137.91647,1678300346999,0.8641413,25.0,1735161637135000,10.3102665,Walk
Fix,NLP,37.4260381,-122.1565615,-13.700000762939451,,60.755,,1678300349698,,,1735161706000000,4.645801,Walk
Fix,FLP,37.4260324,-122.1572858,-7.050413566877545,1.353893,9.549,155.36913,1678300350292,,,1735162300044094,3.5401025,Walk
Fix,GPS,37.4260482675,-122.1572749188,-33.498183707238,1.4349004,9.565188,131.3233,1678300347999,0.9376296,25.0,1735162637372000,10.259686,Walk
Fix,FLP,37.4260297,-122.1572822,-7.050413566877545,1.3580986,8.671,154.8378,1678300350795,,,1735162803089321,3.5937545,Walk
Fix,FLP,37.4260202,-122.1572718,-7.050413566877545,1.3645618,8.459,153.8602,1678300351377,,,1735163385014064,3.5937545,Walk
Fix,GPS,37.4260400812,-122.1572596633,-33.80751655502641,1.4500964,9.592476,128.06573,1678300348999,0.6325458,25.0,1735163637504000,10.1838665,Walk
Fix,FLP,37.4260148,-122.1572635,-11.333307686183597,1.3717958,8.095,153.08607,1678300351919,,,1735163927494533,3.6035545,Walk
Fix,FLP,37.4260091,-122.1572573,-11.333307686183597,1.3767375,8.045,152.82515,1678300352461,,,1735164469977627,3.6035545,Walk
Fix,GPS,37.4260317326,-122.1572444645,-33.923380325404224,1.4614801,9.629243,136.52846,1678300349999,0.86685514,26.169344,1735164637093000,10.135553,Walk
Fix,FLP,37.4260033,-122.1572489,-11.478290100191463,1.3847779,7.912,152.39818,1678300352997,,,1735165006000000,3.486415,Walk
Fix,GPS,37.4260225305,-122.1572293745,-33.69578046468303,1.474349,9.672739,130.16971,1678300350999,0.90118027,26.479696,1735165637150000,10.089486,Walk
Fix,FLP,37.4259971,-122.1572409,-10.723548765624876,1.3913226,7.846,152.04422,1678300353546,,,1735165554944241,3.5801625,Walk
Fix,NLP,37.4259959,-122.1565769,-13.600000381469728,,21.029,,1678300354268,,,1735166276000000,9.285541,Walk
Fix,FLP,37.4259909,-122.1572322,-10.868531179632749,1.3975357,7.801,151.4386,1678300354089,,,1735166097427455,3.568898,Walk
Fix,GPS,37.4260137446,-122.1572117157,-33.557233411823326,1.4973121,9.757674,117.21203,1678300351999,0.96743256,27.19556,1735166637224000,10.051039,Walk
Fix,FLP,37.4259874,-122.1572256,-10.723548765624876,1.401278,7.79,150.96529,1678300354631,,,1735166639910549,3.6581771,Walk
Fix,FLP,37.4259792,-122.1572153,-10.723548765624876,1.4032753,7.792,150.11157,1678300355174,,,1735167182393642,3.6581771,Walk
Fix,GPS,37.426007,-122.1571961508,-33.27603629613631,1.502538,9.818432,117.21699,1678300352999,0.88365513,25.0,1735167637228000,10.010927,Walk
Fix,FLP,37.4259767,-122.1572111,-6.594433850205554,1.4077787,7.854,149.54414,1678300355716,,,1735167724876552,3.4707646,Walk
Fix,FLP,37.4259688,-122.1572001,-6.594433850205554,1.4148779,7.961,148.51387,1678300356258,,,1735168267360439,3.4707646,Walk
Fix,GPS,37.4259965017,-122.1571725974,-32.57822084173826,1.5658925,9.413953,117.21699,1678300353999,0.8813435,53.77211,1735168637549000,9.825348,Walk
Fix,FLP,37.4259667,-122.1571919,-6.138625158324395,1.4088424,8.463,146.69627,1678300356795,,,1735168803089321,3.4732018,Walk
Fix,FLP,37.4259655,-122.1571841,-6.138625158324395,1.3981829,8.844,145.1174,1678300357344,,,1735169352315578,3.4732018,Walk
Fix,GPS,37.4259901774,-122.1571525963,-31.61947317911992,1.5929654,9.216984,103.19126,1678300354999,0.9085296,25.0,1735169637254000,9.704834,Walk
Fix,FLP,37.4259669,-122.1571739,-3.785582180197977,1.3749398,9.655,141.79893,1678300357886,,,1735169894810757,3.558617,Walk
Fix,GPS,37.4259891071,-122.1571467876,-31.38978294849635,1.5052037,9.143323,97.447945,1678300355999,0.8223532,42.822987,1735170637258000,9.609578,Walk
Fix,FLP,37.425967,-122.1571609,-4.188378674136366,1.3501209,10.64,138.05705,1678300358429,,,1735170437293910,3.635325,Walk
Fix,FLP,37.425968,-122.157149,-4.188378674136366,1.3243848,11.399,134.33165,1678300358971,,,1735170979777004,3.635325,Walk
Fix,GPS,37.4259822531,-122.1571280151,-30.58419087203083,1.5219539,8.952534,118.87771,1678300356999,0.8080882,32.663303,1735171637260000,9.486237,Walk
Fix,FLP,37.4259691,-122.1571439,-7.283412100008498,1.3132274,12.053,132.53952,1678300359514,,,1735171522251308,3.5066464,Walk
Fix,FLP,37.4259688,-122.1571321,-7.283412100008498,1.3097929,12.55,130.10387,1678300360056,,,1735172064741909,3.5066464,Walk
Fix,GPS,37.4259755938,-122.1571148671,-29.709328022572485,1.4987905,8.799461,118.87771,1678300357999,0.7559347,140.56233,1735172637297000,9.373281,Walk
Fix,FLP,37.4259685,-122.1571263,-7.6162463801816,1.3153636,13.201,129.28586,1678300360599,,,1735172607214687,3.5114415,Walk
Fix,FLP,37.4259666,-122.1571152,-7.6162463801816,1.3243635,13.565,127.909,1678300361140,,,1735173149708645,3.5114415,Walk
Fix,GPS,37.4259731967,-122.1570997814,-29.05913648164972,1.4779341,8.744522,90.94761,1678300358999,0.6363781,28.713938,1735173637621000,9.261367,Walk
Fix,FLP,37.4259644,-122.157108,-7.6162463801816,1.3285308,14.213,127.23242,1678300361684,,,1735173692179836,3.5114415,Walk
Fix,FLP,37.4259641,-122.1570979,-7.283412100008498,1.3183154,14.059,124.66275,1678300362226,,,1735174234674465,3.5267158,Walk
Fix,GPS,37.4259715549,-122.1570861615,-29.251668037401345,1.4545652,8.83811,104.33893,1678300359999,0.90016925,25.0,1735174637318000,9.249182,Walk
Fix,FLP,37.4259652,-122.1570924,-7.6162463801816,1.3084285,14.03,122.80216,1678300362768,,,1735174777156887,3.5766919,Walk
Fix,FLP,37.4259672,-122.1570814,-7.6162463801816,1.2933512,13.771,119.37082,1678300363314,,,1735175322000000,3.5766919,Walk
Fix,GPS,37.4259667952,-122.1570742878,-29.14036211640776,1.4279764,8.875483,103.78965,1678300360999,1.1003983,34.490025,1735175637403000,9.246521,Walk
Fix,FLP,37.4259676,-122.1570727,-3.3111516311315654,1.2879635,13.558,117.654366,1678300363853,,,1735175861000000,3.5867019,Walk
Fix,FLP,37.4259703,-122.157056,-3.3111516311315654,1.2775822,13.2,113.30892,1678300364396,,,1735176404602260,3.5467165,Walk
Fix,GPS,37.4259640117,-122.1570616963,-29.20956740866341,1.4001163,9.003688,109.35388,1678300361999,1.1540728,38.385036,1735176637658000,9.2448015,Walk
Fix,FLP,37.425972,-122.1570473,-8.223711029060901,1.2756246,12.808,111.08735,1678300364939,,,1735176947085048,3.5565364,Walk
Fix,FLP,37.4259717,-122.1570392,-8.223711029060901,1.2763482,12.426,110.04028,1678300365481,,,1735177489569789,3.5565364,Walk
Fix,GPS,37.4259580924,-122.1570436992,-29.36949310973564,1.4217519,9.025929,103.51869,1678300362999,1.0793582,25.0,1735177637326000,9.2402525,Walk
Fix,FLP,37.4259712,-122.1570292,-6.638951028760936,1.2800992,11.895,108.29116,1678300366024,,,1735178032048550,3.5614417,Walk
Fix,FLP,37.4259702,-122.1570206,-6.638951028760936,1.283407,11.45,107.3736,1678300366566,,,1735178574530178,3.5614417,Walk
Fix,GPS,37.4259557072,-122.1570245521,-29.55837843021771,1.442343,9.03139,105.47881,1678300363999,1.0797926,26.435312,1735178637688000,9.245929,Walk
Fix,FLP,37.4259684,-122.15701,-5.691898675237965,1.2911711,10.925,105.90724,1678300367108,,,1735179116998073,3.5769057,Walk
Fix,FLP,37.425967,-122.1570013,-5.691898675237965,1.2970244,10.456,105.315956,1678300367651,,,1735179659492886,3.5769057,Walk
