Fix,Provider,LatitudeDegrees,LongitudeDegrees,AltitudeMeters,SpeedMps,AccuracyMeters,BearingDegrees,UnixTimeMillis,SpeedAccuracyMps,BearingAccuracyDegrees,elapsedRealtimeNanos,VerticalAccuracyMeters,TransitType
Fix,FLP,37.3882203,-122.085602,-3.776008531212732,2.0197148,38.521,91.40775,1676151478926,,,186671620000000,0.9856454,Walk
Fix,NLP,37.3884259,-122.0856351,-1.5000001192092896,,20.845,,1676151480289,,,186672982000000,1.0,Walk
Fix,FLP,37.3883876,-122.0855907,-4.391014679556164,2.000935,31.374,79.043144,1676151480289,,,186672982000000,0.98347664,Walk
Fix,GPS,37.3883928856,-122.0857041278,5.03716441210021,0.0,25.418425,,1676151479292,1.0236437,,186673803659422,92.68374,Walk
Fix,FLP,37.3884017,-122.0855902,-4.4221983380806975,1.9325354,31.199,76.43395,1676151481110,,,186673803659422,0.98827666,Walk
Fix,FLP,37.3884087,-122.0856166,-4.4221983380806975,0.35942155,32.135,47.887917,1676151481672,,,186674365899659,0.98827666,Walk
Fix,GPS,37.3883972375,-122.0857653072,33.7009920366732,0.0,26.297369,,1676151480300,0.8289837,,186674842925373,34.455757,Walk
Fix,FLP,37.3884115,-122.0856234,-4.391014679556164,0.23631428,32.166,46.94108,1676151482215,,,186674908424989,0.99533105,Walk
Fix,FLP,37.3884196,-122.0856443,-4.391014679556164,0.14073029,31.458,42.715305,1676151482757,,,186675450954530,0.99533105,Walk
Fix,GPS,37.3885442935,-122.0857292485,11.360924905929114,0.0,10.278275,,1676151481299,0.5283477,,186675884194823,19.15354,Walk
Fix,FLP,37.3884287,-122.0856681,-4.467695600721342,0.0990733,29.2,,1676151483300,,,186675993476320,1.0090767,Walk
Fix,FLP,37.3884333,-122.0856794,-4.467695600721342,0.072331764,27.818,,1676151483843,,,186676536008363,1.0090767,Walk
Fix,GPS,37.3885422479,-122.085726824,2.824052832162579,0.0,5.8611064,,1676151482298,0.414833,,186676887688924,11.027146,Walk
Fix,FLP,37.3884438,-122.0856961,-4.536196635387903,0.043083463,25.197,,1676151484385,,,186677078538087,1.0228434,Walk
Fix,FLP,37.3884493,-122.0857028,-4.536196635387903,0.030310174,24.712,,1676151484928,,,186677621075257,1.0228434,Walk
Fix,GPS,37.3885457226,-122.0857360671,-0.0202219168173849,0.0,6.121951,,1676151483300,0.48008966,,186677890305054,12.86231,Walk
Fix,FLP,37.38846,-122.0857137,-4.4428863967548295,0.014163741,23.741,,1676151485470,,,186678163599793,1.0301821,Walk
Fix,NLP,37.3883558,-122.0856565,-0.5000001192092896,,11.487,,1676151485392,,,186678085000000,1.0,Walk
Fix,FLP,37.3884544,-122.0857224,-4.50473941288319,0.0068307337,22.373,,1676151486013,,,186678706137330,0.98256665,Walk
Fix,GPS,37.3885481293,-122.0857541569,1.0846267936012008,0.0,12.631657,,1676151484290,0.52531236,,186678925919027,26.540388,Walk
Fix,FLP,37.3884461,-122.08573,-4.787928434409842,0.010579834,18.46,,1676151486554,,,186679248671449,0.98536336,Walk
Fix,FLP,37.388444,-122.0857343,-4.787928434409842,0.014656811,17.038,,1676151487098,,,186679791208558,0.98536336,Walk
Fix,GPS,37.3885389374,-122.0857651292,3.005704374295701,0.0,20.477879,,1676151485292,0.6486358,,186679939270794,29.555054,Walk
Fix,FLP,37.3884421,-122.0857435,-4.696940938412979,0.024119213,13.672,,1676151487640,,,186680333738038,0.9985667,Walk
Fix,GPS,37.388513074,-122.0857981235,4.057870661047913,0.0,4.9266405,,1676151486287,0.77788025,,186680919631756,8.221588,Walk
Fix,FLP,37.3884418,-122.0857484,-5.3997683511638,0.029156711,12.912,,1676151488183,,,186680876281556,1.0088466,Walk
Fix,FLP,37.3884447,-122.085758,-5.3997683511638,0.038227558,11.425,,1676151489262,,,186681955000000,1.0088466,Walk
Fix,GPS,37.3885092094,-122.0858145177,3.83401631029608,0.0,15.630723,,1676151487290,0.71522015,,186681935978558,30.870913,Walk
Fix,FLP,37.3884518,-122.0857694,-1.5000001192092896,0.046232805,10.61,,1676151489809,,,186682503881654,1.0153514,Walk
Fix,GPS,37.3885425643,-122.0858350529,0.8489286683135908,0.85361296,16.272556,280.00888,1676151488290,0.39882994,29.023754,186682897777306,28.789625,Walk
Fix,NLP,37.3883985,-122.0856166,-0.8000000715255737,,14.165,,1676151490431,,,186683124000000,1.0,Walk
Fix,FLP,37.3884565,-122.0857767,-3.824842563535008,0.08693538,10.439,,1676151490326,,,186683020360292,1.0278267,Walk
Fix,FLP,37.3884565,-122.0857777,-8.789898093230423,0.1185733,10.705,288.01587,1676151490895,,,186683588967896,0.97811,Walk
Fix,GPS,37.3885516415,-122.085842535,1.8763611009618568,1.0271677,14.036828,241.53456,1676151489290,0.41070879,23.714333,186683907279422,25.728327,Walk
Fix,FLP,37.3884547,-122.085777,-8.85775270313178,0.14796995,11.05,274.88965,1676151491437,,,186684131504212,0.98350525,Walk
Fix,FLP,37.3884542,-122.0857782,-18.78373439912972,0.18213394,11.2,266.71616,1676151491981,,,186684674039369,0.99102,Walk
Fix,FLP,37.3884544,-122.0857825,-18.78373439912972,0.2532153,11.758,257.47754,1676151492523,,,186685216582154,0.99102,Walk
Fix,GPS,37.388539287,-122.0858705289,3.170998070809315,0.7713909,11.089035,246.07677,1676151491000,0.41126978,29.824574,186685602946619,19.545164,Walk
Fix,FLP,37.3884557,-122.0857873,-10.130959387777413,0.31164128,12.385,252.75327,1676151493066,,,186685759116639,1.00109,Walk
Fix,FLP,37.3884576,-122.085792,-10.130959387777413,0.3339268,12.748,252.2432,1676151493607,,,186686301654237,1.00109,Walk
Fix,GPS,37.3885312049,-122.0858777297,4.04931548206792,0.40006417,10.328077,246.07677,1676151492000,0.38088757,30.330572,186686614293014,17.970566,Walk
Fix,FLP,37.3884626,-122.0857999,-0.8000000715255737,0.35205922,13.455,256.72766,1676151494150,,,186686844177125,1.0096639,Walk
Fix,FLP,37.3884647,-122.0858053,-0.8000000715255737,0.35610446,13.875,258.1645,1676151494693,,,186687386722963,1.0096639,Walk
Fix,GPS,37.3885275183,-122.0858821754,4.256855710617454,0.5004746,9.785079,232.00107,1676151493000,0.38293737,41.25003,186687525826000,17.239532,Walk
Fix,FLP,37.388469,-122.0858141,-0.8000000715255737,0.36764103,14.573,260.5339,1676151495235,,,186687929259218,1.02127,Walk
Fix,FLP,37.3884705,-122.08582,-0.8000000715255737,0.3769822,15.093,260.37054,1676151495778,,,186688471793824,1.02127,Walk
Fix,GPS,37.3885267325,-122.0858847962,5.178498599398735,0.38264987,9.031675,232.00107,1676151494000,0.39784887,32.099644,186688525828000,15.822495,Walk
Fix,NLP,37.3883098,-122.0857575,-0.5000001192092896,,15.053,,1676151495431,,,186688125000000,1.0,Walk
Fix,FLP,37.3884471,-122.0858335,2.2957685871343045,0.39718828,15.779,259.1018,1676151496325,,,186689019000000,0.9730901,Walk
Fix,GPS,37.3885223972,-122.085886329,5.704078618544339,0.6896724,8.583652,217.10739,1676151495000,0.3922284,29.565262,186689525875000,14.764027,Walk
Fix,FLP,37.3884182,-122.0858393,1.3881528403226042,0.40354285,15.342,257.69928,1676151496863,,,186689556858400,0.98684335,Walk
Fix,FLP,37.3884093,-122.085846,1.3881528403226042,0.40448835,15.3,255.4931,1676151497379,,,186690072000000,0.98684335,Walk
Fix,GPS,37.3885125631,-122.0858918303,6.053372552613559,0.8395246,8.20997,225.0627,1676151496000,0.42429236,26.743326,186690525913000,14.012219,Walk
Fix,FLP,37.3883964,-122.0858538,7.446692948896256,0.40889603,14.841,251.25424,1676151497948,,,186690641924379,0.99699336,Walk
Fix,FLP,37.3883856,-122.0858644,7.446692948896256,0.42907384,14.255,247.28578,1676151498491,,,186691184450685,0.99699336,Walk
Fix,GPS,37.3885025665,-122.0859008973,6.473762165445743,0.8229008,7.9123526,220.4705,1676151497000,0.39840904,24.786102,186691525912000,13.358821,Walk
Fix,FLP,37.3883794,-122.0858731,8.599289829565684,0.4585387,13.631,244.18771,1676151499033,,,186691726987793,1.0068933,Walk
Fix,FLP,37.388375,-122.0858793,8.599289829565684,0.4746572,12.96,242.66782,1676151499576,,,186692269514589,1.0068933,Walk
Fix,GPS,37.3884926063,-122.0859072233,6.604442140955555,0.93009925,7.7254243,222.71875,1676151498000,0.43798795,23.180355,186692525927000,12.947668,Walk
Fix,FLP,37.388369,-122.0858887,3.011414698605805,0.5056811,12.432,239.9285,1676151500119,,,186692812046022,1.0129607,Walk
Fix,FLP,37.3883648,-122.0858946,3.011414698605805,0.5213866,10.994,238.33278,1676151500661,,,186693354567872,1.0129607,Walk
Fix,GPS,37.3884876441,-122.0859118854,6.788925614465936,0.720884,7.687031,203.51366,1676151499000,0.42922172,26.283587,186693525965000,12.627092,Walk
Fix,NLP,37.3882458,-122.0857992,-0.8000000715255737,,18.322,,1676151500476,,,186693169000000,1.0,Walk
Fix,FLP,37.3883512,-122.0859042,3.5481366347194125,0.55139,10.949,235.08131,1676151501204,,,186693897104921,0.9722767,Walk
Fix,FLP,37.3883432,-122.0859072,3.5481366347194125,0.556097,10.911,234.50249,1676151501745,,,186694439628724,0.9722767,Walk
Fix,GPS,37.3884808063,-122.0859147782,6.975957671369522,0.5928534,7.657424,205.0267,1676151500000,0.41329995,32.537853,186694525967000,12.349422,Walk
Fix,FLP,37.3883348,-122.0859122,2.985321364450797,0.54758996,10.716,231.8697,1676151502289,,,186694982159425,0.9774317,Walk
Fix,FLP,37.3883298,-122.0859164,2.985321364450797,0.54145586,10.589,229.72469,1676151502830,,,186695524681886,0.9774317,Walk
Fix,GPS,37.3884754174,-122.0859171271,7.124116423084807,0.61877084,9.262324,208.0428,1676151501000,0.55713946,36.96584,186695526006000,12.190326,Walk
Fix,FLP,37.3883238,-122.0859232,2.6297697576896653,0.53763473,10.411,226.6399,1676151503373,,,186696067214052,0.9883314,Walk
Fix,FLP,37.3883196,-122.0859283,2.6297697576896653,0.54112446,10.263,225.48412,1676151503920,,,186696613000000,0.9883314,Walk
Fix,GPS,37.3884652917,-122.0859226492,6.612034555899104,1.0036745,7.729084,215.34575,1676151502000,0.48307082,21.497936,186696526001000,11.735262,Walk
Fix,FLP,37.3883153,-122.0859359,3.0534032170386283,0.56363916,10.097,223.72495,1676151504446,,,186697139000000,1.0015767,Walk
Fix,GPS,37.3884556708,-122.0859298505,6.932164745563915,1.1560241,7.4572034,217.84354,1676151503000,0.4157082,18.082014,186697526012000,11.534681,Walk
Fix,FLP,37.3883123,-122.0859424,3.0534032170386283,0.6011414,9.897,222.35728,1676151505000,,,186697694784181,1.0122267,Walk
Fix,NLP,37.388231,-122.085832,-1.5000001192092896,,20.34,,1676151505503,,,186698197000000,1.0,Walk
Fix,FLP,37.3883093,-122.0859494,5.001564708171934,0.6402065,9.677,221.23036,1676151505544,,,186698237314820,0.96272445,Walk
Fix,GPS,37.3884304852,-122.0859468155,7.633092989681362,0.94882935,7.0641775,211.82343,1676151504000,0.41454926,21.406616,186698525982000,11.040093,Walk
Fix,FLP,37.3883058,-122.0859581,5.001564708171934,0.6889864,9.331,219.74261,1676151506085,,,186698779834901,0.96679,Walk
Fix,FLP,37.3883023,-122.0859617,5.001564708171934,0.70047355,9.258,219.11331,1676151506628,,,186699322361573,0.96679,Walk
Fix,GPS,37.3884111214,-122.0859592885,9.307083653676004,0.8913962,6.7758493,208.83437,1676151505000,0.4276219,23.5691,186699526085000,10.695311,Walk
Fix,FLP,37.3882986,-122.0859669,5.001564708171934,0.71693623,9.073,218.08916,1676151507171,,,186699864880067,0.97678,Walk
Fix,FLP,37.3882949,-122.0859707,4.106490713378292,0.72502965,8.913,217.52536,1676151507714,,,186700407408876,0.98679,Walk
Fix,GPS,37.3883924957,-122.0859688281,9.743468959124344,0.9221344,6.474768,208.63496,1676151506000,0.39610985,21.503717,186700526058000,10.304699,Walk
Fix,FLP,37.3882905,-122.085976,4.106490713378292,0.73928136,8.696,216.57156,1676151508256,,,186700949928712,0.98781,Walk
Fix,FLP,37.3882864,-122.0859797,4.106490713378292,0.7486116,8.461,216.1094,1676151508798,,,186701492452333,0.98781,Walk
Fix,GPS,37.3883749908,-122.0859756468,10.227489674601776,0.975708,6.206027,205.73401,1676151507000,0.37117782,18.763739,186701526059000,9.900475,Walk
Fix,FLP,37.3882803,-122.0859851,1.4264413995180547,0.7675603,8.253,215.426,1676151509327,,,186702020360292,0.99370545,Walk
Fix,GPS,37.388355277,-122.0859856441,9.918824061005166,1.1823747,6.016741,199.61145,1676151508000,0.39416793,15.442064,186702526036000,9.532364,Walk
Fix,FLP,37.3882755,-122.085989,1.4264413995180547,0.7802515,8.025,215.25882,1676151509884,,,186702577498841,0.99370545,Walk
Fix,FLP,37.3882682,-122.0859955,1.4264413995180547,0.8103966,7.789,215.00537,1676151510427,,,186703120014466,1.00789,Walk
Fix,NLP,37.388167,-122.0859057,-1.1999999284744265,,25.928,,1676151510510,,,186703204000000,1.0,Walk
Fix,GPS,37.3883369854,-122.085997145,9.928136603002924,1.0797088,5.884261,198.42102,1676151509000,0.45573485,18.883827,186703526050000,9.26349,Walk
Fix,FLP,37.3882622,-122.0860002,4.055317248530912,0.83166516,7.694,214.82068,1676151510969,,,186703662540284,0.96354336,Walk
Fix,FLP,37.3882532,-122.086007,4.055317248530912,0.84936404,7.556,214.50554,1676151511512,,,186704205057313,0.96354336,Walk
Fix,GPS,37.3883231673,-122.0860060584,10.393375722182798,0.77209914,5.785671,208.45227,1676151510000,0.45681143,27.929157,186704526063000,8.870114,Walk
Fix,FLP,37.3882482,-122.086011,4.055317248530912,0.8574942,7.449,214.08179,1676151512058,,,186704751000000,0.9684623,Walk
Fix,FLP,37.3882423,-122.086016,4.055317248530912,0.8569745,7.407,213.98972,1676151512599,,,186705293000000,0.9684623,Walk
Fix,GPS,37.3883096596,-122.0860128795,10.118089651019329,1.1534163,5.6997623,209.6372,1676151511000,0.3798462,16.754833,186705526092000,8.535211,Walk
Fix,FLP,37.3882331,-122.0860239,1.1803778956886075,0.86629444,7.283,213.85576,1676151513139,,,186705832627687,0.97945225,Walk
Fix,GPS,37.388293351,-122.0860205223,10.343458803304236,1.3990725,5.6375337,210.39569,1676151512000,0.37354937,13.688966,186706526131000,8.221861,Walk
Fix,FLP,37.3882295,-122.0860269,0.8606595102680288,0.8817101,7.252,213.77608,1676151513681,,,186706375144777,0.99355334,Walk
Fix,FLP,37.3882217,-122.0860335,0.8606595102680288,0.91706085,7.16,213.59543,1676151514224,,,186706917674928,0.99355334,Walk
Fix,GPS,37.388277846,-122.086030919,11.429326631788603,1.2047492,5.529057,211.47514,1676151513000,0.38692242,16.472635,186707526119000,7.9598975,Walk
Fix,FLP,37.3882176,-122.0860368,-1.1999999284744265,0.93940157,7.088,213.40475,1676151514767,,,186707460191285,1.0035733,Walk
Fix,FLP,37.3882095,-122.086044,-1.1999999284744265,0.9711986,6.867,213.14845,1676151515309,,,186708002725099,1.0035733,Walk
Fix,NLP,37.3881263,-122.0860651,-0.8999999761581421,,19.815,,1676151515466,,,186708159000000,1.0,Walk
Fix,GPS,37.3882616674,-122.0860401561,12.321703554453736,1.371255,5.435993,206.94586,1676151514000,0.38326725,13.953456,186708526143000,7.7148714,Walk
Fix,FLP,37.3882032,-122.0860493,-0.8999999761581421,0.98649627,6.697,213.01265,1676151515852,,,186708545227357,0.955691,Walk
Fix,FLP,37.3881941,-122.0860565,-0.8999999761581421,1.0078833,6.488,212.98732,1676151516394,,,186709087762636,0.955691,Walk
Fix,GPS,37.3882462534,-122.0860495905,13.094787762182632,1.4260968,5.4025774,206.42288,1676151515000,0.370926,13.245498,186709526158000,7.5083523,Walk
Fix,FLP,37.3881904,-122.0860596,1.4341815767251092,1.0268743,6.401,213.00339,1676151516937,,,186709630283204,0.96982664,Walk
Fix,FLP,37.3881817,-122.0860665,1.4341815767251092,1.0604733,6.226,213.01006,1676151517479,,,186710172805848,0.96982664,Walk
Fix,GPS,37.3882310004,-122.0860585312,13.772412002580769,1.3407043,5.384414,205.38503,1676151516000,0.42085224,16.212328,186710526166000,7.375124,Walk
Fix,FLP,37.3881769,-122.0860703,1.0023925189548208,1.0878131,6.049,212.96037,1676151518022,,,186710715327882,0.9788567,Walk
Fix,FLP,37.3881713,-122.0860744,1.0023925189548208,1.1000315,5.98,212.83223,1676151518564,,,186711257853150,0.9788567,Walk
Fix,GPS,37.3882169527,-122.0860657452,13.530624871275949,1.17776,5.406343,217.20271,1676151517000,0.36718062,16.65788,186711526226000,7.2549534,Walk
Fix,FLP,37.3881666,-122.0860776,5.098625495035833,1.1131831,5.811,212.56631,1676151519107,,,186711800370606,0.98985666,Walk
Fix,FLP,37.3881608,-122.0860818,5.098625495035833,1.117683,5.763,212.43272,1676151519649,,,186712342877687,0.98985666,Walk
Fix,GPS,37.388209915,-122.086073592,13.645045267203336,1.1705167,5.524087,217.36897,1676151518000,0.40650123,18.752222,186712526237000,7.30063,Walk
Fix,NLP,37.3881037,-122.0861966,-0.8000000715255737,,20.318,,1676151520529,,,186713222000000,1.0,Walk
Fix,FLP,37.3881531,-122.0860869,5.7104241118005845,1.1222126,5.63,212.28833,1676151520192,,,186712885415223,0.9957583,Walk
Fix,GPS,37.3882019529,-122.0860819901,13.565361022441556,1.161452,5.6535583,218.74936,1676151519000,0.428085,23.274712,186713526235000,7.370858,Walk
Fix,FLP,37.3881492,-122.0860902,1.8342712187531944,1.1267654,5.621,212.36255,1676151520733,,,186713427937501,0.95514,Walk
Fix,FLP,37.3881413,-122.0860977,1.8342712187531944,1.1297284,5.606,212.41109,1676151521276,,,186713970455811,0.95514,Walk
Fix,GPS,37.3881933961,-122.0860894792,13.481789371355708,1.1562432,5.7816634,214.46236,1676151520000,0.38421872,21.666601,186714526250000,7.428979,Walk
Fix,FLP,37.3881388,-122.0861,1.3758580696694125,1.1335406,5.605,212.29454,1676151521819,,,186714512973390,0.96509,Walk
Fix,FLP,37.3881313,-122.0861067,1.3758580696694125,1.1356658,5.634,212.18253,1676151522327,,,186715020360292,0.96509,Walk
Fix,GPS,37.3881860868,-122.0860956073,13.35780892427902,1.1051271,5.877409,222.27673,1676151521000,0.39562523,24.491625,186715526279000,7.48892,Walk
Fix,FLP,37.3881289,-122.086109,-0.8000000715255737,1.1390057,5.676,212.20166,1676151522905,,,186715598016907,0.97504,Walk
Fix,FLP,37.3881213,-122.0861156,-0.8000000715255737,1.1386583,5.763,212.27728,1676151523447,,,186716140534913,0.97504,Walk
Fix,GPS,37.3881781619,-122.0861022506,13.229688955607816,1.0926749,5.973032,211.23479,1676151522000,0.4311021,22.079794,186716526486000,7.562819,Walk
Fix,FLP,37.388119,-122.0861177,-0.8000000715255737,1.1391915,5.83,212.27159,1676151523990,,,186716683046083,0.98088706,Walk
Fix,FLP,37.388111,-122.0861246,-0.8000000715255737,1.1358378,5.99,212.2682,1676151524531,,,186717225577149,0.98088706,Walk
Fix,GPS,37.3881690273,-122.0861086592,12.791259452746129,1.1029861,6.053295,215.10515,1676151523000,0.42515954,23.92445,186717526256000,7.6343994,Walk
Fix,FLP,37.388107,-122.0861281,-0.8000000715255737,1.1325346,6.168,212.39107,1676151525075,,,186717768096864,0.99089706,Walk
Fix,NLP,37.3880957,-122.0862458,-0.8000000715255737,,14.551,,1676151525571,,,186718264000000,1.0,Walk
Fix,FLP,37.3881036,-122.0861316,-0.8000000715255737,1.1295848,6.266,213.02757,1676151525617,,,186718310612733,0.9474433,Walk
Fix,GPS,37.3881614702,-122.0861162847,12.847439866995678,1.0942215,6.134569,226.00476,1676151524000,0.43482447,25.430546,186718526279000,7.7205434,Walk
Fix,FLP,37.3880972,-122.0861432,-0.8000000715255737,1.1101204,6.563,215.64304,1676151526160,,,186718853127687,0.95045334,Walk
Fix,FLP,37.3880928,-122.0861533,-0.8000000715255737,1.0860444,6.721,217.74687,1676151526702,,,186719395650026,0.95045334,Walk
Fix,GPS,37.3881540551,-122.0861271546,12.68321424790384,1.1169252,6.21126,251.50716,1676151525000,0.43199292,23.813763,186719526305000,7.804645,Walk
Fix,FLP,37.38809,-122.086166,1.2365367116247086,1.0317656,6.857,222.49193,1676151527245,,,186719938170045,0.9604433,Walk
Fix,FLP,37.3880886,-122.086175,1.2365367116247086,0.9922703,7.016,226.08772,1676151527787,,,186720480689943,0.9604433,Walk
Fix,GPS,37.3881502101,-122.0861412244,12.382145335798416,1.1403657,6.281868,269.33585,1676151526000,0.4114658,23.523163,186720526398000,7.8660173,Walk
Fix,FLP,37.3880901,-122.0861873,1.7645598930008148,0.9344889,7.163,232.96477,1676151528327,,,186721020360292,0.96946335,Walk
Fix,FLP,37.3880913,-122.0861964,1.7645598930008148,0.91052836,7.324,236.7067,1676151528871,,,186721565714540,0.96946335,Walk
Fix,GPS,37.3881497742,-122.0861573617,11.6187017147781,1.174947,6.364479,279.44064,1676151527000,0.4556614,18.878038,186721526342000,7.944135,Walk
Fix,FLP,37.3880961,-122.0862073,-0.8000000715255737,0.8770477,7.448,243.61559,1676151529381,,,186722075000000,0.9754194,Walk
Fix,FLP,37.3880991,-122.0862157,-0.8000000715255737,0.8654782,7.555,247.22624,1676151529941,,,186722634000000,0.9754194,Walk
Fix,GPS,37.3881526388,-122.0861779527,10.85056200636904,1.2515122,6.414541,282.66434,1676151528000,0.45352882,20.971434,186722526326000,8.028973,Walk
Fix,FLP,37.3881071,-122.0862295,1.2104433979995832,0.85106146,7.723,256.77658,1676151530499,,,186723193265688,0.98944336,Walk
Fix,NLP,37.3882039,-122.0863349,-0.8000000715255737,,13.117,,1676151530610,,,186723303000000,1.0,Walk
Fix,GPS,37.388156648,-122.0861945199,10.047959697409244,1.2778385,6.494013,294.22217,1676151529000,0.42356205,20.187672,186723526360000,8.11297,Walk
Fix,FLP,37.3881188,-122.0862441,-0.8000000715255737,0.8628082,7.707,262.5872,1676151531041,,,186723735783082,0.9455067,Walk
Fix,FLP,37.3881254,-122.0862528,-0.8000000715255737,0.8662988,7.717,263.19696,1676151531584,,,186724278300172,0.9455067,Walk
Fix,GPS,37.3881623698,-122.0862121285,9.439530917690874,1.3147182,6.5940723,297.52893,1676151530000,0.40556994,19.015675,186724526384000,8.209354,Walk
Fix,FLP,37.388135,-122.0862621,-0.8000000715255737,0.8733706,7.654,266.87967,1676151532127,,,186724820810975,0.95588666,Walk
Fix,FLP,37.3881409,-122.0862693,-0.8000000715255737,0.880705,7.624,270.11786,1676151532670,,,186725363324830,0.95588666,Walk
Fix,GPS,37.3881710262,-122.0862273534,9.381919205458365,1.3439251,6.590754,302.2437,1676151531000,0.41553453,17.47236,186725526436000,8.294216,Walk
Fix,FLP,37.3881497,-122.0862771,-0.8000000715255737,0.9009323,7.586,275.4334,1676151533212,,,186725905843873,0.96589667,Walk
Fix,FLP,37.3881551,-122.086284,-0.8000000715255737,0.9164004,7.522,277.8301,1676151533755,,,186726448359010,0.96589667,Walk
Fix,GPS,37.3881779334,-122.0862438543,8.83137540958566,1.3678653,6.6362877,300.95883,1676151532000,0.40111154,17.46835,186726526408000,8.382311,Walk
Fix,FLP,37.3881636,-122.0862917,-0.8000000715255737,0.9470828,7.54,281.67377,1676151534296,,,186726990873170,0.9719665,Walk
Fix,GPS,37.3881858913,-122.0862607847,8.293397226507057,1.3941708,6.623351,306.64346,1676151533000,0.39946058,18.509748,186727526449000,8.3986845,Walk
Fix,FLP,37.388169,-122.0862981,-0.8000000715255737,0.9648625,7.509,283.41528,1676151534840,,,186727533376344,0.9719665,Walk
Fix,FLP,37.3881777,-122.0863061,-0.8000000715255737,0.998446,7.526,286.2193,1676151535382,,,186728075901735,0.98603666,Walk
Fix,NLP,37.3882006,-122.0863265,-0.8000000715255737,,15.071,,1676151535622,,,186728315000000,1.0,Walk
Fix,FLP,37.3881858,-122.0863132,-0.8000000715255737,1.0177543,7.493,287.62112,1676151535925,,,186728618414003,0.93965,Walk
Fix,GPS,37.3881937845,-122.0862717715,7.911838726567811,1.380379,6.698543,298.5004,1676151534000,0.40128782,22.079859,186728526412000,8.441552,Walk
Fix,FLP,37.388194,-122.0863218,-0.8000000715255737,1.0374104,7.493,288.92432,1676151536467,,,186729160930543,0.94061,Walk
Fix,GPS,37.3882016221,-122.086285058,7.560083776368924,1.378196,6.777433,301.042,1676151535000,0.40976873,23.892454,186729526754000,8.501115,Walk
Fix,FLP,37.3881994,-122.0863291,-0.8000000715255737,1.0551953,7.547,290.039,1676151537009,,,186729703439393,0.94061,Walk
Fix,FLP,37.3882078,-122.0863382,-0.8000000715255737,1.0855911,7.55,291.9011,1676151537540,,,186730234000000,0.95185,Walk
Fix,GPS,37.388210657,-122.0862985824,6.77071737360785,1.383409,6.8416686,310.30807,1676151536000,0.42399603,22.844646,186730526522000,8.514056,Walk
Fix,FLP,37.3882151,-122.0863449,-0.8000000715255737,1.1131235,7.533,293.44415,1676151538098,,,186730791000000,0.9616,Walk
Fix,GPS,37.3882166152,-122.086308246,6.8366639992455,1.352461,6.710906,319.06555,1676151537000,0.27704373,13.644668,186731526493000,8.233835,Walk
Fix,FLP,37.3882223,-122.0863541,3.663567003139626,1.1386136,7.478,294.61118,1676151538637,,,186731330984743,0.9675196,Walk
Fix,FLP,37.3882285,-122.0863638,3.663567003139626,1.1608233,7.421,295.4348,1676151539179,,,186731873492737,0.9675196,Walk
Fix,GPS,37.3882246481,-122.0863217621,7.532598979651125,1.3540646,6.530843,322.41046,1676151538000,0.28121188,15.47768,186732526492000,7.922797,Walk
Fix,FLP,37.3882326,-122.0863717,3.663567003139626,1.1726532,7.342,295.8007,1676151539722,,,186732416009157,0.9675196,Walk
Fix,FLP,37.3882383,-122.0863825,3.663567003139626,1.1918247,7.321,296.43225,1676151540265,,,186732958522828,0.98188,Walk
Fix,NLP,37.3881719,-122.0863451,-0.6000000238418579,,14.761,,1676151540670,,,186733363000000,1.0,Walk
Fix,FLP,37.3882409,-122.086387,3.751825918757561,1.2027495,7.297,296.76047,1676151540807,,,186733501036012,0.93495333,Walk
Fix,GPS,37.3882258321,-122.0863327021,8.417257173128032,1.3150645,6.356551,318.07596,1676151539000,0.2710322,17.13349,186733526486000,7.5739136,Walk
Fix,FLP,37.388246,-122.0863987,3.751825918757561,1.220523,7.274,297.51352,1676151541327,,,186734020360292,0.93697333,Walk
Fix,GPS,37.3882308032,-122.086345684,9.06531698154127,1.3028384,6.3422737,318.3805,1676151540000,0.28452924,15.806291,186734526512000,7.409409,Walk
Fix,FLP,37.3882476,-122.0864029,2.866444686345737,1.2252089,7.248,297.758,1676151541893,,,186734586044801,0.94594336,Walk
Fix,FLP,37.3882515,-122.0864114,2.866444686345737,1.2322681,7.165,298.14557,1676151542434,,,186735128575501,0.94594336,Walk
Fix,GPS,37.3882396023,-122.0863574369,9.36547705648148,1.301985,6.3155565,314.24234,1676151541000,0.27828416,17.33614,186735526527000,7.2681017,Walk
Fix,FLP,37.3882541,-122.0864165,2.866444686345737,1.2370162,7.147,298.1139,1676151542977,,,186735671088258,0.95696336,Walk
Fix,FLP,37.3882591,-122.0864262,2.866444686345737,1.2423959,7.127,297.8472,1676151543520,,,186736213596132,0.95696336,Walk
Fix,GPS,37.3882433329,-122.0863659993,9.32595948743291,1.256338,6.288928,305.98355,1676151542000,0.2590773,20.660961,186736526554000,7.174805,Walk
Fix,FLP,37.388262,-122.0864323,4.269025970996495,1.242715,7.085,297.36722,1676151544063,,,186736756113160,0.96179277,Walk
Fix,FLP,37.3882645,-122.0864388,4.269025970996495,1.2432339,7.068,297.10287,1676151544564,,,186737258000000,0.96179277,Walk
Fix,GPS,37.388246799,-122.0863759271,8.968250516859984,1.2200812,6.265839,292.37433,1676151543000,0.24479458,23.071493,186737526630000,7.0888968,Walk
Fix,FLP,37.3882666,-122.086445,4.269025970996495,1.2408874,7.035,296.75632,1676151545096,,,186737790000000,0.9718328,Walk
Fix,NLP,37.3882213,-122.0863203,-1.5000001192092896,,34.119,,1676151545649,,,186738342000000,1.0,Walk
Fix,FLP,37.3882686,-122.0864513,4.100374258073316,1.2371342,7.044,296.39587,1676151545689,,,186738383645692,0.92999667,Walk
Fix,GPS,37.3882504688,-122.0863892274,8.560234347718417,1.2081512,6.2905354,285.8344,1676151544000,0.26467702,23.085972,186738526592000,7.0566845,Walk
Fix,FLP,37.3882716,-122.0864614,3.40329195025339,1.227334,7.113,295.29422,1676151546232,,,186738926162049,0.93200666,Walk
Fix,GPS,37.3882528333,-122.086404726,7.937232762201629,1.2084965,6.3573236,277.36655,1676151545000,0.28127366,22.219719,186739526757000,7.0261693,Walk
Fix,FLP,37.3882716,-122.0864643,2.0394902544358047,1.2154875,7.191,293.7138,1676151546775,,,186739468674440,0.9420267,Walk
Fix,FLP,37.3882718,-122.0864721,2.0394902544358047,1.1875882,7.389,290.12408,1676151547318,,,186740011184327,0.9420267,Walk
Fix,GPS,37.3882562952,-122.0864244543,8.23083753736873,1.2387294,6.2712746,254.19035,1676151545999,0.24854743,19.263138,186740526659000,6.892052,Walk
Fix,FLP,37.3882706,-122.0864753,-1.5000001192092896,1.1718414,7.498,287.96103,1676151547860,,,186740553692750,0.9519967,Walk
Fix,GPS,37.3882567717,-122.0864381546,8.728625688799516,1.223256,6.2571816,242.9816,1676151546999,0.26880196,21.480627,186741526646000,6.7829933,Walk
Fix,FLP,37.3882682,-122.0864877,-1.5000001192092896,1.1463345,7.813,283.6483,1676151548945,,,186741638716249,0.9620067,Walk
Fix,FLP,37.388264,-122.0864973,-1.5000001192092896,1.1283451,8.16,279.53546,1676151549487,,,186742181229860,0.9620067,Walk
Fix,GPS,37.388257546,-122.0864580904,8.922160194674014,1.2492981,6.138172,244.1647,1676151547999,0.2656008,26.398066,186742526643000,6.602724,Walk
Fix,FLP,37.38826,-122.0865003,2.0394902544358047,1.12001,8.525,276.1385,1676151550029,,,186742723738160,0.9678432,Walk
Fix,FLP,37.3882578,-122.0865059,2.0394902544358047,1.118519,8.816,274.48505,1676151550572,,,186743266252625,0.9678432,Walk
Fix,NLP,37.3882133,-122.0863011,-1.5000001192092896,,17.139,,1676151550748,,,186743441000000,1.0,Walk
Fix,GPS,37.3882570189,-122.086472201,8.956408876701538,1.2327616,6.073933,258.30402,1676151548999,0.27781546,30.294386,186743526779000,6.5031776,Walk
Fix,FLP,37.3882471,-122.0864991,4.779999012809434,1.1060591,9.084,270.2496,1676151551115,,,186743808764283,0.92684,Walk
Fix,FLP,37.3882407,-122.0864969,4.779999012809434,1.0999902,9.061,268.9997,1676151551658,,,186744351275880,0.92684,Walk
Fix,GPS,37.3882596723,-122.0864888407,9.008732674682996,1.2370298,6.020601,261.4907,1676151549999,0.28735417,27.240574,186744526680000,6.431101,Walk
Fix,FLP,37.3882332,-122.0864946,4.860365116151023,1.0980022,8.991,267.24313,1676151552200,,,186744893780641,0.93695,Walk
Fix,FLP,37.3882298,-122.0864985,4.860365116151023,1.1004828,8.946,266.51553,1676151552743,,,186745436297792,0.93695,Walk
Fix,GPS,37.3882597844,-122.0865022731,8.78380792607554,1.2179471,5.970566,263.02725,1676151550999,0.31048974,27.606808,186745526691000,6.380902,Walk
Fix,FLP,37.3882269,-122.0865028,3.8550759945342743,1.1066173,8.853,265.56165,1676151553285,,,186745978806031,0.94685,Walk
Fix,FLP,37.3882256,-122.0865097,3.8550759945342743,1.1110021,8.796,264.98898,1676151553828,,,186746521315736,0.94685,Walk
Fix,GPS,37.3882600551,-122.0865143622,8.95280922320929,1.1921626,5.9075503,267.25372,1676151551999,0.28508148,26.560259,186746526744000,6.3415627,Walk
Fix,FLP,37.388225,-122.0865169,3.8550759945342743,1.1176724,8.757,264.28357,1676151554394,,,186747088000000,0.95684,Walk
Fix,GPS,37.3882584931,-122.0865210931,9.254335046399492,1.135805,5.9123826,259.33282,1676151552999,0.29102316,26.114729,186747526786000,6.319955,Walk
Fix,FLP,37.3882252,-122.0865225,1.6488752580776591,1.1224039,8.687,263.63794,1676151554913,,,186747606335573,0.96688,Walk
Fix,NLP,37.3882072,-122.0863331,-1.5000001192092896,,16.366,,1676151555707,,,186748400000000,1.0,Walk
Fix,FLP,37.388226,-122.086533,-1.5000001192092896,1.1246805,8.722,263.1851,1676151555454,,,186748148845277,0.9220833,Walk
Fix,GPS,37.3882533298,-122.0865255,9.419314412043178,1.0910126,5.942724,254.17975,1676151553999,0.2887626,25.128426,186748526907000,6.314186,Walk
Fix,FLP,37.3882275,-122.0865373,0.758574569490392,1.1184444,8.724,262.9545,1676151555998,,,186748691354799,0.91892904,Walk
Fix,FLP,37.3882286,-122.0865402,0.758574569490392,1.1125137,8.992,263.51807,1676151556540,,,186749233860292,0.91892904,Walk
Fix,GPS,37.3882457571,-122.0865391203,9.197003628772435,1.1093818,5.9771996,239.237,1676151554999,0.28062838,22.151596,186749526782000,6.3152184,Walk
Fix,FLP,37.3882339,-122.0865431,-1.5000001192092896,1.1018554,9.228,265.33624,1676151557083,,,186749776373598,0.9292588,Walk
Fix,FLP,37.3882372,-122.0865474,-1.5000001192092896,1.0985392,9.507,266.48886,1676151557625,,,186750318881654,0.9292588,Walk
Fix,GPS,37.3882384057,-122.0865519635,9.049198400559694,1.1228327,5.985637,240.50104,1676151555999,0.28732932,18.136656,186750526801000,6.298551,Walk
Fix,FLP,37.388245,-122.086553,-1.5000001192092896,1.0935278,9.693,268.90906,1676151558167,,,186750861391664,0.94339335,Walk
Fix,FLP,37.388249,-122.0865591,-1.5000001192092896,1.0919418,9.93,270.30475,1676151558709,,,186751403889283,0.94339335,Walk
Fix,GPS,37.3882300671,-122.0865676234,8.591699365943063,1.1582867,5.9707565,244.09544,1676151556999,0.27779815,15.246644,186751526808000,6.293503,Walk
Fix,FLP,37.3882581,-122.0865672,2.043290154385652,1.0908444,10.035,272.99826,1676151559253,,,186751946409059,0.9530733,Walk
Fix,FLP,37.3882628,-122.0865741,2.043290154385652,1.0929203,10.104,274.28296,1676151559795,,,186752488916932,0.9530733,Walk
Fix,GPS,37.3882227855,-122.0865873296,8.573020793430148,1.2117091,6.0277133,237.96452,1676151557999,0.2812557,14.498511,186752527085000,6.2960386,Walk
Fix,FLP,37.3882716,-122.0865846,2.1343863665971767,1.1003556,10.211,276.54605,1676151560327,,,186753020360292,0.9630833,Walk
Fix,NLP,37.3882,-122.0863034,-1.1999999284744265,,23.059,,1676151560768,,,186753461000000,1.0,Walk
Fix,FLP,37.3882756,-122.086591,0.6570088351651009,1.107486,10.253,277.14966,1676151560880,,,186753573930055,0.91730666,Walk
Fix,GPS,37.3882156185,-122.0866091048,8.698478651409802,1.2713008,6.003386,224.4951,1676151558999,0.27233985,15.477147,186753526932000,6.249039,Walk
Fix,FLP,37.388282,-122.086601,1.209651878452938,1.1207757,10.409,277.94226,1676151561417,,,186754110000000,0.91848665,Walk
Fix,GPS,37.3882046878,-122.0866254586,9.041165962554638,1.308003,6.000453,220.1824,1676151559999,0.2801572,18.846443,186754526813000,6.2430725,Walk
Fix,FLP,37.3882833,-122.0866032,-1.1999999284744265,1.1237701,10.49,276.73834,1676151561964,,,186754658950135,0.92831665,Walk
Fix,FLP,37.3882831,-122.0866141,-1.1999999284744265,1.1234677,10.685,274.15564,1676151562508,,,186755201459108,0.92831665,Walk
Fix,GPS,37.3881969217,-122.0866392687,9.511742922653978,1.3107643,6.042276,212.2805,1676151560999,0.29528692,18.83737,186755526872000,6.228033,Walk
Fix,FLP,37.3882802,-122.0866211,-1.1999999284744265,1.1231848,10.958,271.14185,1676151563050,,,186755743955934,0.93432105,Walk
Fix,FLP,37.3882776,-122.0866276,-1.1999999284744265,1.1227362,11.13,269.46213,1676151563593,,,186756286476869,0.93432105,Walk
Fix,GPS,37.388184585,-122.0866463866,9.625230792577142,1.3132316,5.9923487,218.87378,1676151561999,0.2943583,20.619883,186756526867000,6.2002125,Walk
Fix,FLP,37.388272,-122.0866363,-1.1999999284744265,1.1241561,11.57,266.31787,1676151564135,,,186756828980592,0.944271,Walk
Fix,FLP,37.3882677,-122.0866432,-1.1999999284744265,1.1253206,11.94,264.64798,1676151564677,,,186757371489869,0.944271,Walk
Fix,GPS,37.3881769232,-122.08665468,9.94502431556947,1.2874582,5.955161,222.01733,1676151562999,0.30439717,18.796001,186757526896000,6.1575356,Walk
Fix,FLP,37.3882582,-122.0866525,1.41639059891191,1.1250407,12.507,261.3761,1676151565219,,,186757913994264,0.95863664,Walk
Fix,NLP,37.3881508,-122.0863809,-0.8000000715255737,,14.759,,1676151565785,,,186758478000000,1.0,Walk
Fix,FLP,37.3882514,-122.086659,1.41639059891191,1.1224097,13.038,259.5411,1676151565763,,,186758456507814,0.95863664,Walk
Fix,GPS,37.3881728396,-122.0866644717,10.220712230863702,1.2539959,5.930109,217.2502,1676151563999,0.29933754,17.944809,186758526881000,6.1257334,Walk
Fix,FLP,37.3882186,-122.0866444,2.7466622476264675,1.0774252,13.535,253.09549,1676151566306,,,186758999009461,0.91398,Walk
Fix,FLP,37.3882005,-122.0866335,2.4610729594152616,1.046006,13.616,249.9989,1676151566848,,,186759541519654,0.92401,Walk
Fix,GPS,37.388163948,-122.086675736,10.82400155648452,1.2548764,5.9176707,207.29788,1676151564999,0.3122186,20.251041,186759526908000,6.098193,Walk
Fix,FLP,37.3881779,-122.0866261,2.4610729594152616,1.0132931,13.299,244.96048,1676151567390,,,186760084016542,0.92401,Walk
Fix,FLP,37.3881673,-122.0866275,-0.8000000715255737,1.0046505,13.225,242.5338,1676151567932,,,186760626536133,0.93402,Walk
Fix,GPS,37.3881559978,-122.0866873753,10.75860550295946,1.2516344,6.0676107,215.93423,1676151565999,0.3213949,20.915586,186760526930000,6.130106,Walk
Fix,FLP,37.3881487,-122.0866374,-0.8000000715255737,1.0045477,12.795,238.40685,1676151568476,,,186761169038270,0.93402,Walk
Fix,GPS,37.3881471298,-122.0866991862,10.64264913809089,1.2550454,6.0849743,208.42633,1676151566999,0.30031404,18.51951,186761526946000,6.1267414,Walk
Fix,FLP,37.3881382,-122.0866459,-0.8000000715255737,1.0103054,12.444,236.47855,1676151569004,,,186761697000000,0.93402,Walk
Fix,FLP,37.3881186,-122.0866657,-0.8000000715255737,1.0300783,11.763,233.18758,1676151569565,,,186762258000000,0.94514,Walk
Fix,GPS,37.3881348714,-122.0867075773,10.47860389221198,1.2694523,6.1707087,205.59499,1676151567999,0.3163717,16.065083,186762526960000,6.137116,Walk
Fix,FLP,37.3880976,-122.0866905,-0.8000000715255737,1.0564913,10.077,229.18095,1676151570102,,,186762796564027,0.95399,Walk
Fix,NLP,37.388107,-122.0863613,-0.8000000715255737,,19.478,,1676151570816,,,186763509000000,1.0,Walk
Fix,FLP,37.3880912,-122.086697,-0.8000000715255737,1.0648732,9.398,227.88391,1676151570646,,,186763339068787,0.9053371,Walk
Fix,GPS,37.3881192459,-122.0867151684,10.54809602770275,1.3070564,6.211911,206.35599,1676151568999,0.315678,15.296299,186763526970000,6.1711326,Walk
Fix,FLP,37.388081,-122.0867045,-0.8000000715255737,1.0749956,7.828,224.54103,1676151571188,,,186763881576722,0.9053371,Walk
Fix,GPS,37.3881094734,-122.0867228899,10.92254246057256,1.298469,6.359868,206.85895,1676151569999,0.33254015,15.417694,186764526987000,6.2368264,Walk
Fix,FLP,37.3880776,-122.0867046,-0.8000000715255737,1.0806284,7.608,223.52959,1676151571730,,,186764424071595,0.91952336,Walk
Fix,FLP,37.3880684,-122.0867102,-0.8000000715255737,1.0934399,7.107,221.75957,1676151572273,,,186764966591920,0.91952336,Walk
Fix,GPS,37.3880971212,-122.0867317074,11.1723047540709,1.3147073,6.467657,209.89592,1676151570999,0.3390253,14.720925,186765527005000,6.3012505,Walk
Fix,FLP,37.3880636,-122.0867131,-0.8000000715255737,1.1021433,6.816,220.88329,1676151572816,,,186765509095094,0.9295033,Walk
Fix,FLP,37.3880528,-122.0867216,-0.8000000715255737,1.117313,6.289,219.32397,1676151573326,,,186766020360292,0.9295033,Walk
Fix,GPS,37.3880845217,-122.0867387916,11.257254845350255,1.324509,6.5314193,215.0743,1676151571999,0.31488937,15.8724785,186766527019000,6.3467627,Walk
Fix,FLP,37.3880485,-122.0867246,-0.8000000715255737,1.1274085,6.057,218.6854,1676151573900,,,186766594104066,0.93949336,Walk
Fix,FLP,37.3880379,-122.0867334,-0.8000000715255737,1.143295,5.713,217.51375,1676151574443,,,186767136617737,0.93949336,Walk
Fix,GPS,37.3880750949,-122.0867477798,11.234491009828387,1.3150781,6.4363904,211.52228,1676151572999,0.29924455,16.652742,186767527013000,6.3731527,Walk
Fix,FLP,37.3880343,-122.0867359,1.0992825490387048,1.1521575,5.616,216.9106,1676151574986,,,186767679120301,0.9495533,Walk
Fix,NLP,37.3870749,-122.089603,,,899.999,,1676151575105,,,186767798000000,,Walk
Fix,FLP,37.3880285,-122.0867405,1.0992825490387048,1.1646131,5.497,215.80759,1676151575528,,,186768221627504,0.9495533,Walk
Fix,GPS,37.3880659612,-122.0867553404,11.597805722568918,1.3005862,6.3358626,208.90782,1676151573999,0.33172727,14.781486,186768527031000,6.3966994,Walk
Fix,FLP,37.3880195,-122.0867488,-0.8000000715255737,1.1738532,5.479,214.32404,1676151576070,,,186768764122743,0.95949334,Walk
Fix,FLP,37.3880136,-122.0867534,-0.8000000715255737,1.1784714,5.426,213.84612,1676151576613,,,186769306640931,0.95949334,Walk
Fix,GPS,37.3880530002,-122.0867632408,11.720204494420122,1.3160931,6.259494,211.34427,1676151574999,0.3199854,15.525499,186769527012000,6.4222765,Walk
Fix,FLP,37.3880084,-122.0867575,-0.8000000715255737,1.1871367,5.332,213.02118,1676151577155,,,186769849145142,0.9694933,Walk
Fix,FLP,37.3880017,-122.0867623,-0.8000000715255737,1.1935657,5.352,212.63483,1676151577698,,,186770391652162,0.9694933,Walk
Fix,GPS,37.3880414429,-122.0867677212,11.688211267418335,1.3112226,6.1876783,211.70357,1676151575999,0.33298418,15.996101,186770527050000,6.4483547,Walk
Fix,FLP,37.3879949,-122.0867669,-0.8000000715255737,1.2037802,5.402,211.98393,1676151578241,,,186770934156556,0.97950333,Walk
Fix,FLP,37.3879882,-122.0867718,-0.8000000715255737,1.2099652,5.483,211.65047,1676151578783,,,186771476667115,0.97950333,Walk
Fix,GPS,37.3880289301,-122.0867725388,11.371149270797446,1.3122857,6.1859455,213.57649,1676151576999,0.3058906,19.19647,186771527088000,6.4564266,Walk
Fix,FLP,37.3879795,-122.0867773,-0.8000000715255737,1.2208163,5.573,211.00856,1676151579326,,,186772019170472,0.9853471,Walk
Fix,FLP,37.3879718,-122.0867818,-0.8000000715255737,1.2276944,5.67,210.66621,1676151579867,,,186772561678285,0.9853471,Walk
Fix,GPS,37.3880169618,-122.0867744436,11.30803508774083,1.3041608,6.1002455,208.61891,1676151577999,0.27352187,15.735161,186772527128000,6.481672,Walk
Fix,FLP,37.3879627,-122.0867873,-0.8000000715255737,1.2379259,5.788,210.1958,1676151580412,,,186773105000000,0.9956571,Walk
Fix,GPS,37.3880013978,-122.086778909,11.54688077591873,1.3298185,6.1010647,203.6998,1676151578999,0.29141608,14.059292,186773527080000,6.5412855,Walk
Fix,NLP,37.3879133,-122.0864197,-0.8000000715255737,,18.305,,1676151580876,,,186773569000000,1.0,Walk
Fix,FLP,37.3879566,-122.0867912,-0.8000000715255737,1.2462134,5.903,210.02557,1676151580953,,,186773646696107,0.9047167,Walk
Fix,FLP,37.3879478,-122.0867926,-0.8000000715255737,1.2518634,5.939,209.81662,1676151581480,,,186774174000000,0.9047167,Walk
Fix,GPS,37.3879850977,-122.0867834142,11.453550361396582,1.3595703,6.047563,204.0811,1676151579999,0.29682007,14.118807,186774527112000,6.542396,Walk
Fix,FLP,37.3879404,-122.086792,-2.953573148318334,1.2565715,6.014,209.4126,1676151582023,,,186774716000000,0.91890335,Walk
Fix,GPS,37.3879713481,-122.0867883184,11.506504914805609,1.3658737,5.966957,205.31696,1676151580999,0.28798318,14.866894,186775527186000,6.5275803,Walk
Fix,FLP,37.3879311,-122.0867958,-0.8000000715255737,1.2647245,6.048,208.9524,1676151582581,,,186775274207582,0.9288933,Walk
Fix,FLP,37.3879272,-122.0867989,-0.8000000715255737,1.2705892,6.031,208.75731,1676151583097,,,186775791000000,0.9288933,Walk
Fix,GPS,37.3879576994,-122.0867952184,11.411553052093872,1.3744203,5.8747005,208.16191,1676151581999,0.2844671,15.337881,186776527164000,6.5003233,Walk
Fix,FLP,37.3879191,-122.086805,-3.420534545933762,1.2784429,5.997,208.34421,1676151583666,,,186776359224732,0.9388933,Walk
Fix,FLP,37.3879117,-122.086811,-3.420534545933762,1.2845498,5.984,207.98776,1676151584208,,,186776901735414,0.9388933,Walk
Fix,GPS,37.3879440187,-122.0868004141,11.0446977817091,1.3788599,5.8158383,212.85623,1676151582999,0.28375566,15.322235,186777527175000,6.4768577,Walk
Fix,FLP,37.3879079,-122.0868137,-3.144350198348704,1.2898368,5.992,207.8052,1676151584750,,,186777444228578,0.9489033,Walk
Fix,FLP,37.3878999,-122.0868198,-3.144350198348704,1.2960572,6.015,207.58134,1676151585292,,,186777986747864,0.9489033,Walk
Fix,GPS,37.3879315167,-122.0868080711,10.71543002514094,1.379219,5.75317,217.72409,1676151583999,0.2990101,17.558397,186778527241000,6.4489164,Walk
Fix,FLP,37.3878966,-122.0868223,-0.8000000715255737,1.3014858,6.043,207.65263,1676151585836,,,186778529240175,0.9589033,Walk
Fix,NLP,37.3877755,-122.0861974,-0.5000001192092896,,24.71,,1676151585878,,,186778571000000,1.4169253,Walk
Fix,FLP,37.387888,-122.0868292,-0.8000000715255737,1.3075507,6.137,207.80658,1676151586377,,,186779071760072,0.9199016,Walk
Fix,GPS,37.3879210137,-122.0868158272,10.237652203658364,1.3641827,5.6854143,218.8433,1676151584999,0.27350134,17.653444,186779527193000,6.3910584,Walk
Fix,FLP,37.3878856,-122.086831,-0.5000001192092896,1.30911,6.184,207.81154,1676151586921,,,186779614263489,0.92990166,Walk
Fix,FLP,37.3878771,-122.0868373,-0.5000001192092896,1.3096703,6.238,207.72525,1676151587462,,,186780156774598,0.92990166,Walk
Fix,GPS,37.387911825,-122.0868238679,9.772055445289944,1.3420866,5.6314025,214.71825,1676151585999,0.26802474,16.307827,186780527231000,6.3067803,Walk
Fix,FLP,37.3878723,-122.0868412,-0.5000001192092896,1.3114291,6.332,207.57762,1676151588006,,,186780699278749,0.93507624,Walk
Fix,FLP,37.3878673,-122.0868446,-0.5000001192092896,1.311355,6.381,207.38608,1676151588548,,,186781241786928,0.93507624,Walk
Fix,GPS,37.3879028612,-122.0868319447,9.405845311698272,1.320518,5.5974016,212.7058,1676151586999,0.2675376,16.147053,186781527422000,6.2517323,Walk
Fix,FLP,37.3878632,-122.0868478,-0.5000001192092896,1.3100729,6.448,207.09592,1676151589091,,,186781784291749,0.9450763,Walk
Fix,FLP,37.3878583,-122.0868514,-0.5000001192092896,1.3103923,6.489,207.11617,1676151589632,,,186782326801270,0.9450763,Walk
Fix,GPS,37.3878972653,-122.0868453651,9.274741998636362,1.3109199,5.536912,210.8962,1676151587999,0.26649576,13.538203,186782527248000,6.216601,Walk
Fix,FLP,37.3878535,-122.0868551,-2.583924664230146,1.3089039,6.543,207.15622,1676151590176,,,186782869305787,0.95992166,Walk
Fix,FLP,37.3878487,-122.0868581,-2.583924664230146,1.3085725,6.584,206.9983,1676151590717,,,186783411813112,0.95992166,Walk
Fix,GPS,37.3878900071,-122.0868560032,9.277279376807131,1.2941713,5.566739,208.69705,1676151588999,0.27441466,15.872258,186783527291000,6.2021503,Walk
Fix,NLP,37.3880515,-122.0862698,-0.5000001192092896,,34.83,,1676151590846,,,186783540000000,2.279589,Walk
Fix,FLP,37.3878461,-122.0868579,-2.583924664230146,1.3010806,6.632,206.68129,1676151591261,,,186783954315065,0.95424646,Walk
Fix,FLP,37.3878432,-122.0868579,-2.583924664230146,1.2965212,6.665,206.61836,1676151591802,,,186784496826844,0.95424646,Walk
Fix,GPS,37.3878822909,-122.0868621475,9.375010368383249,1.2623202,5.5965095,202.92796,1676151589999,0.27185586,14.634985,186784527535000,6.1919637,Walk
Fix,FLP,37.3878407,-122.0868569,-0.5000001192092896,1.2846867,6.681,206.03462,1676151592327,,,186785020360292,0.9643565,Walk
Fix,FLP,37.3878369,-122.0868577,-0.5000001192092896,1.2785122,6.715,205.44096,1676151592888,,,186785581838258,0.9643565,Walk
Fix,GPS,37.387868962,-122.0868668733,9.315766775601256,1.2746898,5.5199575,202.2664,1676151590999,0.2542191,11.964551,186785527321000,6.158245,Walk
Fix,FLP,37.3878321,-122.0868591,-0.5000001192092896,1.2708441,6.741,204.65468,1676151593431,,,186786124339967,0.99843115,Walk
Fix,GPS,37.3878547118,-122.0868702181,8.762191985665112,1.2910185,5.518595,206.81268,1676151591999,0.26610208,14.248737,186786527337000,6.1289067,Walk
Fix,FLP,37.3878272,-122.0868612,-0.5000001192092896,1.2691674,6.788,204.33783,1676151593979,,,186786673000000,0.99843115,Walk
Fix,FLP,37.3878203,-122.086865,-0.5000001192092896,1.2686306,6.837,204.04575,1676151594516,,,186787209355103,0.9842465,Walk
Fix,GPS,37.3878450245,-122.08687539,8.34767883916707,1.2753693,5.543359,211.71268,1676151592999,0.27070585,12.22451,186787527363000,6.10248,Walk
Fix,FLP,37.3878163,-122.0868679,-0.5000001192092896,1.2684655,6.875,204.09314,1676151595016,,,186787710000000,1.0180311,Walk
Fix,FLP,37.3878099,-122.0868725,-0.5000001192092896,1.2706407,6.895,204.28815,1676151595560,,,186788253000000,1.0180311,Walk
Fix,GPS,37.3878302649,-122.0868845842,8.230700906950757,1.3112516,5.610988,213.90385,1676151593999,0.28482372,14.061092,186788527364000,6.068287,Walk
Fix,FLP,37.3878044,-122.086877,-0.5000001192092896,1.2738401,6.926,204.64754,1676151596063,,,186788756000000,1.0280411,Walk
Fix,NLP,37.3876106,-122.086757,-1.0000001192092896,,19.782,,1676151595964,,,186788658000000,1.0,Walk
Fix,FLP,37.3877973,-122.0868822,-0.5000001192092896,1.2783856,6.937,204.81554,1676151596577,,,186789270877504,1.0280411,Walk
Fix,GPS,37.3878174958,-122.0868903482,8.092406334727274,1.3195934,5.695903,216.41742,1676151594999,0.29898977,14.800207,186789527357000,6.0598674,Walk
Fix,FLP,37.3877825,-122.0868899,-1.0000001192092896,1.2872877,6.926,205.06557,1676151597107,,,186789800000000,0.9563834,Walk
Fix,FLP,37.3877735,-122.0868936,-1.0000001192092896,1.29398,6.947,205.02794,1676151597638,,,186790331000000,0.9563834,Walk
Fix,GPS,37.3878071943,-122.0868942262,7.87590063071889,1.3060186,5.8031416,218.82483,1676151595999,0.29688025,12.84359,186790527567000,6.0467772,Walk
Fix,FLP,37.3877598,-122.0868995,-1.0000001192092896,1.3002433,6.965,205.02434,1676151598204,,,186790898394288,0.9716343,Walk
Fix,GPS,37.3877960872,-122.0869032678,7.812932993816052,1.3149465,5.951076,215.3947,1676151596999,0.2955515,12.895567,186791527435000,6.051723,Walk
Fix,FLP,37.3877561,-122.0869015,-1.0000001192092896,1.3033373,6.964,204.98422,1676151598746,,,186791440899049,0.98164433,Walk
Fix,FLP,37.3877463,-122.086907,-1.0000001192092896,1.30476,6.958,204.97247,1676151599290,,,186791983400087,0.98164433,Walk
Fix,GPS,37.3877833791,-122.086914095,7.840056845254923,1.341666,6.0309205,217.42584,1676151597999,0.2845525,12.101367,186792527440000,6.0276184,Walk
Fix,FLP,37.3877435,-122.0869087,-1.0000001192092896,1.3075224,6.961,205.04205,1676151599831,,,186792525909730,0.99233514,Walk
Fix,FLP,37.3877339,-122.0869147,-1.0000001192092896,1.3095005,6.961,205.18779,1676151600374,,,186793068414918,0.99233514,Walk
Fix,GPS,37.3877698933,-122.086926409,8.052171881455488,1.3743647,6.0600414,226.70003,1676151598999,0.2866494,14.821176,186793527402000,6.0262527,Walk
Fix,FLP,37.3877316,-122.0869162,-1.0000001192092896,1.3129553,6.969,205.19307,1676151600917,,,186793610919740,1.0023152,Walk
Fix,NLP,37.3876373,-122.0870407,-1.0000001192092896,,18.686,,1676151600977,,,186793670000000,1.0,Walk
Fix,FLP,37.387718,-122.086925,-1.0000001192092896,1.3214798,6.992,205.21033,1676151601459,,,186794153420289,0.938405,Walk
Fix,GPS,37.3877556786,-122.0869363043,8.38232704135043,1.3995924,6.0661654,224.5107,1676151599999,0.29054007,14.48616,186794527417000,6.0125403,Walk
Fix,FLP,37.3877092,-122.0869312,-1.0000001192092896,1.3308842,6.998,205.30284,1676151602001,,,186794695929750,0.94894403,Walk
Fix,FLP,37.3877012,-122.0869359,-1.0000001192092896,1.3373278,6.986,205.4485,1676151602545,,,186795238432679,0.94894403,Walk
Fix,GPS,37.3877474502,-122.0869457806,8.54048187499906,1.379711,6.0717297,225.54913,1676151600999,0.2688041,13.815647,186795527451000,6.004423,Walk
Fix,FLP,37.3876941,-122.08694,-1.0000001192092896,1.3443481,6.953,205.84956,1676151603086,,,186795780939760,0.957395,Walk
Fix,FLP,37.3876875,-122.0869445,-1.0000001192092896,1.3458306,6.944,206.43883,1676151603630,,,186796323440553,0.957395,Walk
Fix,GPS,37.3877377192,-122.0869552766,8.585544694959784,1.3718504,6.031041,229.73,1676151601999,0.25965643,13.158924,186796527504000,5.982167,Walk
Fix,FLP,37.3876814,-122.0869495,-1.0000001192092896,1.3443397,6.911,207.66312,1676151604171,,,186796865949769,0.967395,Walk
Fix,FLP,37.3876764,-122.0869543,-1.0000001192092896,1.3434095,6.907,208.35991,1676151604715,,,186797408455018,0.967395,Walk
Fix,GPS,37.3877270446,-122.0869676044,8.426391130159159,1.3802888,5.9613166,234.6054,1676151602999,0.25525075,16.447987,186797527514000,5.9592705,Walk
Fix,FLP,37.3876711,-122.0869591,-1.0000001192092896,1.343478,6.9,209.34164,1676151605257,,,186797950962098,0.97763497,Walk
Fix,FLP,37.387665,-122.0869637,-1.0000001192092896,1.3454119,6.896,209.62695,1676151605800,,,186798493460206,0.97763497,Walk
Fix,GPS,37.3877213258,-122.0869787163,8.546705036035226,1.3538158,6.001732,228.88205,1676151603999,0.26254568,15.935385,186798527519000,5.946423,Walk
Fix,NLP,37.3876295,-122.0869803,-1.0000001192092896,,24.285,,1676151606044,,,186798737000000,1.0,Walk
Fix,FLP,37.3876589,-122.0869677,0.7723012802080049,1.3477995,6.877,210.08623,1676151606327,,,186799020360292,0.93188834,Walk
Fix,GPS,37.387713997,-122.0869913105,8.87886361187513,1.3441265,5.912122,218.67688,1676151604999,0.25286165,16.563414,186799527531000,5.906736,Walk
Fix,FLP,37.3876526,-122.0869716,0.7723012802080049,1.3485013,6.892,210.0573,1676151606884,,,186799578477539,0.93188834,Walk
Fix,FLP,37.3876461,-122.086975,-1.0000001192092896,1.3474045,6.907,210.01219,1676151607427,,,186800120979066,0.9346461,Walk
Fix,GPS,37.3877067902,-122.0870016472,8.956288022604696,1.3222926,5.744644,220.22958,1676151605999,0.24293317,15.99833,186800527570000,5.835596,Walk
Fix,FLP,37.3876417,-122.0869775,-1.0000001192092896,1.3478645,6.943,210.12898,1676151607970,,,186800663479371,0.94552195,Walk
Fix,FLP,37.3876354,-122.086981,-1.0000001192092896,1.3450608,6.991,210.36197,1676151608498,,,186801192000000,0.94552195,Walk
Fix,GPS,37.3877004662,-122.087014059,8.770587949293382,1.3078189,5.523766,228.09927,1676151606999,0.24442193,18.557827,186801527571000,5.75504,Walk
Fix,FLP,37.3876317,-122.086984,1.366752375572311,1.3391511,7.021,210.76978,1676151609056,,,186801750000000,0.95553195,Walk
Fix,GPS,37.3876953716,-122.0870290293,8.78688123992895,1.3046072,5.3004766,233.40486,1676151607999,0.24568267,17.957548,186802527586000,5.6637464,Walk
Fix,FLP,37.3876253,-122.0869889,0.8464977983431865,1.3336759,7.049,211.25266,1676151609597,,,186802291000978,0.96989834,Walk
Fix,FLP,37.3876189,-122.0869934,0.8464977983431865,1.3295954,7.075,211.5746,1676151610139,,,186802833489564,0.96989834,Walk
Fix,GPS,37.3876915989,-122.0870433827,9.311872537871592,1.2936251,5.1444435,237.9921,1676151608999,0.22864117,17.56258,186803527609000,5.5710287,Walk
Fix,FLP,37.3876155,-122.0869961,0.8464977983431865,1.3295556,7.097,211.68074,1676151610682,,,186803376006166,0.9798883,Walk
Fix,NLP,37.3873826,-122.0874066,-1.0000001192092896,,32.694,,1676151611091,,,186803784000000,1.0,Walk
Fix,FLP,37.3876061,-122.0870042,-1.0000001192092896,1.3309197,7.173,211.898,1676151611225,,,186803918512269,0.9242583,Walk
Fix,GPS,37.3876866601,-122.0870584895,9.464271057160284,1.2907737,5.1016207,234.55676,1676151609999,0.22888379,19.059248,186804527823000,5.491337,Walk
Fix,FLP,37.3876013,-122.0870084,-1.0000001192092896,1.3355228,7.202,211.90123,1676151611768,,,186804461013978,0.9323938,Walk
Fix,FLP,37.3875912,-122.0870166,-1.0000001192092896,1.3351029,7.242,211.52142,1676151612309,,,186805003512513,0.9323938,Walk
Fix,GPS,37.3876800685,-122.0870691088,9.923475506974873,1.2696011,5.0427294,227.72995,1676151610999,0.22772847,16.706913,186805527622000,5.4165945,Walk
Fix,FLP,37.3875876,-122.087019,-1.0000001192092896,1.3353045,7.248,211.31943,1676151612853,,,186805546018861,0.936056,Walk
Fix,FLP,37.3875789,-122.0870254,-1.0000001192092896,1.330028,7.242,211.06981,1676151613395,,,186806088529115,0.936056,Walk
Fix,GPS,37.3876750971,-122.0870791866,10.3318638674838,1.2389591,5.007432,233.39166,1676151611999,0.2293456,19.536255,186806527615000,5.362439,Walk
Fix,FLP,37.3875762,-122.0870276,-1.0000001192092896,1.3291668,7.244,211.10268,1676151613938,,,186806631021242,0.9522983,Walk
Fix,FLP,37.3875683,-122.0870343,-1.0000001192092896,1.3211716,7.245,211.14839,1676151614480,,,186807173532289,0.9522983,Walk
Fix,GPS,37.3876674043,-122.0870916005,10.692896275529709,1.2391338,5.056074,236.38556,1676151612999,0.23811364,15.251584,186807527648000,5.3295302,Walk
Fix,FLP,37.3875652,-122.0870392,0.7057808176131246,1.3115687,7.213,211.30077,1676151615023,,,186807716038881,0.9622983,Walk
Fix,FLP,37.3875604,-122.0870439,0.7057808176131246,1.3084731,7.211,211.32036,1676151615565,,,186808258545106,0.9622983,Walk
Fix,GPS,37.3876607203,-122.0871101809,10.948473394084884,1.2712148,5.109482,243.16782,1676151613999,0.24825315,16.137287,186808527661000,5.305724,Walk
Fix,NLP,37.3874184,-122.0873818,-1.0000001192092896,,23.704,,1676151616083,,,186808776000000,1.3985984,Walk
Fix,FLP,37.3875577,-122.0870479,-1.0000001192092896,1.3038433,7.188,211.33333,1676151616108,,,186808801048707,0.98986876,Walk
Fix,FLP,37.38755,-122.087059,-1.0000001192092896,1.3062985,7.168,211.48186,1676151616649,,,186809343548036,0.98986876,Walk
Fix,GPS,37.3876559849,-122.0871243948,11.067135993637358,1.2671753,5.202096,250.2166,1676151614999,0.2520401,17.785387,186809527805000,5.304415,Walk
Fix,FLP,37.3875434,-122.087071,0.7057808176131246,1.3090142,7.174,211.76118,1676151617193,,,186809886056520,0.9380076,Walk
Fix,FLP,37.3875386,-122.087078,0.7057808176131246,1.309483,7.234,211.88448,1676151617735,,,186810428562501,0.9380076,Walk
Fix,GPS,37.3876501532,-122.0871364971,11.524073847890968,1.2545509,5.229448,247.99866,1676151615999,0.2710772,20.603779,186810527700000,5.2934985,Walk
Fix,FLP,37.387534,-122.087088,-1.0000001192092896,1.3072199,7.388,212.27664,1676151618277,,,186810971063783,0.94989836,Walk
Fix,FLP,37.3875295,-122.0870953,-1.0000001192092896,1.3061222,7.554,212.52086,1676151618819,,,186811513562562,0.94989836,Walk
Fix,GPS,37.3876457794,-122.0871475904,11.534103014728318,1.230538,5.39369,243.08734,1676151616999,0.27410954,22.220608,186811527714000,5.3063526,Walk
Fix,FLP,37.3875257,-122.0871063,-1.0000001192092896,1.300618,7.815,213.22624,1676151619327,,,186812020360292,0.9778137,Walk
Fix,FLP,37.3875224,-122.0871137,-1.0000001192092896,1.29714,8.092,213.75757,1676151619905,,,186812598572815,0.9778137,Walk
Fix,GPS,37.3876408822,-122.0871550871,11.801502784181592,1.1907781,5.4652023,236.091,1676151617999,0.28001004,21.858557,186812527704000,5.313221,Walk
Fix,FLP,37.3875189,-122.087125,0.8828287447377932,1.2883991,8.461,214.7085,1676151620448,,,186813141078187,0.98189914,Walk
Fix,GPS,37.387634759,-122.0871632877,11.76411341254701,1.1653198,5.5719614,237.23178,1676151618999,0.29168856,21.989271,186813527768000,5.326896,Walk
Fix,FLP,37.3875157,-122.0871321,0.8828287447377932,1.284179,8.821,214.95964,1676151620957,,,186813650000000,0.98189914,Walk
Fix,NLP,37.3872834,-122.0874088,-0.8999999761581421,,19.723,,1676151621157,,,186813850000000,1.2513164,Walk
Fix,FLP,37.3875113,-122.0871512,1.013348112679374,1.2819679,9.355,215.65154,1676151621482,,,186814175000000,0.9619704,Walk
Fix,GPS,37.387628344,-122.0871747301,11.720162070591336,1.1622908,5.70973,235.01749,1676151619999,0.29823107,19.043444,186814527789000,5.3717537,Walk
Fix,FLP,37.3875032,-122.0871797,4.04942804113098,1.2832083,9.687,216.66739,1676151622075,,,186814768589600,0.954629,Walk
Fix,GPS,37.3876245672,-122.0871922935,11.807462803488011,1.186976,5.7658925,244.80489,1676151620999,0.30410424,23.559822,186815527736000,5.4155064,Walk
Fix,FLP,37.3875022,-122.0871896,2.589598755507822,1.2774037,9.736,217.52719,1676151622617,,,186815311092042,0.96362686,Walk
Fix,FLP,37.3875013,-122.0872086,2.589598755507822,1.2589483,9.747,219.69386,1676151623159,,,186815853589662,0.96362686,Walk
Fix,GPS,37.3876176661,-122.0872110598,11.94813187717224,1.2270436,5.689004,246.87566,1676151621999,0.29192707,20.0262,186816527776000,5.4527707,Walk
Fix,FLP,37.387501,-122.0872173,2.589598755507822,1.2448268,9.713,221.23624,1676151623703,,,186816396098939,0.9736236,Walk
Fix,FLP,37.3875003,-122.087233,2.589598755507822,1.216273,9.637,223.9228,1676151624244,,,186816938601685,0.9736236,Walk
Fix,GPS,37.3876142544,-122.087224171,12.06450127078575,1.2141244,5.6850076,290.09598,1676151622999,0.27304617,28.992077,186817527824000,5.504979,Walk
Fix,FLP,37.3875017,-122.0872425,2.589598755507822,1.1868474,9.509,226.76428,1676151624788,,,186817481105348,0.9836236,Walk
Fix,FLP,37.3875037,-122.0872594,2.589598755507822,1.1437807,9.273,230.82127,1676151625327,,,186818020360292,0.9836236,Walk
Fix,GPS,37.3876135896,-122.0872381704,11.718943601488048,1.2032864,5.632197,311.36868,1676151623999,0.2468443,20.247112,186818527814000,5.501092,Walk
Fix,FLP,37.3875079,-122.087267,2.804564799228409,1.1068895,9.085,234.60197,1676151625873,,,186818566111879,0.9936136,Walk
Fix,NLP,37.3874734,-122.0872902,-1.0000001192092896,,29.068,,1676151626184,,,186818877000000,1.0,Walk
Fix,FLP,37.3875148,-122.0872882,2.804564799228409,1.0540477,8.603,241.91867,1676151626414,,,186819108615297,0.9422886,Walk
Fix,GPS,37.3876156127,-122.0872482232,11.041754006361106,1.1704152,5.645757,306.39032,1676151624999,0.27085534,18.560455,186819527803000,5.5129843,Walk
Fix,FLP,37.3875183,-122.0872927,6.26678285223332,1.0559834,8.52,242.26855,1676151626958,,,186819651118226,0.92974615,Walk
Fix,FLP,37.3875248,-122.087308,6.26678285223332,1.0236988,8.325,246.30766,1676151627500,,,186820193616761,0.92974615,Walk
Fix,GPS,37.3876192307,-122.0872592966,10.702813689600992,1.1529385,5.7334003,296.36877,1676151625999,0.2739743,17.196646,186820527804000,5.5476737,Walk
Fix,FLP,37.3875338,-122.0873158,-1.0000001192092896,0.97319895,8.15,253.05815,1676151628043,,,186820736127198,0.9728628,Walk
Fix,FLP,37.3875392,-122.0873234,-1.0000001192092896,0.95586485,8.113,256.61298,1676151628585,,,186821278627320,0.9728628,Walk
Fix,GPS,37.3876228721,-122.0872734677,10.325485138054836,1.1576835,5.74983,310.63565,1676151626999,0.26082045,15.581221,186821527849000,5.5814924,Walk
Fix,FLP,37.3875482,-122.0873307,-1.0000001192092896,0.93100727,8.027,262.88266,1676151629127,,,186821821130189,0.97295743,Walk
Fix,FLP,37.3875535,-122.0873385,-1.0000001192092896,0.9259896,7.975,266.06125,1676151629669,,,186822363628785,0.97295743,Walk
Fix,GPS,37.3876305261,-122.0872840306,9.340845123899715,1.1563132,5.7639165,326.0316,1676151627999,0.24688146,16.814924,186822527934000,5.6176147,Walk
Fix,FLP,37.3875618,-122.0873469,-1.0000001192092896,0.9238947,7.904,271.4889,1676151630213,,,186822906136049,0.9856053,Walk
Fix,FLP,37.3875669,-122.0873544,-1.0000001192092896,0.9285289,7.823,274.06448,1676151630754,,,186823448638978,0.9856053,Walk
Fix,GPS,37.3876342446,-122.0872957232,8.599795002382688,1.1423119,5.7502,331.5295,1676151628999,0.2410194,18.074587,186823527860000,5.613485,Walk
Fix,NLP,37.387571,-122.0874681,-1.100000023841858,,23.357,,1676151631217,,,186823910000000,1.0,Walk
Fix,FLP,37.3875736,-122.0873613,-1.100000023841858,0.94023216,7.708,278.1613,1676151631298,,,186823991141603,0.94153357,Walk
