Fix,Provider,LatitudeDegrees,LongitudeDegrees,AltitudeMeters,SpeedMps,AccuracyMeters,BearingDegrees,UnixTimeMillis,SpeedAccuracyMps,BearingAccuracyDegrees,elapsedRealtimeNanos,VerticalAccuracyMeters,TransitType
Fix,FLP,37.4273084,-122.1563402,-14.100000381469728,0.5474074,41.576,250.99355,1678231712683,,,1666524691000000,10.483304,Walk
Fix,GPS,37.4274226535,-122.156395259,-9.309872088228833,0.75883734,19.97911,217.41118,1678231711998,0.31803223,25.0,1666525618892000,24.998312,Walk
Fix,FLP,37.4274119,-122.1563904,-14.100000381469728,0.75598824,28.722,217.2692,1678231713610,0.31803223,25.0,1666525618892000,10.119375,Walk
Fix,GPS,37.427416638,-122.1564019695,-12.420456959121395,0.7955562,20.114647,221.7213,1678231712998,0.36494973,26.137218,1666526618919000,22.59735,Walk
Fix,FLP,37.4274123,-122.1563974,-14.100000381469728,0.7822687,25.823,219.65637,1678231714610,0.36494973,26.137218,1666526618919000,10.150441,Walk
Fix,GPS,37.4274106108,-122.1564103593,-14.17998164156945,0.8540942,20.254728,218.54138,1678231713998,0.46335903,26.093618,1666527618921000,20.788034,Walk
Fix,FLP,37.4274091,-122.1564043,-14.100000381469728,0.8253417,22.593,219.36601,1678231715610,0.46335903,26.093618,1666527618921000,10.063373,Walk
Fix,GPS,37.4274032549,-122.1564171016,-16.48065757932313,0.888691,20.406078,221.61168,1678231714998,0.4559694,30.644056,1666528619008000,19.361883,Walk
Fix,FLP,37.427404,-122.1564111,-14.100000381469728,0.8688153,22.245,219.68515,1678231716610,0.4559694,30.644056,1666528619008000,10.150415,Walk
Fix,GPS,37.427395996,-122.1564216627,-22.525051418517755,0.8906722,20.567225,215.36629,1678231715998,0.53218174,38.594967,1666529619027000,18.203306,Walk
Fix,FLP,37.4273984,-122.1564182,-14.100000381469728,0.88575166,21.833,219.5008,1678231717611,0.53218174,38.594967,1666529619027000,10.160485,Walk
Fix,NLP,37.4270114,-122.1566322,-14.100000381469728,,72.9,,1678231717748,,,1666529757000000,7.98768,Walk
Fix,FLP,37.4273974,-122.1564193,-14.100000381469728,0.8858168,20.632,219.50194,1678231717749,0.53218174,38.594967,1666529757000000,8.590989,Walk
Fix,GPS,37.4273892568,-122.1564267394,-22.03890715072373,0.887298,20.750643,215.36629,1678231716998,0.6407457,180.0,1666530619010000,17.241072,Walk
Fix,FLP,37.4273922,-122.1564248,-14.100000381469728,0.88615465,20.377,219.41423,1678231718610,0.6407457,180.0,1666530619010000,8.787609,Walk
Fix,GPS,37.4273820603,-122.1564329783,-24.975309338232417,0.9040998,20.95405,220.1151,1678231717998,0.6052652,38.29074,1666531619006000,16.427448,Walk
Fix,FLP,37.4273862,-122.1564306,-21.39034067344734,0.87973875,21.452,218.2,1678231719710,,,1666531718851519,8.178573,Walk
Fix,FLP,37.4273801,-122.1564368,-21.39034067344734,0.875827,22.855,217.47278,1678231720253,,,1666532261356584,8.178573,Walk
Fix,GPS,37.4273738355,-122.1564413856,-25.7297201907978,0.9485588,21.151058,212.54486,1678231718998,0.52835745,30.580774,1666532619025000,15.731287,Walk
Fix,FLP,37.4273768,-122.1564407,-15.0,0.8808899,22.719,217.77203,1678231720794,,,1666532803860491,8.426735,Walk
Fix,FLP,37.4273744,-122.1564435,-15.0,0.8822174,22.834,218.38968,1678231721338,,,1666533346366534,8.816549,Walk
Fix,GPS,37.4273631307,-122.1564462074,-27.46653951608898,1.0020664,21.342392,198.02217,1678231719998,0.5268887,28.146439,1666533619054000,15.12975,Walk
Fix,FLP,37.4273718,-122.156447,-15.0,0.88690853,22.447,219.56946,1678231721880,,,1666533888870746,8.816549,Walk
Fix,GPS,37.4273542729,-122.15645563,-27.08579366724756,1.0353692,21.521128,204.97588,1678231720998,0.49227688,30.064745,1666534619114000,14.604188,Walk
Fix,FLP,37.4273696,-122.15645,-11.33628744675076,0.8912747,22.434,220.11708,1678231722423,,,1666534431374773,8.826539,Walk
Fix,NLP,37.4270393,-122.1568118,-14.100000381469728,,44.424,,1678231722754,,,1666534762000000,6.48978,Walk
Fix,FLP,37.4273663,-122.1564544,-9.986744959852302,0.9054435,21.786,221.17766,1678231722965,,,1666534973880938,8.646747,Walk
Fix,GPS,37.4273445504,-122.1564588551,-26.04330830103136,1.0461762,21.692581,195.5713,1678231721998,0.47840714,28.459742,1666535619071000,14.14003,Walk
Fix,FLP,37.4273639,-122.1564569,-11.33628744675076,0.91144586,21.649,221.29503,1678231723508,,,1666535516375140,8.655716,Walk
Fix,FLP,37.4273598,-122.156461,-11.33628744675076,0.9228717,21.168,221.52034,1678231724050,,,1666536058890154,8.655716,Walk
Fix,GPS,37.427326174,-122.1564466969,-23.15618736973652,1.147294,17.864882,183.02841,1678231722998,0.60561174,32.51327,1666536619347000,12.349071,Walk
Fix,FLP,37.4273575,-122.1564633,-11.33628744675076,0.9279436,20.082,221.84242,1678231724592,,,1666536601383685,8.665716,Walk
Fix,FLP,37.4273524,-122.1564675,-11.33628744675076,0.94099456,18.854,221.78882,1678231725134,,,1666537143898271,8.665716,Walk
Fix,GPS,37.4273089909,-122.1564391526,-22.482282359271878,1.1970348,15.597191,183.02841,1678231723998,0.78089136,45.20709,1666537619144000,11.758764,Walk
Fix,FLP,37.42735,-122.156469,-10.620540431492714,0.9469959,18.496,221.17189,1678231725677,,,1666537686403215,8.676766,Walk
Fix,FLP,37.427343,-122.1564725,-10.620540431492714,0.9599128,17.984,219.80025,1678231726220,,,1666538228905352,8.676766,Walk
Fix,GPS,37.4272962888,-122.1564352803,-21.801014211017293,1.1974636,14.66401,183.02841,1678231725000,0.87878305,57.973873,1666538619153000,11.317404,Walk
Fix,FLP,37.4273397,-122.1564736,-10.620540431492714,0.9665818,17.891,219.01143,1678231726762,,,1666538771406573,8.735774,Walk
Fix,FLP,37.4273301,-122.1564763,-10.620540431492714,0.97492665,17.773,216.87813,1678231727305,,,1666539313898027,8.735774,Walk
Fix,GPS,37.4272513672,-122.1564039643,-21.53803912415034,0.90758246,12.904163,183.02841,1678231726000,0.859154,57.922367,1666539619464000,10.945097,Walk
Fix,NLP,37.4270322,-122.1568587,-14.100000381469728,,28.596,,1678231727802,,,1666539810000000,3.217379,Walk
Fix,FLP,37.4273203,-122.1564725,-8.374494456881443,0.9560124,17.45,212.86092,1678231727848,,,1666539856413652,5.2737265,Walk
Fix,FLP,37.4273031,-122.1564788,-8.374494456881443,0.9514147,17.125,210.42653,1678231728390,,,1666540398913958,5.2737265,Walk
Fix,GPS,37.4272395579,-122.156404851,-21.79107569038047,1.0844479,12.070429,200.3018,1678231727000,0.7020717,26.322708,1666540619209000,10.660923,Walk
Fix,FLP,37.4272858,-122.1564912,-7.478073017985324,0.9730053,16.664,210.14584,1678231728892,,,1666540901481830,5.300333,Walk
Fix,FLP,37.4272763,-122.1564975,-7.478073017985324,0.985282,16.519,209.99782,1678231729475,,,1666541483915850,5.300333,Walk
Fix,GPS,37.427226811,-122.1564129569,-21.795335645422224,1.2696174,11.450859,208.08485,1678231728000,0.69804114,25.0,1666541619205000,10.4272175,Walk
Fix,FLP,37.4272624,-122.1565057,-2.295197724100049,1.0114917,16.113,209.54295,1678231730018,,,1666542026417314,5.313835,Walk
Fix,FLP,37.4272537,-122.1565104,-2.295197724100049,1.0264432,15.997,209.07831,1678231730551,,,1666542559000000,5.313835,Walk
Fix,GPS,37.4272066686,-122.1564159345,-21.286471226252917,1.5242217,10.95311,208.5617,1678231729000,0.7048855,27.694674,1666542619185000,10.2284775,Walk
Fix,FLP,37.427241,-122.156516,-2.2237399938262854,1.0602703,15.616,207.94496,1678231731103,,,1666543111413714,5.323855,Walk
Fix,FLP,37.4272328,-122.1565193,-2.2237399938262854,1.080448,15.525,207.2135,1678231731608,,,1666543616000000,5.323855,Walk
Fix,GPS,37.4271977432,-122.1564228705,-21.63528629168063,1.42512,10.826983,193.63141,1678231730000,0.74855834,33.164722,1666543619230000,10.105991,Walk
Fix,FLP,37.4272211,-122.1565228,-1.8111991595032109,1.1127449,15.19,205.91989,1678231732166,,,1666544175000000,5.333825,Walk
Fix,FLP,37.4272132,-122.1565255,-1.8111991595032109,1.1271706,15.0,205.3576,1678231732670,,,1666544678000000,5.333825,Walk
Fix,GPS,37.4271970695,-122.1564489204,-19.995279896097447,1.5680993,10.02616,186.61127,1678231731000,0.5850499,29.780287,1666544619240000,9.769293,Walk
Fix,FLP,37.4272011,-122.1565283,-5.735096883131476,1.1586806,15.049,204.42435,1678231733273,,,1666545281000000,5.343095,Walk
Fix,NLP,37.4269931,-122.156843,-14.200000762939451,,42.05,,1678231732856,,,1666544864000000,2.0714939,Walk
Fix,GPS,37.4271840595,-122.1564469915,-19.975481072652286,1.5284263,9.820141,193.55229,1678231732000,0.71406704,30.871489,1666545619282000,9.678213,Walk
Fix,FLP,37.4271793,-122.156525,-5.735096883131476,1.214533,15.477,202.60481,1678231734367,,,1666546375000000,5.224178,Walk
Fix,GPS,37.4271764216,-122.1564549146,-20.343952522924443,1.4383872,9.813957,215.12654,1678231733000,0.7934241,38.383232,1666546619262000,9.597623,Walk
Fix,FLP,37.4271683,-122.1565088,-4.889565759339519,1.2379235,15.888,201.71214,1678231735407,,,1666547415000000,5.234208,Walk
Fix,GPS,37.4271644971,-122.1564627154,-20.47567392588264,1.4217596,9.748768,199.81569,1678231734000,0.7835229,39.035046,1666547619271000,9.476147,Walk
Fix,FLP,37.4271591,-122.1564993,-4.889565759339519,1.2528462,16.101,202.02805,1678231735985,,,1666547993881060,5.2409816,Walk
Fix,GPS,37.4271626584,-122.1564910104,-18.75039716487268,1.5359923,9.251545,198.00931,1678231735000,0.8474849,39.535683,1666548619223000,9.144092,Walk
Fix,FLP,37.4271572,-122.1564964,-3.814418432788834,1.2576518,16.117,201.73807,1678231736528,,,1666548536391130,5.253178,Walk
Fix,FLP,37.4271492,-122.1564969,-3.814418432788834,1.2712427,16.124,201.3432,1678231737070,,,1666549078885516,5.253178,Walk
Fix,GPS,37.4271478611,-122.1565004901,-18.32833825431287,1.5815132,8.85529,208.70105,1678231736000,0.6916517,25.233053,1666549619310000,8.947275,Walk
Fix,FLP,37.4271473,-122.1564976,-3.814418432788834,1.2813256,16.088,201.24677,1678231737613,,,1666549621375567,5.264208,Walk
Fix,NLP,37.4270164,-122.156812,-14.100000381469728,,44.926,,1678231737941,,,1666549949000000,2.9318926,Walk
Fix,FLP,37.4271377,-122.1565021,-6.5257082041422905,1.3080239,16.017,201.52972,1678231738155,,,1666550163875873,6.0932517,Walk
Fix,GPS,37.4271320667,-122.1565105921,-18.249564826174943,1.63923,8.730945,213.5893,1678231737000,0.6984473,25.0,1666550619307000,8.857918,Walk
Fix,FLP,37.4271369,-122.1565029,-7.687489630440389,1.3167843,15.996,202.14377,1678231738697,,,1666550706371356,6.0842795,Walk
Fix,FLP,37.4271263,-122.1565103,-7.687489630440389,1.3348335,15.823,203.48547,1678231739240,,,1666551248864519,6.0842795,Walk
Fix,GPS,37.4271195332,-122.156515807,-18.7237614862646,1.6233847,8.770359,212.54147,1678231738000,0.6743553,25.79642,1666551619309000,8.807484,Walk
Fix,FLP,37.4271207,-122.1565147,-6.819588631464789,1.3541985,15.554,204.5518,1678231739783,,,1666551791344988,6.0960927,Walk
Fix,FLP,37.4271144,-122.1565187,-6.819588631464789,1.3640479,15.387,205.03555,1678231740324,,,1666552333842547,6.0960927,Walk
Fix,GPS,37.4271122491,-122.1565233458,-19.322446456162787,1.5614612,8.726196,210.52922,1678231739000,0.7019778,33.831417,1666552619373000,8.776647,Walk
Fix,FLP,37.427108,-122.1565235,-7.687489630440389,1.3811556,15.276,205.7541,1678231740868,,,1666552876335162,6.105003,Walk
Fix,FLP,37.4271002,-122.156529,-7.687489630440389,1.3892927,15.179,206.01532,1678231741410,,,1666553418837298,6.105003,Walk
Fix,GPS,37.4271045315,-122.1565321891,-19.158836425907104,1.5154397,8.796106,201.07513,1678231740000,0.80174553,39.168922,1666553619327000,8.755115,Walk
Fix,FLP,37.4270935,-122.1565337,-7.687489630440389,1.3989081,15.131,205.8938,1678231741953,,,1666553961334490,6.1162925,Walk
Fix,GPS,37.4270963818,-122.1565375029,-19.233266540950535,1.4643586,8.942633,199.56793,1678231741000,1.2313867,34.409786,1666554619337000,8.777596,Walk
Fix,FLP,37.4270893,-122.156536,-9.773026269268378,1.4008079,15.123,205.37234,1678231742495,,,1666554503824664,6.1259828,Walk
Fix,FLP,37.4270831,-122.15654,-9.773026269268378,1.4021789,15.098,204.55528,1678231743037,,,1666555046320330,6.1259828,Walk
Fix,GPS,37.4270862733,-122.1565434209,-19.234007978402595,1.4418521,9.11034,211.4839,1678231742000,1.2490772,26.094046,1666555619330000,8.803996,Walk
Fix,FLP,37.4270798,-122.1565423,-9.60790416031189,1.4034258,15.068,204.33696,1678231743580,,,1666555588800554,6.1349826,Walk
Fix,FLP,37.4270725,-122.1565473,-9.60790416031189,1.4044007,15.11,204.58116,1678231744123,,,1666556131294451,6.1349826,Walk
Fix,GPS,37.4270783825,-122.1565582114,-19.061234832260425,1.4516358,9.3008995,224.41197,1678231743000,1.34903,25.0,1666556619374000,8.838408,Walk
Fix,FLP,37.42707,-122.1565497,-9.60790416031189,1.4044445,15.255,205.17212,1678231744665,,,1666556673788530,6.145013,Walk
Fix,FLP,37.4270628,-122.1565575,-9.60790416031189,1.403952,15.005,206.32275,1678231745207,,,1666557216291522,6.145013,Walk
Fix,GPS,37.4270711523,-122.1565699006,-19.5334809306224,1.4383066,9.296713,231.70374,1678231744000,0.7394591,28.104155,1666557619591000,8.833745,Walk
Fix,FLP,37.4270608,-122.1565605,-14.100000381469728,1.4065359,14.701,206.36066,1678231745750,,,1666557758782915,6.1559825,Walk
Fix,FLP,37.4270507,-122.1565694,-14.100000381469728,1.3989918,14.17,205.54308,1678231746293,,,1666558301276628,6.1559825,Walk
Fix,GPS,37.4270601233,-122.1565885069,-19.781102823853768,1.480933,9.256685,225.41975,1678231745000,0.7775119,29.834393,1666558619667000,8.818247,Walk
Fix,FLP,37.4270434,-122.1565764,-14.100000381469728,1.3973854,13.153,204.79474,1678231747378,,,1666559386261248,6.166043,Walk
Fix,GPS,37.4270550552,-122.156600369,-20.030278417716595,1.4519804,9.383857,237.64671,1678231746000,1.1094364,37.114765,1666559619435000,8.888591,Walk
Fix,FLP,37.4270359,-122.1565835,-18.27498747049207,1.3999298,11.751,205.15324,1678231747893,,,1666559901481830,6.1749825,Walk
Fix,GPS,37.4270583147,-122.1566196579,-19.95218910290181,1.4672558,9.334666,250.02402,1678231747000,1.0929159,31.53871,1666560619470000,8.940313,Walk
Fix,FLP,37.4270331,-122.1565869,-18.511284031905035,1.3996255,11.158,205.92786,1678231748462,,,1666560471242633,6.1859727,Walk
Fix,FLP,37.427027,-122.1565952,-18.511284031905035,1.3898665,9.856,207.93117,1678231749005,,,1666561013736346,6.1859727,Walk
Fix,GPS,37.4270597919,-122.1566392961,-20.25856374071912,1.4829108,9.367383,250.72762,1678231748000,1.1098484,27.881544,1666561619488000,8.978958,Walk
Fix,FLP,37.4270254,-122.1565996,-4.228021795403322,1.3759763,9.165,209.49153,1678231749548,,,1666561556229509,6.1960425,Walk
Fix,FLP,37.4270207,-122.1566112,-4.228021795403322,1.3471938,8.231,212.77608,1678231750090,,,1666562098719988,6.1960425,Walk
Fix,NLP,37.4270061,-122.1570014,-14.200000762939451,,36.9,,1678231750569,,,1666562577000000,3.3941984,Walk
Fix,FLP,37.4270207,-122.156616,-9.097540498880775,1.3362492,8.213,214.43855,1678231750633,,,1666562641212908,3.0680482,Walk
Fix,GPS,37.4270573424,-122.156654224,-20.611482113714118,1.4688107,9.533842,245.63661,1678231749000,1.1554307,28.803045,1666562619667000,9.015115,Walk
Fix,FLP,37.4270164,-122.1566331,-9.097540498880775,1.3160043,7.997,218.87619,1678231751175,,,1666563183702898,3.0801885,Walk
Fix,GPS,37.4270579805,-122.1566714651,-21.185460753737647,1.4697274,9.759473,253.7153,1678231750000,1.1786971,29.624624,1666563619520000,9.057173,Walk
Fix,FLP,37.4270154,-122.1566396,-11.632071335352371,1.3152797,8.022,220.19893,1678231751717,,,1666563726184222,3.0901985,Walk
Fix,FLP,37.4270104,-122.1566556,-11.632071335352371,1.3123273,7.963,222.80365,1678231752260,,,1666564268685503,3.0901985,Walk
Fix,GPS,37.4270577387,-122.1566893089,-21.383031955368143,1.4753549,9.991511,259.97708,1678231751000,1.1850551,28.082153,1666564619547000,9.091774,Walk
Fix,FLP,37.4270087,-122.1566665,-14.200000762939451,1.3075337,8.063,225.42163,1678231752803,,,1666564811174822,3.0880382,Walk
Fix,FLP,37.4270057,-122.1566758,-14.200000762939451,1.3027251,8.176,227.01224,1678231753344,,,1666565353656511,3.0880382,Walk
Fix,GPS,37.427060015,-122.1567070458,-21.36956976558476,1.4791652,10.27356,265.40613,1678231752000,1.2083608,32.99435,1666565619533000,9.129036,Walk
Fix,FLP,37.4270044,-122.1566868,-18.56192123013279,1.2956426,8.386,229.93011,1678231753887,,,1666565896159868,3.1101985,Walk
Fix,FLP,37.4270016,-122.1566965,-18.56192123013279,1.2962364,8.536,231.26529,1678231754430,,,1666566438649615,3.1101985,Walk
Fix,GPS,37.4270607239,-122.1567273924,-21.281316521131604,1.4976386,10.560215,258.12088,1678231753000,1.2268664,33.761444,1666566619584000,9.161438,Walk
Fix,FLP,37.4270002,-122.1567076,-20.53237634928042,1.300035,8.809,233.58469,1678231754971,,,1666566979000000,3.1201885,Walk
Fix,FLP,37.4269975,-122.1567175,-20.53237634928042,1.303326,8.992,234.74052,1678231755515,,,1666567523000000,3.1201885,Walk
Fix,NLP,37.4269945,-122.1569755,-14.200000762939451,,35.26,,1678231755653,,,1666567661000000,3.8353138,Walk
Fix,GPS,37.4270604112,-122.1567452869,-21.51520382718312,1.4991467,10.836395,268.13843,1678231754000,1.231193,30.18203,1666567619684000,9.187202,Walk
Fix,FLP,37.4269947,-122.156739,-5.385040434496695,1.3143762,9.623,237.73148,1678231756057,,,1666568066122821,3.7181304,Walk
Fix,GPS,37.4270592848,-122.1567662527,-21.767384427266958,1.5232031,11.10801,258.71014,1678231755000,1.2600394,29.370213,1666568619555000,9.2074375,Walk
Fix,FLP,37.426995,-122.1567436,-14.200000762939451,1.3177638,9.765,237.86574,1678231756600,,,1666568608611773,3.7280803,Walk
Fix,FLP,37.4269912,-122.1567621,-14.200000762939451,1.3250502,10.046,239.13382,1678231757143,,,1666569151099200,3.7280803,Walk
Fix,GPS,37.4270597391,-122.1567846747,-22.30181999804562,1.530167,11.360321,270.8599,1678231756000,1.2288526,27.079102,1666569619587000,9.226886,Walk
Fix,FLP,37.4269918,-122.1567659,-14.200000762939451,1.3309025,10.215,240.16841,1678231757684,,,1666569693592669,3.7380903,Walk
Fix,FLP,37.4269924,-122.1567824,-14.200000762939451,1.3302861,10.995,242.95958,1678231758228,,,1666570236072527,3.7380903,Walk
Fix,GPS,37.427059322,-122.1568087806,-22.353550894148476,1.5741143,11.565736,257.19302,1678231757000,1.2235613,27.429977,1666570619588000,9.249226,Walk
Fix,FLP,37.4269992,-122.1567915,-14.200000762939451,1.3329812,12.249,245.49214,1678231758770,,,1666570778573260,3.7470903,Walk
Fix,GPS,37.4270577878,-122.1568237817,-22.41572066263696,1.5521386,11.733635,251.86424,1678231758000,1.1129159,29.488037,1666571619613000,9.267633,Walk
Fix,FLP,37.4270016,-122.1568008,-18.264769340850272,1.3390139,13.042,246.44695,1678231759313,,,1666571321064470,3.1156032,Walk
Fix,FLP,37.4270079,-122.1568099,-18.264769340850272,1.3522129,14.084,247.63742,1678231759855,,,1666571863553240,3.1156032,Walk
Fix,FLP,37.4270092,-122.1568191,-18.264769340850272,1.3596396,14.959,247.97868,1678231760398,,,1666572406044146,3.1156032,Walk
Fix,GPS,37.4270552072,-122.1568389723,-22.65669943280931,1.5356805,11.882584,255.51558,1678231759000,1.1426833,27.17157,1666572619619000,9.289178,Walk
Fix,NLP,37.4270068,-122.1569896,-14.100000381469728,,30.586,,1678231760669,,,1666572677000000,3.855058,Walk
Fix,FLP,37.4270169,-122.1568332,-17.223389730903115,1.3764812,16.263,248.73857,1678231760940,,,1666572948532976,3.1139593,Walk
Fix,FLP,37.4270178,-122.1568462,-17.223389730903115,1.3802139,17.06,248.98645,1678231761483,,,1666573491024676,3.1139593,Walk
Fix,GPS,37.4270583855,-122.1568573433,-22.620143648679967,1.5384943,11.999729,264.28897,1678231760000,1.0817145,35.63314,1666573619683000,9.304788,Walk
Fix,FLP,37.4270218,-122.1568589,-18.067217247167846,1.3878497,17.625,249.80109,1678231762025,,,1666574033507159,2.8578947,Walk
Fix,FLP,37.4270224,-122.1568685,-18.067217247167846,1.3934847,18.665,249.43193,1678231762567,,,1666574575993365,2.8578947,Walk
Fix,GPS,37.4270568789,-122.1568651616,-23.34281560357448,1.465044,12.22136,264.28897,1678231761000,2.1920238,177.00919,1666574619663000,9.348246,Walk
Fix,FLP,37.4270246,-122.1568781,-17.132762880220177,1.3998704,19.377,248.81535,1678231763110,,,1666575118491168,3.2352276,Walk
Fix,FLP,37.4270241,-122.1568846,-17.132762880220177,1.3901154,19.483,247.63228,1678231763652,,,1666575660981646,3.2352276,Walk
Fix,GPS,37.4270431058,-122.1569007353,-22.35814748930873,1.2999152,11.447266,264.28897,1678231762000,1.5153637,95.97642,1666575619690000,9.146186,Walk
Fix,FLP,37.4270241,-122.1568951,-14.100000381469728,1.3773636,19.611,247.02295,1678231764195,,,1666576203469927,3.2442377,Walk
Fix,GPS,37.4270366454,-122.1569128924,-21.147804064700694,1.2965585,11.8110485,264.28897,1678231763000,0.8603091,121.85402,1666576620022000,9.2331505,Walk
Fix,FLP,37.4270239,-122.1569008,-7.423675376495638,1.3751853,19.643,246.8971,1678231764736,,,1666576745960405,2.8906674,Walk
Fix,GPS,37.4270300131,-122.1569305873,-20.38879175851205,1.4818916,10.383142,264.28897,1678231764000,1.8293297,79.6234,1666577619654000,8.942897,Walk
Fix,FLP,37.4270211,-122.156916,-3.389258790491347,1.3612067,19.598,245.77652,1678231765280,,,1666577288448381,2.8996174,Walk
Fix,FLP,37.4270168,-122.1569242,-3.389258790491347,1.313581,19.638,243.25958,1678231766344,,,1666578352000000,2.8996174,Walk
Fix,GPS,37.4270125569,-122.1569543492,-19.555010633982143,1.7737399,9.759634,215.18831,1678231765000,1.6306765,25.0,1666578619680000,8.904388,Walk
Fix,FLP,37.4270131,-122.1569299,-8.159349430958038,1.2929538,19.792,240.46988,1678231766887,,,1666578895000000,2.9100075,Walk
Fix,GPS,37.4269955032,-122.1569725498,-19.257604558515123,1.8943126,9.628204,210.62926,1678231766000,1.7691365,32.686787,1666579623655000,9.018645,Walk
Fix,FLP,37.4270085,-122.1569391,-12.364289909278495,1.3278579,19.288,239.74365,1678231767450,,,1666579458407366,2.9196074,Walk
Fix,FLP,37.4270012,-122.1569533,-12.364289909278495,1.3649312,18.622,238.44579,1678231767992,,,1666580000896929,2.9196074,Walk
Fix,FLP,37.4269974,-122.156962,-12.364289909278495,1.3874366,18.218,239.09187,1678231768535,,,1666580543383929,2.9196074,Walk
Fix,GPS,37.4269793605,-122.1569840413,-20.039604822058703,1.8890159,9.936147,210.62926,1678231767000,2.2819667,61.071896,1666580619778000,9.248491,Walk
Fix,FLP,37.4269898,-122.1569764,-18.27078591288864,1.4246002,17.719,238.73114,1678231769077,,,1666581085871234,2.9296074,Walk
Fix,GPS,37.4269662583,-122.1569941169,-20.906557948687794,1.7800109,10.441381,210.62926,1678231768000,2.416867,137.99474,1666581619772000,9.505734,Walk
Fix,FLP,37.4269845,-122.1569833,-19.86979413812793,1.4315246,17.492,237.0724,1678231769620,,,1666581628350847,2.9396174,Walk
Fix,FLP,37.4269753,-122.1569933,-19.86979413812793,1.4488697,17.136,234.49304,1678231770162,,,1666582170861528,2.9396174,Walk
Fix,NLP,37.4270111,-122.1569646,-14.100000381469728,,60.0,,1678231770611,,,1666582619000000,4.784952,Walk
Fix,FLP,37.4269699,-122.1569988,-30.241317197439315,1.4611864,17.215,233.69797,1678231770705,,,1666582713352862,2.8389463,Walk
Fix,GPS,37.4269518733,-122.1569999355,-21.804751969895115,1.7758803,11.31438,210.62926,1678231769000,1.0491512,118.3742,1666582619810000,9.811186,Walk
Fix,FLP,37.4269604,-122.1570075,-30.241317197439315,1.4889455,20.199,231.43346,1678231771229,,,1666583237000000,2.8389463,Walk
Fix,GPS,37.426932628,-122.1570040037,-22.591973744018905,1.8841596,12.439387,210.62926,1678231770000,1.1480861,40.49004,1666583619792000,10.132771,Walk
Fix,FLP,37.4269553,-122.1570142,-30.241317197439315,1.497112,23.435,230.72081,1678231771752,,,1666583760000000,2.8389463,Walk
Fix,FLP,37.4269433,-122.1570283,-32.03776132172524,1.523965,33.228,228.68613,1678231772332,,,1666584340835100,2.8508222,Walk
Fix,GPS,37.4269102355,-122.1570071232,-23.359886614875418,2.0202851,13.829573,210.62926,1678231771000,1.2394643,45.329437,1666584619787000,10.43813,Walk
Fix,FLP,37.4269358,-122.1570352,-31.47606594681861,1.5498917,37.337,227.38731,1678231772875,,,1666584883323992,2.86069,Walk
Fix,FLP,37.4269294,-122.1570413,-31.47606594681861,1.5653003,40.735,226.77434,1678231773416,,,1666585425817888,2.86069,Walk
Fix,GPS,37.4268713783,-122.1570341538,-23.35535164235908,1.4766763,14.855576,210.62926,1678231772000,1.3362293,25.0,1666585619827000,10.730919,Walk
Fix,FLP,37.4269203,-122.1570472,-26.424186292940316,1.5725206,44.18,225.59573,1678231773959,,,1666585968309587,2.8697102,Walk
Fix,FLP,37.4269142,-122.1570511,-26.424186292940316,1.5648966,45.564,224.8905,1678231774502,,,1666586510800921,2.8697102,Walk
Fix,GPS,37.4268417723,-122.1570477946,-23.467042573248445,1.5670263,16.164978,210.62926,1678231773000,1.4341633,180.0,1666586620052000,11.012384,Walk
Fix,FLP,37.4269039,-122.1570546,-25.482662455325677,1.557073,46.053,223.54575,1678231775044,,,1666587053295184,2.8796623,Walk
Fix,FLP,37.4268957,-122.1570591,-14.100000381469728,1.5570128,50.655,222.95587,1678231775587,,,1666587595779802,2.8896723,Walk
Fix,GPS,37.4268394072,-122.1570380752,-23.386933063107133,1.2133937,16.116108,210.62926,1678231774000,1.1985601,180.0,1666587619875000,11.303182,Walk
Fix,FLP,37.4268844,-122.1570617,-14.100000381469728,1.5392451,50.09,221.82898,1678231776129,,,1666588138269243,2.8896723,Walk
Fix,FLP,37.4268761,-122.1570655,-14.100000381469728,1.5220922,46.219,221.20387,1678231776652,,,1666588660000000,2.8896723,Walk
Fix,GPS,37.4268191967,-122.1570466295,-23.5869180845252,1.4949785,17.024807,210.62926,1678231775000,1.2231827,76.67586,1666588619905000,11.570025,Walk
Fix,FLP,37.4268576,-122.1570719,-10.025372515283635,1.4917992,37.845,219.57893,1678231777215,,,1666589223265337,2.899732,Walk
Fix,GPS,37.4268110386,-122.157039494,-24.095312934139564,1.2874833,17.94715,210.62926,1678231776000,3.620966,25.0,1666589619913000,11.810974,Walk
Fix,FLP,37.4268453,-122.1570743,-11.345686041702995,1.4813703,32.844,218.43349,1678231777757,,,1666589765758684,2.9098423,Walk
Fix,NLP,37.4270045,-122.1569885,-14.200000762939451,,72.9,,1678231778585,,,1666590593000000,6.176041,Walk
Fix,FLP,37.4268373,-122.1570765,-11.345686041702995,1.4719683,30.91,217.8546,1678231778300,,,1666590308249712,2.9098423,Walk
Fix,GPS,37.426796547,-122.157030452,-24.3893647801654,1.4189712,19.029186,210.62926,1678231777000,1.2326052,62.479885,1666590619872000,12.04655,Walk
Fix,FLP,37.426825,-122.1570772,-11.345686041702995,1.45435,27.88,216.58966,1678231778841,,,1666590850738237,2.877838,Walk
Fix,FLP,37.4268175,-122.157081,-11.345686041702995,1.4535289,26.01,216.2982,1678231779385,,,1666591393233599,2.877838,Walk
Fix,GPS,37.4267876707,-122.157013218,-24.94346606506713,1.5278416,20.361311,210.62926,1678231778000,1.2749491,180.0,1666591619978000,12.250337,Walk
Fix,FLP,37.4268084,-122.1570838,-11.345686041702995,1.4561677,24.484,215.78947,1678231779893,,,1666591901481830,2.888028,Walk
Fix,FLP,37.4268012,-122.1570874,-11.345686041702995,1.45969,23.254,215.49474,1678231780470,,,1666592478217485,2.888028,Walk
Fix,GPS,37.4267718683,-122.157004041,-25.421406460860705,1.6188198,21.969252,210.62926,1678231779000,1.3579409,180.0,1666592619967000,12.460407,Walk
Fix,FLP,37.4267923,-122.15709,-11.345686041702995,1.4690827,22.27,214.90201,1678231781012,,,1666593020710222,2.8877742,Walk
Fix,FLP,37.4267847,-122.157094,-11.345686041702995,1.4755057,20.881,214.57916,1678231781555,,,1666593563200701,2.8877742,Walk
Fix,GPS,37.426754431,-122.156994908,-26.07159348168964,1.7041864,23.544874,210.62926,1678231780000,1.3545882,180.0,1666593619978000,12.659029,Walk
Fix,FLP,37.4267756,-122.157097,-11.709052847263024,1.4902933,20.222,213.98181,1678231782096,,,1666594105693132,2.907868,Walk
Fix,FLP,37.426768,-122.1571011,-11.709052847263024,1.4993528,19.872,213.68855,1678231782648,,,1666594657000000,2.907868,Walk
Fix,GPS,37.4267379954,-122.1569858357,-26.67977939021109,1.7674404,25.117727,210.62926,1678231781000,1.411845,180.0,1666594619974000,12.846204,Walk
Fix,FLP,37.4267526,-122.1571077,-12.208720046129088,1.5243139,19.485,212.84093,1678231783182,,,1666595190668962,3.056574,Walk
Fix,NLP,37.4268313,-122.1570949,-13.800000190734863,,31.199,,1678231783659,,,1666595667000000,5.7714453,Walk
Fix,GPS,37.4267185763,-122.1569762227,-27.23162188284989,1.781811,26.899384,210.62926,1678231782000,1.5316565,180.0,1666595619964000,13.019027,Walk
Fix,FLP,37.4267506,-122.1571073,-13.800000190734863,1.5338104,19.535,212.50896,1678231783725,,,1666595733166033,3.2365766,Walk
Fix,FLP,37.426737,-122.1571148,-16.179669331260627,1.5572945,19.461,211.6857,1678231784267,,,1666596275646746,3.2375667,Walk
Fix,GPS,37.4267294313,-122.1570087329,-27.98403880992508,1.1065586,23.562468,210.62926,1678231783000,1.0254464,180.0,1666596619980000,13.120875,Walk
Fix,FLP,37.4267323,-122.157118,-16.47951728163546,1.5399615,19.204,210.99416,1678231784810,,,1666596818153216,3.2475767,Walk
Fix,FLP,37.426726,-122.1571211,-16.47951728163546,1.5176259,19.069,210.45934,1678231785352,,,1666597360641130,3.2475767,Walk
Fix,GPS,37.4267166944,-122.1570077312,-28.042679791166996,1.2001524,24.436596,210.62926,1678231784000,1.0888053,180.0,1666597620038000,13.24702,Walk
Fix,FLP,37.4267189,-122.1571227,-16.47951728163546,1.4846076,18.793,209.596,1678231785893,,,1666597901481830,3.2577267,Walk
Fix,FLP,37.4267115,-122.1571257,-16.47951728163546,1.4721783,18.666,209.20586,1678231786437,,,1666598445615862,3.2577267,Walk
Fix,GPS,37.4267110489,-122.1570029728,-28.014083297783888,1.0331967,25.456404,210.62926,1678231785000,1.1753837,180.0,1666598620034000,13.359884,Walk
Fix,FLP,37.4267027,-122.1571268,-16.8993878377621,1.4416384,18.338,208.29909,1678231786980,,,1666598988113299,3.2665865,Walk
Fix,FLP,37.4266946,-122.1571294,-16.8993878377621,1.4234612,18.098,207.75044,1678231787522,,,1666599530605364,3.2665865,Walk
Fix,GPS,37.4267037129,-122.1569931308,-27.94469823373782,1.0773165,26.606659,210.62926,1678231786000,1.2586501,180.0,1666599620039000,13.479619,Walk
Fix,FLP,37.4266851,-122.1571305,-17.160525187421435,1.3942637,17.846,206.84535,1678231788073,,,1666600081000000,5.155642,Walk
Fix,FLP,37.4266767,-122.1571333,-17.160525187421435,1.3823463,17.694,206.46515,1678231788588,,,1666600596000000,5.155642,Walk
Fix,GPS,37.4266983031,-122.1569899297,-27.7983723705782,0.96829563,28.105991,210.62926,1678231787000,1.3606309,180.0,1666600620211000,13.625528,Walk
Fix,NLP,37.426675,-122.1570662,-13.90000057220459,,52.781,,1678231788639,,,1666600647000000,15.596987,Walk
Fix,FLP,37.4266589,-122.1571368,-17.160525187421435,1.3349478,16.968,205.2994,1678231789150,,,1666601158077898,5.4165683,Walk
Fix,GPS,37.4266855005,-122.1569794704,-27.760726404259227,1.1569393,29.75045,210.62926,1678231788000,1.4270625,180.0,1666601620024000,13.791719,Walk
Fix,FLP,37.4266562,-122.1571368,-19.5401943279472,1.3221813,16.994,205.08215,1678231789692,,,1666601700569292,9.684204,Walk
Fix,FLP,37.4266413,-122.157142,-19.5401943279472,1.3061888,17.075,204.81366,1678231790235,,,1666602243054156,9.684204,Walk
Fix,GPS,37.4266756001,-122.1569753899,-27.7681894226602,1.157003,31.558184,210.62926,1678231789000,1.5577334,180.0,1666602620049000,13.966022,Walk
Fix,FLP,37.4266316,-122.1571443,-13.90000057220459,1.2998459,17.231,204.72992,1678231790777,,,1666602785551226,9.693204,Walk
Fix,FLP,37.4266233,-122.1571474,-13.90000057220459,1.2970438,17.371,204.64618,1678231791320,,,1666603328040850,9.693204,Walk
Fix,GPS,37.4266649801,-122.1569716581,-28.015718386453045,1.1677525,33.486507,210.62926,1678231790000,1.6783236,180.0,1666603620185000,14.141532,Walk
Fix,FLP,37.4266138,-122.1571501,-13.90000057220459,1.2913424,17.635,204.44485,1678231791862,,,1666603870532488,5.693803,Walk
Fix,FLP,37.4266057,-122.1571532,-13.90000057220459,1.2889994,17.81,204.25009,1678231792405,,,1666604413022051,5.693803,Walk
Fix,GPS,37.4266552869,-122.1569674795,-27.939741243513225,1.1631835,35.52736,210.62926,1678231791000,1.7908525,180.0,1666604620124000,14.3196335,Walk
Fix,FLP,37.4265962,-122.1571559,-13.90000057220459,1.2834562,18.12,203.81633,1678231792947,,,1666604955513507,8.490155,Walk
Fix,FLP,37.4265884,-122.1571588,-13.90000057220459,1.2804971,18.299,203.49612,1678231793489,,,1666605497997943,8.490155,Walk
Fix,NLP,37.4266612,-122.1570832,-13.90000057220459,,28.944,,1678231793624,,,1666605632000000,5.8201714,Walk
Fix,GPS,37.4266449187,-122.1569636126,-28.129698391676524,1.1680431,37.674103,210.62926,1678231792000,1.8967427,180.0,1666605620121000,14.499262,Walk
Fix,FLP,37.42658,-122.1571585,-13.90000057220459,1.2732104,18.569,202.89983,1678231794014,,,1666606023000000,7.9016733,Walk
Fix,FLP,37.4265746,-122.1571589,-13.90000057220459,1.272512,18.536,202.82845,1678231794529,,,1666606537000000,7.9016733,Walk
Fix,GPS,37.4266356344,-122.1569592635,-27.84843210737853,1.1595846,39.921146,210.62926,1678231793000,1.9970418,180.0,1666606620166000,14.678024,Walk
Fix,FLP,37.4265649,-122.1571581,-13.90000057220459,1.2636118,18.356,202.3139,1678231795117,,,1666607125474565,7.9126534,Walk
Fix,GPS,37.4266265972,-122.1569548383,-27.408671195146564,1.1503042,42.263695,210.62926,1678231794000,2.0925477,180.0,1666607620141000,14.85301,Walk
Fix,FLP,37.4265635,-122.1571573,-13.90000057220459,1.2590007,18.273,202.06998,1678231795659,,,1666607667963885,7.9217834,Walk
Fix,FLP,37.4265538,-122.1571594,-13.90000057220459,1.2494764,18.14,201.65555,1678231796202,,,1666608210454729,7.9217834,Walk
Fix,GPS,37.4266175159,-122.1569504705,-26.93620233730191,1.1431562,44.69758,210.62926,1678231795000,2.1838849,120.57341,1666608620195000,15.026598,Walk
Fix,FLP,37.4265479,-122.15716,-19.267290136091376,1.2410686,17.984,201.34166,1678231796744,,,1666608752943743,7.9316435,Walk
Fix,FLP,37.4265416,-122.1571621,-19.267290136091376,1.23762,17.925,201.24286,1678231797287,,,1666609295434771,7.9316435,Walk
Fix,GPS,37.4266081543,-122.1569462403,-26.581989598366032,1.139782,47.21913,210.62926,1678231796000,2.271554,125.65254,1666609620392000,15.236554,Walk
Fix,FLP,37.4265356,-122.1571633,-21.31410995555361,1.2309636,17.802,200.99353,1678231797829,,,1666609837915239,7.941643,Walk
Fix,FLP,37.4265292,-122.1571655,-21.31410995555361,1.2278763,17.767,200.72667,1678231798372,,,1666610380414264,7.941643,Walk
Fix,GPS,37.4265986039,-122.1569420981,-26.314907331541104,1.1385794,49.825096,210.62926,1678231797000,2.3559628,130.50558,1666610620234000,15.53751,Walk
Fix,FLP,37.4265222,-122.1571671,-20.639316630054186,1.2219329,17.545,200.2217,1678231798893,,,1666610901481830,7.9516234,Walk
Fix,FLP,37.4265155,-122.1571692,-20.639316630054186,1.2193869,17.761,199.91367,1678231799456,,,1666611465393999,7.9516234,Walk
Fix,FLP,37.4265089,-122.1571714,-10.89107544949983,1.2169206,18.079,199.58981,1678231799973,,,1666611982000000,7.9636536,Walk
Fix,FLP,37.4264974,-122.1571751,-10.89107544949983,1.2111188,18.655,198.95506,1678231800542,,,1666612550363360,7.9636536,Walk
Fix,FLP,37.4264901,-122.1571773,-13.90000057220459,1.2087542,18.897,198.59373,1678231801084,,,1666613092862383,7.9786434,Walk
Fix,FLP,37.4264842,-122.1571789,-13.90000057220459,1.2066175,19.303,198.19226,1678231801627,,,1666613635353044,7.9786434,Walk
Fix,FLP,37.4264768,-122.1571809,-13.90000057220459,1.2048023,19.572,197.76443,1678231802169,,,1666614177842302,7.9886537,Walk
Fix,FLP,37.4264702,-122.1571827,-13.90000057220459,1.2031865,20.0,197.31506,1678231802712,,,1666614720333757,7.9886537,Walk
Fix,FLP,37.4264627,-122.1571847,-13.90000057220459,1.2019142,20.276,196.88904,1678231803254,,,1666615262809771,7.9886537,Walk
Fix,FLP,37.4264557,-122.1571866,-10.083663260070402,1.2008498,20.733,196.46965,1678231803797,,,1666615805300372,8.003623,Walk
Fix,NLP,37.4263722,-122.1574784,-13.700000762939451,,53.217,,1678231803727,,,1666615735000000,2.9368165,Walk
Fix,FLP,37.4264449,-122.1571894,-10.110827345554284,1.1986228,21.123,195.79784,1678231804338,,,1666616347804156,7.8770976,Walk
Fix,FLP,37.4264381,-122.1571914,-10.110827345554284,1.1978881,21.394,195.50946,1678231804881,,,1666616890295855,7.8770976,Walk
Fix,FLP,37.4264307,-122.1571937,-9.589953280577936,1.1972535,21.648,195.21402,1678231805433,,,1666617441000000,6.667554,Walk
Fix,FLP,37.4264231,-122.1571958,-9.589953280577936,1.1968677,22.031,194.92462,1678231805964,,,1666617972000000,6.667554,Walk
Fix,FLP,37.4264096,-122.1571994,-13.700000762939451,1.1946998,22.458,194.41425,1678231806509,,,1666618517767473,6.237614,Walk
Fix,FLP,37.4264033,-122.1572013,-13.700000762939451,1.1941751,22.569,194.22769,1678231807051,,,1666619060259294,6.2476244,Walk
Fix,FLP,37.4263967,-122.1572032,-13.700000762939451,1.1939293,22.823,194.09549,1678231807594,,,1666619602737505,6.2476244,Walk
Fix,FLP,37.4263894,-122.1572054,-13.700000762939451,1.1940533,23.047,194.01772,1678231808137,,,1666620145241229,6.2476244,Walk
Fix,NLP,37.4268643,-122.155268,,,800.0,,1678231807991,,,1666620000000000,,Walk
Fix,FLP,37.426377,-122.1572092,-13.700000762939451,1.1934204,23.504,193.96948,1678231808679,,,1666620687730669,6.2585845,Walk
Fix,FLP,37.4263698,-122.1572116,-13.700000762939451,1.1933287,23.89,194.04297,1678231809222,,,1666621230222612,6.2585845,Walk
Fix,FLP,37.4263634,-122.1572139,-5.052452708820702,1.1933622,24.055,194.13939,1678231809764,,,1666621772712419,6.2726045,Walk
Fix,FLP,37.4263561,-122.1572168,-5.052452708820702,1.1935607,24.336,194.35895,1678231810307,,,1666622315196307,6.2726045,Walk
Fix,FLP,37.4263495,-122.1572196,-5.052452708820702,1.1938152,24.655,194.67343,1678231810849,,,1666622857696429,6.2726045,Walk
Fix,FLP,37.4263423,-122.1572228,-5.5925779602847925,1.1941324,24.975,195.07855,1678231811392,,,1666623400185077,6.2876043,Walk
Fix,FLP,37.4263288,-122.1572292,-5.5925779602847925,1.1939597,25.672,195.78146,1678231812430,,,1666624438000000,6.2876043,Walk
Fix,FLP,37.4263162,-122.1572351,-7.836897836873732,1.1933941,26.513,196.25783,1678231813019,,,1666625027658404,6.3015943,Walk
Fix,FLP,37.4263099,-122.1572381,-7.836897836873732,1.1933051,26.895,196.37411,1678231813561,,,1666625570146868,6.3015943,Walk
Fix,NLP,37.4264845,-122.1576949,-13.700000762939451,,74.742,,1678231813820,,,1666625828000000,10.952141,Walk
Fix,FLP,37.4263012,-122.1572423,-7.836897836873732,1.1927338,27.333,196.62021,1678231814104,,,1666626112639239,7.8829184,Walk
Fix,FLP,37.4262947,-122.1572453,-7.836897836873732,1.1926696,27.653,196.75656,1678231814647,,,1666626655123614,7.8829184,Walk
Fix,FLP,37.4262878,-122.1572484,-17.302524983148963,1.192487,27.934,196.72635,1678231815189,,,1666627197619097,7.8978887,Walk
Fix,FLP,37.4262811,-122.1572513,-17.302524983148963,1.1919374,28.229,196.51979,1678231815731,,,1666627740111284,7.8978887,Walk
Fix,FLP,37.4262739,-122.1572544,-17.302524983148963,1.1917237,28.484,196.39767,1678231816274,,,1666628282601580,7.8978887,Walk
Fix,FLP,37.4262673,-122.1572574,-17.302524983148963,1.1917329,28.78,196.34186,1678231816816,,,1666628825094255,7.9118786,Walk
Fix,FLP,37.4262599,-122.1572607,-17.302524983148963,1.191925,29.09,196.42046,1678231817358,,,1666629367584978,7.9118786,Walk
Fix,FLP,37.4262472,-122.1572666,-13.700000762939451,1.1911823,29.549,196.62444,1678231817892,,,1666629901481830,8.100252,Walk
Fix,FLP,37.4262406,-122.1572695,-7.066716033220985,1.1907406,29.89,196.46127,1678231818444,,,1666630452568376,8.110262,Walk
Fix,NLP,37.4260845,-122.156614,-13.600000381469728,,25.939,,1678231818838,,,1666630846000000,7.3869557,Walk
Fix,FLP,37.4262239,-122.15723,-7.093880118704867,1.1949807,29.275,195.01471,1678231818987,,,1666630995060991,7.9679837,Walk
Fix,FLP,37.4262116,-122.1571975,-7.093880118704867,1.1997064,28.604,193.90761,1678231819529,,,1666631537554766,7.9679837,Walk
Fix,FLP,37.4261999,-122.157172,-9.672369710432292,1.2040248,27.938,192.95836,1678231820072,,,1666632080044696,7.9707084,Walk
Fix,FLP,37.4261893,-122.1571503,-9.672369710432292,1.2082102,27.299,192.08826,1678231820614,,,1666632622535479,7.9707084,Walk
Fix,FLP,37.4261791,-122.1571323,-8.288924813899065,1.2122903,26.666,191.30267,1678231821157,,,1666633165028276,7.9886937,Walk
Fix,FLP,37.4261698,-122.1571163,-8.288924813899065,1.2163726,26.062,190.56374,1678231821699,,,1666633707514727,7.9886937,Walk
Fix,FLP,37.42616,-122.1571024,-8.288924813899065,1.2207735,25.436,189.86028,1678231822242,,,1666634250009295,7.9886937,Walk
Fix,FLP,37.4261504,-122.1570899,-4.717992526251869,1.2253172,24.313,189.17934,1678231822784,,,1666634792502703,8.003684,Walk
Fix,FLP,37.4261418,-122.1570784,-4.717992526251869,1.230179,24.236,188.53392,1678231823290,,,1666635298000000,8.003684,Walk
Fix,NLP,37.4265503,-122.1577473,-13.700000762939451,,66.355,,1678231823891,,,1666635899000000,2.666621,Walk
Fix,FLP,37.4261293,-122.157059,-2.8271784505651,1.2382432,22.286,187.40587,1678231823869,,,1666635877486529,6.176013,Walk
Fix,FLP,37.4261143,-122.1570441,-2.8271784505651,1.2460597,22.743,186.43477,1678231824411,,,1666636419979448,6.176013,Walk
Fix,FLP,37.4261053,-122.1570377,-18.698162883158474,1.251321,23.035,185.97353,1678231824954,,,1666636962470110,6.188993,Walk
Fix,FLP,37.4260972,-122.157032,-18.698162883158474,1.2569011,23.311,185.54237,1678231825496,,,1666637504962909,6.188993,Walk
Fix,FLP,37.4260886,-122.1570268,-18.698162883158474,1.2630852,23.556,185.13278,1678231826038,,,1666638047456194,6.1858344,Walk
Fix,FLP,37.4260802,-122.1570223,-18.698162883158474,1.2694161,23.794,184.757,1678231826581,,,1666638589943804,6.1858344,Walk
Fix,FLP,37.4260713,-122.1570183,-18.698162883158474,1.2765061,23.997,184.41238,1678231827123,,,1666639132437762,6.1858344,Walk
Fix,FLP,37.4260627,-122.1570148,-7.907371798505935,1.283691,24.222,184.09515,1678231827665,,,1666639674922320,6.1998444,Walk
Fix,FLP,37.4260535,-122.1570119,-7.907371798505935,1.2914492,24.434,183.81337,1678231828209,,,1666640217421831,6.1998444,Walk
Fix,FLP,37.4260446,-122.1570092,-7.907371798505935,1.2993145,24.673,183.54898,1678231828750,,,1666640759906206,6.1998444,Walk
Fix,FLP,37.4260353,-122.1570073,-24.63818674577955,1.307353,25.047,183.34138,1678231829295,,,1666641303000000,6.2158246,Walk
Fix,NLP,37.4259121,-122.157218,-13.700000762939451,,82.737,,1678231829063,,,1666641071000000,6.6664524,Walk
Fix,GPS,37.4261341827,-122.1573485809,-12.82542924649248,1.248711,19.522135,176.54654,1678231828000,0.6127528,27.554283,1666641620740000,15.336955,Walk
Fix,FLP,37.4260109,-122.1570168,-5.196996651095169,1.3223375,25.354,185.19197,1678231829836,,,1666641844899188,6.1668253,Walk
Fix,FLP,37.426004,-122.1570287,-5.196996651095169,1.3236043,25.165,186.84706,1678231830379,,,1666642387391985,6.1668253,Walk
Fix,GPS,37.4261233523,-122.1573606119,-11.733868761349584,1.257748,14.894764,181.1737,1678231829000,0.6950314,33.300697,1666642620671000,13.574367,Walk
Fix,FLP,37.4259947,-122.1570701,-5.196996651095169,1.3246148,24.251,190.97849,1678231830893,,,1666642901481830,7.954185,Walk
Fix,GPS,37.4261251368,-122.1573542359,-11.93228761665982,1.1921077,13.143686,180.28166,1678231830000,0.75808865,37.44504,1666643620772000,12.677066,Walk
Fix,FLP,37.4259903,-122.1570935,-5.2241607365790514,1.3272467,23.636,193.13939,1678231831464,,,1666643472374468,7.941286,Walk
Fix,FLP,37.425985,-122.1571342,-5.2241607365790514,1.3176929,22.262,196.86993,1678231832006,,,1666644014856952,7.941286,Walk
Fix,GPS,37.4261180907,-122.1573526618,-11.99842115329643,1.1435817,12.574293,180.28166,1678231831000,0.7923852,30.300505,1666644620750000,12.153318,Walk
Fix,FLP,37.425982,-122.1571533,-5.2241607365790514,1.3107953,21.554,198.55779,1678231832549,,,1666644557358660,7.941286,Walk
Fix,FLP,37.425981,-122.1571871,-3.9310120491676335,1.2883387,20.489,201.77357,1678231833090,,,1666645099851519,6.171617,Walk
Fix,GPS,37.4261131,-122.1573519851,-11.750037712792915,1.0842663,12.192816,180.28166,1678231832000,0.788938,64.064186,1666645620827000,11.702526,Walk
Fix,FLP,37.4259812,-122.1572028,-13.700000762939451,1.2784071,20.235,203.2042,1678231833634,,,1666645642340716,7.994626,Walk
Fix,FLP,37.4259835,-122.1572376,-13.700000762939451,1.2542125,18.342,206.18494,1678231834176,,,1666646184839007,7.994626,Walk
Fix,NLP,37.4258879,-122.1569848,-13.700000762939451,,80.684,,1678231834189,,,1666646197000000,8.832808,Walk
Fix,GPS,37.4261074383,-122.1573537526,-11.5982150310459,1.0495416,12.016384,190.76839,1678231833000,0.8571297,36.208775,1666646620754000,11.331597,Walk
Fix,FLP,37.4259864,-122.1572684,-13.700000762939451,1.2334194,16.785,208.59247,1678231834719,,,1666646727315020,6.137531,Walk
Fix,FLP,37.4259897,-122.1573012,-3.561223558024615,1.214689,16.474,210.85388,1678231835260,,,1666647269820269,7.8333383,Walk
Fix,GPS,37.4261008246,-122.1573545714,-11.93369646701512,1.0325058,11.9361,180.64137,1678231834000,0.86844456,34.55195,1666647620779000,11.019981,Walk
Fix,FLP,37.4259903,-122.1573189,-3.561223558024615,1.2066203,15.63,211.87852,1678231835765,,,1666647773000000,7.8333383,Walk
Fix,FLP,37.425994,-122.1573521,-4.618298849885761,1.1911633,14.818,213.38477,1678231836326,,,1666648335000000,7.929454,Walk
Fix,GPS,37.4261045341,-122.1573470385,-13.184316026270883,1.0172706,11.0949745,167.18518,1678231835000,0.8311858,39.757984,1666648620812000,10.563501,Walk
Fix,FLP,37.4260004,-122.1573895,-10.059333258944449,1.15917,13.906,213.7662,1678231836888,,,1666648897298540,6.1930723,Walk
Fix,FLP,37.4259991,-122.1573997,-10.059333258944449,1.137694,13.429,212.34741,1678231837431,,,1666649439792986,6.1930723,Walk
Fix,GPS,37.4261055828,-122.1573388597,-14.471968482158143,0.9963418,10.699308,167.18518,1678231836000,0.83978146,175.10268,1666649620807000,10.246684,Walk
Fix,FLP,37.4259981,-122.1574125,-11.928991135652916,1.0968425,12.739,209.21616,1678231837974,,,1666649982287920,7.883785,Walk
Fix,FLP,37.425995,-122.1574175,-11.928991135652916,1.0763446,12.048,207.18938,1678231838515,,,1666650524779376,7.883785,Walk
Fix,GPS,37.4261015241,-122.1573275348,-15.175929610256334,1.0055058,10.414498,167.18518,1678231837000,0.94448435,180.0,1666650620854000,9.99418,Walk
Fix,FLP,37.4259912,-122.1574212,-11.638408436327367,1.0435264,11.117,203.35843,1678231839059,,,1666651067269549,7.888911,Walk
Fix,NLP,37.4261093,-122.156669,-13.700000762939451,,65.962,,1678231839250,,,1666651258000000,5.3639336,Walk
Fix,FLP,37.4259877,-122.1574218,-11.611244350843483,1.0207248,10.246,199.7629,1678231839600,,,1666651609765764,6.138922,Walk
Fix,GPS,37.4260931584,-122.1573196005,-15.725618117405046,1.0176387,10.235239,157.38594,1678231838000,0.8522819,37.9935,1666651620833000,9.773811,Walk
Fix,FLP,37.4259823,-122.1574204,-10.652151758806326,1.004685,9.695,196.4698,1678231840144,,,1666652152258074,7.795981,Walk
Fix,FLP,37.4259779,-122.1574191,-10.652151758806326,1.0003418,9.192,195.01285,1678231840686,,,1666652694752397,7.795981,Walk
Fix,GPS,37.4260858198,-122.1573043649,-16.463184544158473,1.0643222,10.108172,148.52477,1678231839000,0.8404311,28.955832,1666652620864000,9.581724,Walk
Fix,FLP,37.4259725,-122.1574137,-10.652151758806326,0.9939087,8.846,192.25273,1678231841228,,,1666653236000000,7.7280674,Walk
Fix,GPS,37.4260800606,-122.1572896658,-16.36645622187225,1.0945903,9.936983,143.53809,1678231840000,0.83453655,37.793472,1666653621150000,9.394775,Walk
Fix,FLP,37.4259677,-122.1574025,-9.862156291472608,0.98409396,8.383,188.11185,1678231841770,,,1666653779739520,6.1949897,Walk
Fix,FLP,37.4259637,-122.1573977,-9.862156291472608,0.9837956,8.276,186.5372,1678231842314,,,1666654322217669,6.1949897,Walk
Fix,GPS,37.4260794764,-122.15727308,-16.72195133866394,1.124717,9.774741,125.30117,1678231841000,0.80671984,29.376999,1666654620848000,9.218368,Walk
Fix,FLP,37.4259612,-122.1573879,-6.286609651778505,0.9805539,8.207,183.49141,1678231842855,,,1666654864726030,7.8249907,Walk
Fix,FLP,37.425958,-122.1573819,-6.286609651778505,0.9796785,8.223,181.68994,1678231843399,,,1666655407218890,7.8249907,Walk
Fix,GPS,37.4260733656,-122.1572610463,-17.23822672017636,1.1364245,9.6873455,138.68683,1678231842000,0.81279147,31.47814,1666655620856000,9.079089,Walk
Fix,NLP,37.4260505,-122.1566351,-13.700000762939451,,36.089,,1678231843902,,,1666655910000000,2.8653574,Walk
Fix,FLP,37.4259564,-122.1573707,-6.20851532860879,0.9759542,8.215,178.341,1678231843941,,,1666655949705034,7.667629,Walk
Fix,FLP,37.4259533,-122.157356,-13.700000762939451,0.97232276,8.236,176.35126,1678231844484,,,1666656492204790,5.1533594,Walk
Fix,GPS,37.4260575432,-122.1572643204,-17.271446497496747,1.1863531,9.55595,152.06715,1678231843000,0.80650693,32.814697,1666656620935000,8.962579,Walk
Fix,FLP,37.4259497,-122.1573426,-20.17913034917847,0.9740166,8.233,174.15672,1678231845026,,,1666657034687213,7.5517254,Walk
Fix,FLP,37.4259455,-122.1573359,-20.17913034917847,0.97889113,8.265,172.34103,1678231845568,,,1666657577191606,7.5517254,Walk
Fix,GPS,37.4260430187,-122.1572656874,-17.27384470888425,1.219901,9.4333725,151.30678,1678231844000,0.80021566,31.219517,1666657620917000,8.851161,Walk
Fix,FLP,37.4259403,-122.1573265,-20.17913034917847,0.9913097,8.34,169.29033,1678231846110,,,1666658119683856,7.415951,Walk
Fix,FLP,37.4259358,-122.1573215,-20.17913034917847,0.9992461,8.436,167.82576,1678231846654,,,1666658662178484,7.415951,Walk
Fix,GPS,37.4260303194,-122.1572669871,-17.42819498146562,1.2346859,9.342153,134.84404,1678231845000,0.80367863,30.480679,1666658620953000,8.743743,Walk
Fix,FLP,37.4259297,-122.1573141,-18.672844944359877,1.0146222,8.632,165.2953,1678231847196,,,1666659204675860,7.3919444,Walk
Fix,GPS,37.4260186946,-122.1572697065,-16.85797866173456,1.2356868,9.342697,134.84404,1678231846000,0.8045859,46.281982,1666659620961000,8.676912,Walk
Fix,FLP,37.4259257,-122.1573082,-18.672844944359877,1.0294166,8.828,163.01271,1678231847739,,,1666659747167376,6.0698185,Walk
Fix,FLP,37.425917,-122.1573009,-18.672844944359877,1.0429626,9.137,160.89217,1678231848281,,,1666660289659685,6.0698185,Walk
Fix,GPS,37.4260083886,-122.1572662452,-16.709956538179526,1.2262111,9.34665,154.31332,1678231847000,0.80015975,40.75497,1666660620945000,8.62266,Walk
Fix,FLP,37.4259128,-122.1572964,-10.058319507377632,1.0543079,9.556,159.0335,1678231848824,,,1666660832152422,7.5960565,Walk
Fix,NLP,37.4260842,-122.1565518,-13.600000381469728,,23.42,,1678231849050,,,1666661058000000,9.38097,Walk
Fix,FLP,37.4259123,-122.1572949,-23.84761151171302,1.0607954,9.671,158.18224,1678231849366,,,1666661374646808,7.4587727,Walk
Fix,GPS,37.4259999685,-122.1572520869,-17.030137179474245,1.2484407,9.562695,154.31332,1678231848000,2.1162097,44.02783,1666661621201000,8.570755,Walk
Fix,FLP,37.4259024,-122.1572872,-7.980380175121461,1.0784019,10.173,155.9912,1678231849893,,,1666661901481830,6.034916,Walk
Fix,FLP,37.4258978,-122.1572842,-7.980380175121461,1.0860764,10.515,155.47726,1678231850451,,,1666662459634050,6.034916,Walk
Fix,GPS,37.4259946472,-122.1572358952,-17.000072757267713,1.2642839,9.793387,154.31332,1678231849000,0.88829,37.34025,1666662620977000,8.531271,Walk
Fix,FLP,37.4258923,-122.1572804,-7.980380175121461,1.1001319,10.851,154.5717,1678231850993,,,1666663002126238,7.4599156,Walk
Fix,FLP,37.4258878,-122.1572773,-7.980380175121461,1.107586,11.307,154.13293,1678231851536,,,1666663544621112,7.4599156,Walk
Fix,GPS,37.4259880332,-122.1572251692,-17.463217863906962,1.257993,9.952217,129.90048,1678231850000,0.8020599,25.484173,1666663620984000,8.492742,Walk
Fix,FLP,37.4258822,-122.1572733,-7.980380175121461,1.1203136,11.656,153.43622,1678231852079,,,1666664087115740,7.5681086,Walk
Fix,FLP,37.4258778,-122.1572703,-7.980380175121461,1.1267624,12.015,153.1791,1678231852621,,,1666664629608110,7.5681086,Walk
Fix,GPS,37.4259799901,-122.1572071708,-17.911480665248753,1.296636,10.273926,129.90048,1678231851000,0.737641,98.39404,1666664621005000,8.507745,Walk
Fix,FLP,37.4258724,-122.1572663,-6.19859290899992,1.1393999,12.361,152.72551,1678231853163,,,1666665172087114,7.422818,Walk
Fix,FLP,37.4258679,-122.1572629,-6.19859290899992,1.1464672,12.749,152.44386,1678231853687,,,1666665695000000,7.422818,Walk
Fix,GPS,37.4259760085,-122.1571951407,-18.11156514231013,1.1657791,10.787043,129.90048,1678231852000,0.86891854,25.444069,1666665621004000,8.537816,Walk
Fix,FLP,37.4258626,-122.1572589,-6.219384282841752,1.1530627,13.22,151.99849,1678231854229,,,1666666237000000,6.1446075,Walk
Fix,NLP,37.4259969,-122.1565994,-11.800000190734863,,18.465,,1678231854051,,,1666666060000000,5.820623,Walk
Fix,GPS,37.4259695831,-122.1571795432,-18.54351845804388,1.2644083,11.342787,129.90048,1678231853000,2.823033,25.0,1666666621039000,8.507416,Walk
Fix,FLP,37.4258542,-122.1572523,-6.246548368325634,1.1560668,13.971,151.36098,1678231854791,,,1666666799582048,7.6410427,Walk
Fix,FLP,37.4258501,-122.1572509,-6.246548368325634,1.1592671,14.328,151.50575,1678231855334,,,1666667342074480,7.6410427,Walk
Fix,GPS,37.4259620589,-122.1571643811,-19.197914914361,1.3091612,12.096727,129.90048,1678231854000,2.9865587,78.92852,1666667621084000,8.446526,Walk
Fix,FLP,37.425845,-122.1572497,-11.800000190734863,1.1664461,14.705,151.77748,1678231855876,,,1666667884569048,7.237735,Walk
Fix,FLP,37.425841,-122.1572482,-11.800000190734863,1.1709071,15.054,152.00327,1678231856419,,,1666668427061358,7.237735,Walk
Fix,GPS,37.425958046,-122.157143634,-19.35616504315305,1.3469126,13.1115675,129.90048,1678231855000,3.1918578,65.59394,1666668621398000,8.459689,Walk
Fix,FLP,37.4258349,-122.1572479,-11.800000190734863,1.1793481,15.456,152.7167,1678231856961,,,1666668969555925,6.0714445,Walk
Fix,GPS,37.425952352,-122.1571278726,-19.11990791547525,1.3384947,14.450125,129.90048,1678231856000,3.385323,180.0,1666669621143000,8.469155,Walk
Fix,FLP,37.42583,-122.1572472,-11.800000190734863,1.1843278,15.856,153.14465,1678231857504,,,1666669512048113,6.0714445,Walk
Fix,FLP,37.4258232,-122.1572485,-11.800000190734863,1.1928383,16.323,153.99847,1678231858046,,,1666670054542987,7.349195,Walk
Fix,GPS,37.4259455082,-122.1571130824,-18.69927916137105,1.2808342,15.994501,129.90048,1678231857000,3.5710454,180.0,1666670621494000,8.47177,Walk
Fix,FLP,37.4258181,-122.1572485,-11.800000190734863,1.1971684,16.76,154.41153,1678231858589,,,1666670597035601,7.349195,Walk
Fix,FLP,37.4258106,-122.1572512,-11.800000190734863,1.2014761,17.419,155.40749,1678231859131,,,1666671139530535,7.3603053,Walk
Fix,NLP,37.4260086,-122.1566017,-13.600000381469728,,17.873,,1678231859096,,,1666671105000000,6.2760983,Walk
Fix,FLP,37.4258036,-122.1572543,-13.600000381469728,1.201252,18.161,156.07368,1678231859674,,,1666671682022723,7.166888,Walk
Fix,GPS,37.425937222,-122.1571085979,-18.88430035386455,1.2687055,17.502989,129.90048,1678231858000,1.258487,25.0,1666671621364000,8.521395,Walk
Fix,FLP,37.4257966,-122.1572581,-8.681827934123753,1.2001231,18.651,156.8389,1678231860216,,,1666672224509233,6.1275826,Walk
Fix,FLP,37.4257915,-122.1572597,-8.681827934123753,1.2004983,19.149,157.42688,1678231860765,,,1666672774000000,6.1275826,Walk
Fix,GPS,37.4259335622,-122.157097833,-19.152828834871027,1.3351458,19.07278,129.90048,1678231859000,1.3197927,25.0,1666672621174000,8.572363,Walk
Fix,FLP,37.425784,-122.157265,-8.61795073449509,1.203299,19.604,158.67122,1678231861309,,,1666673317000000,7.328805,Walk
Fix,GPS,37.4259289176,-122.1570834752,-19.491605428204146,1.3645275,20.69076,129.90048,1678231860000,1.3679788,117.89218,1666673621110000,8.623579,Walk
Fix,FLP,37.4257718,-122.1572752,-8.61795073449509,1.2091569,20.488,160.9347,1678231862367,,,1666674375000000,7.338725,Walk
Fix,GPS,37.4259282397,-122.1570622866,-19.60363424184539,1.3145506,22.351433,129.90048,1678231861000,1.4106731,28.993498,1666674621241000,8.667899,Walk
Fix,FLP,37.4257622,-122.1572894,-11.800000190734863,1.2113966,21.236,163.82097,1678231862892,,,1666674901481830,7.0076413,Walk
Fix,GPS,37.4259307934,-122.1570422844,-19.62306113575391,1.3023573,24.074223,129.90048,1678231862000,1.472789,25.0,1666675621131000,8.709436,Walk
Fix,FLP,37.4257594,-122.1572945,-13.600000381469728,1.2113765,21.35,164.80206,1678231863470,,,1666675479479265,6.0163884,Walk
Fix,NLP,37.4259874,-122.1565942,-11.800000190734863,,16.942,,1678231864088,,,1666676096000000,4.5311666,Walk
Fix,FLP,37.4257519,-122.157302,-13.600000381469728,1.2123591,22.057,166.47356,1678231864013,,,1666676021971880,6.0163884,Walk
Fix,GPS,37.4259216941,-122.1570404686,-19.784141574778676,1.326816,17.429482,129.90048,1678231863000,1.309509,111.58479,1666676621436000,8.556106,Walk
Fix,FLP,37.4257467,-122.1573099,-11.800000190734863,1.2120762,22.373,167.33862,1678231864556,,,1666676564467059,6.1589775,Walk
Fix,FLP,37.4257399,-122.1573206,-11.800000190734863,1.2082971,22.765,169.00288,1678231865098,,,1666677106959307,6.1589775,Walk
Fix,GPS,37.4258903601,-122.1570618939,-19.27936189072333,1.0578606,14.664059,129.90048,1678231864000,0.8505519,134.11339,1666677621191000,8.459644,Walk
Fix,FLP,37.4257377,-122.1573267,-13.600000381469728,1.2076439,22.949,170.3723,1678231865641,,,1666677649454241,6.666479,Walk
Fix,FLP,37.4257315,-122.1573372,-13.600000381469728,1.1950642,23.263,173.1024,1678231866183,,,1666678191947649,6.666479,Walk
Fix,GPS,37.4258809939,-122.1570538263,-19.30547262102245,1.1340761,14.751221,129.90048,1678231865000,1.0883236,25.0,1666678621210000,8.455339,Walk
Fix,FLP,37.4257305,-122.1573421,-13.600000381469728,1.1851975,23.43,174.38084,1678231866725,,,1666678734442706,6.6754594,Walk
Fix,FLP,37.4257248,-122.1573532,-13.600000381469728,1.1693858,23.672,176.91127,1678231867267,,,1666679276938250,6.6754594,Walk
Fix,GPS,37.4258734208,-122.1570377468,-19.527613685636123,1.3108191,14.782125,129.90048,1678231866000,1.1291385,180.0,1666679621224000,8.451319,Walk
Fix,FLP,37.4257228,-122.1573645,-20.18520557877108,1.1659676,23.855,179.16327,1678231867811,,,1666679819431903,5.908405,Walk
Fix,FLP,37.4257183,-122.1573726,-20.18520557877108,1.1671332,23.952,180.50221,1678231868353,,,1666680361925493,5.908405,Walk
Fix,GPS,37.4258666618,-122.1570219982,-19.5863646715311,1.3401885,14.79933,129.90048,1678231867000,1.131704,60.70761,1666680621246000,8.460188,Walk
Fix,FLP,37.4257154,-122.1573894,-22.582555354910998,1.1704468,24.056,183.13374,1678231868885,,,1666680893000000,5.9689865,Walk
Fix,FLP,37.4257108,-122.1573986,-22.582555354910998,1.1727368,24.09,184.53767,1678231869394,,,1666681402000000,5.9689865,Walk
Fix,NLP,37.4259882,-122.1565752,-12.200000762939451,,16.079,,1678231869159,,,1666681168000000,2.7523854,Walk
Fix,GPS,37.4258583186,-122.1570075717,-19.553512935166587,1.464807,14.83316,129.90048,1678231868000,1.139327,25.0,1666681621443000,8.481982,Walk
Fix,FLP,37.4257016,-122.1574318,-21.28191813325269,1.1856017,24.075,189.62791,1678231869981,,,1666681989410906,5.708573,Walk
Fix,GPS,37.4258387972,-122.1570078421,-18.9570062427562,1.5068727,13.590973,142.6874,1678231869000,0.840826,28.229668,1666682621260000,8.392011,Walk
Fix,FLP,37.4257005,-122.157441,-5.05769297845319,1.1896836,24.019,191.10188,1678231870523,,,1666682531903704,5.7065063,Walk
Fix,FLP,37.4256957,-122.1574589,-5.05769297845319,1.1984528,23.862,193.91206,1678231871066,,,1666683074401140,5.7065063,Walk
Fix,GPS,37.4258362288,-122.1569787627,-19.04062845834725,1.6685917,12.717032,142.63515,1678231870000,0.80505675,30.419102,1666683621274000,8.279223,Walk
Fix,FLP,37.4256953,-122.1574665,-12.200000762939451,1.203691,23.759,195.25282,1678231871608,,,1666683616883257,4.0514445,Walk
Fix,FLP,37.4256909,-122.157477,-12.200000762939451,1.2212317,23.645,197.35313,1678231872150,,,1666684159391130,4.0514445,Walk
Fix,GPS,37.4258233388,-122.1569745981,-18.74516245412633,1.6122975,12.238939,142.63515,1678231871000,1.1171604,180.0,1666684621393000,8.2846,Walk
Fix,FLP,37.4256906,-122.1574792,-7.447702272897011,1.2335709,23.651,198.1566,1678231872692,,,1666684701885271,3.7303796,Walk
Fix,FLP,37.4256852,-122.1574849,-7.447702272897011,1.2563518,23.654,199.5771,1678231873236,,,1666685244381610,3.7303796,Walk
Fix,GPS,37.4258156927,-122.156964395,-18.545814986746425,1.5316601,11.642035,142.63515,1678231872000,0.8198111,25.0,1666685621315000,8.217734,Walk
Fix,FLP,37.4256826,-122.1574834,-12.200000762939451,1.2739652,23.891,200.03337,1678231873778,,,1666685786875689,4.094636,Walk
Fix,FLP,37.4256783,-122.1574812,-12.200000762939451,1.2811224,24.108,199.81491,1678231874321,,,1666686329361834,4.094636,Walk
Fix,NLP,37.4259876,-122.1566058,-13.600000381469728,,22.028,,1678231874227,,,1666686236000000,5.9914813,Walk
Fix,GPS,37.4258064117,-122.1569578347,-18.587910748281832,1.46978,11.18423,135.04028,1678231873000,0.8202395,26.812975,1666686621377000,8.1612625,Walk
Fix,FLP,37.4256741,-122.1574666,-11.800000190734863,1.2929657,24.849,198.298,1678231874863,,,1666686871865984,5.3049083,Walk
Fix,FLP,37.4256694,-122.1574588,-11.800000190734863,1.2910564,25.227,197.02571,1678231875405,,,1666687414362445,5.3049083,Walk
Fix,GPS,37.4257956137,-122.1569470163,-18.15670656930665,1.4628074,10.813902,123.015465,1678231874000,0.8049859,31.84659,1666687621347000,8.1174555,Walk
Fix,FLP,37.4256684,-122.1574321,-11.800000190734863,1.2817525,25.684,193.9341,1678231875962,,,1666687971000000,5.3036304,Walk
Fix,GPS,37.4257861524,-122.1569342281,-18.058360378488203,1.4634331,10.422382,110.75841,1678231875000,0.75981444,25.0,1666688621453000,8.04971,Walk
