# 
# Header Description:
# 
# Version: v3.0.5.6 Platform: 13 Manufacturer: Google Model: Pixel 6 Pro
# 
# Raw,utcTimeMillis,TimeNanos,LeapSecond,TimeUncertaintyNanos,FullBiasNanos,BiasNanos,BiasUncertaintyNanos,DriftNanosPerSecond,DriftUncertaintyNanosPerSecond,HardwareClockDiscontinuityCount,Svid,TimeOffsetNanos,State,ReceivedSvTimeNanos,ReceivedSvTimeUncertaintyNanos,Cn0DbHz,PseudorangeRateMetersPerSecond,PseudorangeRateUncertaintyMetersPerSecond,AccumulatedDeltaRangeState,AccumulatedDeltaRangeMeters,AccumulatedDeltaRangeUncertaintyMeters,CarrierFrequencyHz,CarrierCycles,CarrierPhase,CarrierPhaseUncertainty,MultipathIndicator,SnrInDb,ConstellationType,AgcDb,BasebandCn0DbHz,FullInterSignalBiasNanos,FullInterSignalBiasUncertaintyNanos,SatelliteInterSignalBiasNanos,SatelliteInterSignalBiasUncertaintyNanos,CodeType,ChipsetElapsedRealtimeNanos
# 
# UncalAccel,utcTimeMillis,elapsedRealtimeNanos,UncalAccelXMps2,UncalAccelYMps2,UncalAccelZMps2,BiasXMps2,BiasYMps2,BiasZMps2
# 
# Accel,utcTimeMillis,elapsedRealtimeNanos,AccelXMps2,AccelYMps2,AccelZMps2
# 
# UncalGyro,utcTimeMillis,elapsedRealtimeNanos,UncalGyroXRadPerSec,UncalGyroYRadPerSec,UncalGyroZRadPerSec,DriftXRadPerSec,DriftYRadPerSec,DriftZRadPerSec
# 
# Gyro,utcTimeMillis,elapsedRealtimeNanos,GyroXRadPerSec,GyroYRadPerSec,GyroZRadPerSec
# 
# UncalMag,utcTimeMillis,elapsedRealtimeNanos,UncalMagXMicroT,UncalMagYMicroT,UncalMagZMicroT,BiasXMicroT,BiasYMicroT,BiasZMicroT
# 
# Mag,utcTimeMillis,elapsedRealtimeNanos,MagXMicroT,MagYMicroT,MagZMicroT
# 
# OrientationDeg,utcTimeMillis,elapsedRealtimeNanos,yawDeg,rollDeg,pitchDeg
# 
# Fix,Provider,LatitudeDegrees,LongitudeDegrees,AltitudeMeters,SpeedMps,AccuracyMeters,BearingDegrees,UnixTimeMillis,SpeedAccuracyMps,BearingAccuracyDegrees,elapsedRealtimeNanos,VerticalAccuracyMeters
# 
# Nav,Svid,Type,Status,MessageId,Sub-messageId,Data(Bytes)
# 
# Status,UnixTimeMillis,SignalCount,SignalIndex,ConstellationType,Svid,CarrierFrequencyHz,Cn0DbHz,AzimuthDegrees,ElevationDegrees,UsedInFix,HasAlmanacData,HasEphemerisData,BasebandCn0DbHz
# 
Nav,11,769,1,-1,15,120,96,99,-39,18,-76,-64,-118,-123,-107,88
Nav,7,769,1,-1,15,120,96,99,-39,18,-76,-64,-118,-123,-107,88
Nav,8,769,1,-1,15,120,96,99,-39,18,-76,-64,-118,-123,-107,88
Raw,1675794360712,6105000000,,,-1359829572607628526,0.0,1011000.0,,,2415,4,0.0,17,597853,25,34.89553451538086,698.2613287549038,0.5664363151419547,25,3892.662377736616,0.0024717962369322777,1575420030,,,,0,,1,,30.795536041259766,-0.20372681261465636,1.0,-0.20372681261465636,1.0,C,4148871732972332
Raw,1675794360712,6105000000,,,-1359829572607628526,0.0,1011000.0,,,2415,8,0.0,17,873987,40,29.458423614501953,72.93210292499344,0.8117063866339964,25,270.97051670209964,0.004622407723218203,1575420030,,,,0,,1,,25.358423233032227,-1.222360875687938,1.0,-1.222360875687938,1.0,C,4148871732972332
Raw,1675794360712,6105000000,,,-1359829572607628526,0.0,1011000.0,,,2415,9,0.0,17,681072,78,22.691862106323242,454.29085701014856,5.863985164350414,16,783.2223878407056,340282346638528860000000000000000000000,1575420030,,,,1,,1,,18.591861724853516,-1.1641532291423,1.0,-1.1641532291423,1.0,C,4148871732972332
Raw,1675794360712,6105000000,,,-1359829572607628526,0.0,1011000.0,,,2415,14,0.0,17,835661,40,29.397985458374023,-443.0437486049907,0.8144172732735178,25,-2127.2394835687655,0.004654684104025364,1575420030,,,,0,,1,,25.297985076904297,-0.2619344840127561,1.0,-0.2619344840127561,1.0,C,4148871732972332
Raw,1675794360712,6105000000,,,-1359829572607628526,0.0,1011000.0,,,2415,27,0.0,16,14099028,1000000000,22.39140510559082,425.71227414383725,299792458,16,1612.3960498299562,340282346638528860000000000000000000000,1575420030,,,,0,,1,,18.291404724121094,-1.4842953845531561,1.0,-1.4842953845531561,1.0,C,4148871732972332
Raw,1675794360712,6105000000,,,-1359829572607628526,0.0,1011000.0,,,2415,4,0.0,16,14597788,1000000000,28.28985595703125,698.2887992148612,299792458,29,6976.886625861431,0.007000346202403307,1176450050,,,,0,,1,,24.28985595703125,-1.77522804402381,7.671281903963041,-1.77522804402381,1.0,Q,4148871732972332
Raw,1675794360712,6105000000,,,-1359829572607628526,0.0,1011000.0,,,2415,8,0.0,16,18873979,1000000000,14.453886032104492,73.15867457534296,299792458,16,339.08594599954176,340282346638528860000000000000000000000,1176450050,,,,0,,1,,10.453886032104492,5.849869869574474,7.671281903963041,5.849869869574474,1.0,Q,4148871732972332
Raw,1675794360712,6105000000,,,-1359829572607628526,0.0,1011000.0,,,2415,9,0.0,16,2681073,1000000000,29.66031265258789,455.2335777575695,299792458,16,1693.655490884648,340282346638528860000000000000000000000,1176450050,,,,0,,1,,25.66031265258789,4.365574683841011,7.671281903963041,4.365574683841011,1.0,Q,4148871732972332
Raw,1675794360712,6105000000,,,-1359829572607628526,0.0,1011000.0,,,2415,14,0.0,16,18835637,1000000000,13.634878158569336,-452.3071217106949,299792458,16,-2136.837443321723,340282346638528860000000000000000000000,1176450050,,,,0,,1,,9.634878158569336,0.0,7.671281903963041,0.0,1.0,Q,4148871732972332
Raw,1675794360712,6105000000,,,-1359829572607628526,0.0,1011000.0,,,2415,27,0.0,16,14099003,1000000000,11.0,425.12987312677546,299792458,16,2035.8596604498457,340282346638528860000000000000000000000,1176450050,,,,0,,1,,7.0,5.76255859857571,7.671281903963041,5.76255859857571,1.0,Q,4148871732972332
Raw,1675794360712,6105000000,,,-1359829572607628526,0.0,1011000.0,,,2415,11,0.0,99,645822009,43,36.9520378112793,-79.50277451188475,0.15,17,-565.2337042725068,0.09548650425535082,1602000000,,,,0,,3,,32.8520393371582,50.29141902923584,2.0000000474974513,50.29141902923584,2.0000000474974513,C,4148871732972332
Raw,1675794360712,6105000000,,,-1359829572607628526,0.0,1011000.0,,,2415,7,0.0,99,635912470,48,35.65681076049805,897.4169147476418,0.5324392311786961,17,4635.591961404645,0.09562710597058421,1604812540,,,,0,,3,,31.556812286376953,50.29141902923584,2.0000000474974513,50.29141902923584,2.0000000474974513,C,4148871732972332
Raw,1675794360712,6105000000,,,-1359829572607628526,0.0,1011000.0,,,2415,8,0.0,99,646703825,34,39.99513244628906,479.54190148122484,0.15,17,3373.2710461123306,0.09480177921692709,1605374980,,,,0,,3,,35.89513397216797,50.29141902923584,2.0000000474974513,50.29141902923584,2.0000000474974513,C,4148871732972332
Raw,1675794360712,6105000000,,,-1359829572607628526,0.0,1011000.0,,,2415,1,0.0,68642,33553306,17,39.9827995300293,-90.31718056964314,0.15,25,-659.8866599807446,0.0014595723478123546,1575420030,,,,0,,6,,35.8828010559082,-5.122274160385131,1.5000000237487257,-5.122274160385131,1.5000000237487257,C,4148871732972332
Raw,1675794360712,6105000000,,,-1359829572607628526,0.0,1011000.0,,,2415,19,0.0,67618,30388688,1000000000,22.025896072387695,327.5464150738387,299792458,16,1902.1666701874929,340282346638528860000000000000000000000,1575420030,,,,0,,6,,17.92589569091797,-5.122274160385131,1.5000000237487257,-5.122274160385131,1.5000000237487257,C,4148871732972332
Raw,1675794360712,6105000000,,,-1359829572607628526,0.0,1011000.0,,,2415,1,0.0,16,33553355,1000000000,15.213249206542969,-91.02267037843706,299792458,16,-726.9366660259262,340282346638528860000000000000000000000,1176450050,,,,0,,6,,11.213249206542969,-5.122274160385131,8.171281927711767,-5.122274160385131,1.5000000237487257,Q,4148871732972332
Raw,1675794360712,6105000000,,,-1359829572607628526,0.0,1011000.0,,,2415,4,0.0,16,31376749,1000000000,11.0,-240.53006929474498,299792458,16,-399.5521653561997,340282346638528860000000000000000000000,1176450050,,,,0,,6,,7.0,-2.536410465836525,8.171281927711767,-2.536410465836525,1.5000000237487257,Q,4148871732972332
Raw,1675794360712,6105000000,,,-1359829572607628526,0.0,1011000.0,,,2415,19,0.0,16,99972941,1000000000,11.0,333.78906005792624,299792458,16,1655.9583423272093,340282346638528860000000000000000000000,1176450050,,,,0,,6,,7.0,-2.35170591622591,8.171281927711767,-2.35170591622591,1.5000000237487257,Q,4148871732972332
Status,0,12,0,6,1,1575420030,39.98,238.0,70.0,1,1,1,35.8828
Status,0,12,1,6,19,1575420030,23.15,153.0,64.0,0,1,1,19.052408
Status,0,12,2,3,8,1605374980,40.00,193.0,61.0,1,1,1,35.895134
Status,0,12,3,1,9,1176450050,29.66,147.0,58.0,0,1,1,25.660313
Status,0,12,4,1,9,1575420030,22.69,147.0,58.0,0,1,1,18.591862
Status,0,12,5,3,11,1602000000,37.56,288.0,55.0,1,1,1,33.461067
Status,0,12,6,1,14,1575420030,29.52,225.0,39.0,1,1,1,25.422316
Status,0,12,7,1,8,1575420030,29.46,80.0,37.0,1,1,1,25.358423
Status,0,12,8,1,4,1176450050,28.29,137.0,23.0,0,1,1,24.289856
Status,0,12,9,1,4,1575420030,35.18,137.0,23.0,1,1,1,31.076494
Status,0,12,10,1,27,1575420030,23.38,48.0,19.0,0,1,1,19.283907
Status,0,12,11,3,7,1604812540,36.45,166.0,15.0,1,1,1,32.353672
Fix,GPS,37.4274113471,-122.1732768472,-13.863161546084942,0.0,21.223291,,1675794360712,0.93583995,,4148871683833700,34.746906
Fix,FLP,37.4273558000,-122.1730495000,0.19999995827674866,0.12915325,13.465,225.99893,1675794360861,,,4148871476451966,1.9067734
Raw,1675794361712,7105000000,,,-1359829572607628276,0.0,59.70699834680115,,,2415,4,0.0,16397,239179634595524,26,34.408775329589844,698.1014138688988,0.5883250406034528,25,4590.953530472803,0.002614271128550172,1575420030,,,,0,,1,,30.308774948120117,-0.20372681261465636,1.0,-0.20372681261465636,1.0,C,4148872726560426
Raw,1675794361712,7105000000,,,-1359829572607628276,0.0,59.70699834680115,,,2415,7,0.0,16385,239179643169249,111,22.2991886138916,73.51826153288687,5.864073033183637,16,126.81403092573822,340282346638528860000000000000000000000,1575420030,,,,1,,1,,18.199188232421875,-0.7566996039129875,1.0,-0.7566996039129875,1.0,C,4148872726560426
Raw,1675794361712,7105000000,,,-1359829572607628276,0.0,59.70699834680115,,,2415,8,0.0,16397,239179638873750,43,28.49348258972168,73.25580957643297,0.8550986126040678,25,344.0667532807971,0.005165535490959883,1575420030,,,,0,,1,,24.393482208251953,-1.222360875687938,1.0,-1.222360875687938,1.0,C,4148872726560426
Raw,1675794361712,7105000000,,,-1359829572607628276,0.0,59.70699834680115,,,2415,9,0.0,16385,239179642679572,39,29.532329559326172,454.8859026185803,0.8054698961960032,17,1693.0595652348666,0.0997300806111542,1575420030,,,,0,,1,,25.432329177856445,-1.1641532291423,1.0,-1.1641532291423,1.0,C,4148872726560426
Raw,1675794361712,7105000000,,,-1359829572607628276,0.0,59.70699834680115,,,2415,14,0.0,16397,239179638837134,42,28.872953414916992,-442.6779756815879,0.8380276287605031,25,-2570.1313204201665,0.004944720305502415,1575420030,,,,0,,1,,24.772953033447266,-0.2619344840127561,1.0,-0.2619344840127561,1.0,C,4148872726560426
Raw,1675794361712,7105000000,,,-1359829572607628276,0.0,59.70699834680115,,,2415,27,0.0,16385,239179634097604,73,21.917720794677734,425.5714795159415,1.1499440800985594,16,2037.2517744893184,340282346638528860000000000000000000000,1575420030,,,,0,,1,,17.817720413208008,-1.4842953845531561,1.0,-1.4842953845531561,1.0,C,4148872726560426
Raw,1675794361712,7105000000,,,-1359829572607628276,0.0,59.70699834680115,,,2415,4,0.0,81921,239179634596017,16,31.446683883666992,698.6033802885668,0.7170301152590777,25,7675.28000704668,0.004867187235504389,1176450050,,,,0,,1,,27.446683883666992,-1.77522804402381,7.671281903963041,-1.77522804402381,1.0,Q,4148872726560426
Raw,1675794361712,7105000000,,,-1359829572607628276,0.0,59.70699834680115,,,2415,8,0.0,16384,239179638874293,1000000000,11.583778381347656,71.82821476129027,299792458,16,410.980118955381,340282346638528860000000000000000000000,1176450050,,,,0,,1,,7.583778381347656,5.849869869574474,7.671281903963041,5.849869869574474,1.0,Q,4148872726560426
Raw,1675794361712,7105000000,,,-1359829572607628276,0.0,59.70699834680115,,,2415,9,0.0,81921,239179642680100,19,32.88445281982422,455.41762302279267,0.650231895406562,25,2148.8098662312805,0.004124675411731005,1176450050,,,,0,,1,,28.884450912475586,4.365574683841011,7.671281903963041,4.365574683841011,1.0,Q,4148872726560426
Raw,1675794361712,7105000000,,,-1359829572607628276,0.0,59.70699834680115,,,2415,14,0.0,16384,239179638837648,1000000000,12.806766510009766,-443.911590195431,299792458,16,-2580.60696282387,340282346638528860000000000000000000000,1176450050,,,,0,,1,,8.806766510009766,0.0,7.671281903963041,0.0,1.0,Q,4148872726560426
Raw,1675794361712,7105000000,,,-1359829572607628276,0.0,59.70699834680115,,,2415,27,0.0,16384,239179634098135,1000000000,11.0,425.44063696535045,299792458,16,2461.3047308182295,340282346638528860000000000000000000000,1176450050,,,,0,,1,,7.0,5.76255859857571,7.671281903963041,5.76255859857571,1.0,Q,4148872726560426
Raw,1675794361712,7105000000,,,-1359829572607628276,0.0,59.70699834680115,,,2415,10,0.0,32769,77161643806815,73,30.515409469604492,509.39049892494563,0.7614646519796064,17,1016.0595748618815,0.0978335233199695,1598062460,,,,0,,3,,26.415409088134766,50.29141902923584,2.0000000474974513,50.29141902923584,2.0000000474974513,C,4148872726560426
Raw,1675794361712,7105000000,,,-1359829572607628276,0.0,59.70699834680115,,,2415,11,0.0,32867,77161645822844,42,37.29863739013672,-79.23627526371877,0.15,17,-644.6617537366938,0.09552327717796355,1602000000,,,,0,,3,,33.198638916015625,50.29141902923584,2.0000000474974513,50.29141902923584,2.0000000474974513,C,4148872726560426
Raw,1675794361712,7105000000,,,-1359829572607628276,0.0,59.70699834680115,,,2415,7,0.0,32867,77161635910069,48,35.61642837524414,897.5252287944713,0.53425462124327,17,5533.049224695228,0.09563746483875102,1604812540,,,,0,,3,,31.516427993774414,50.29141902923584,2.0000000474974513,50.29141902923584,2.0000000474974513,C,4148872726560426
Raw,1675794361712,7105000000,,,-1359829572607628276,0.0,59.70699834680115,,,2415,8,0.0,32867,77161646702817,33,40.874061584472656,479.93221377332407,0.15,17,3852.927054909632,0.09466412776133845,1605374980,,,,0,,3,,36.77406311035156,50.29141902923584,2.0000000474974513,50.29141902923584,2.0000000474974513,C,4148872726560426
Raw,1675794361712,7105000000,,,-1359829572607628276,0.0,59.70699834680115,,,2415,1,0.0,85026,239179633553593,15,40.88496017456055,-89.99179535721987,0.15,25,-750.061104988553,0.0013155812630429864,1575420030,,,,0,,6,,36.78496170043945,-5.122274160385131,1.5000000237487257,-5.122274160385131,1.5000000237487257,C,4148872726560426
Raw,1675794361712,7105000000,,,-1359829572607628276,0.0,59.70699834680115,,,2415,4,0.0,85026,239179631377569,78,34.226829528808594,-238.03368272550347,0.5952084986096984,16,-869.9479389538568,340282346638528860000000000000000000000,1575420030,,,,1,,6,,30.126829147338867,-5.122274160385131,1.5000000237487257,-5.122274160385131,1.5000000237487257,C,4148872726560426
Raw,1675794361712,7105000000,,,-1359829572607628276,0.0,59.70699834680115,,,2415,19,0.0,84002,239179630387584,1000000000,21.37531852722168,328.59673413650216,299792458,16,2231.5646835040934,340282346638528860000000000000000000000,1575420030,,,,0,,6,,17.275318145751953,-5.122274160385131,1.5000000237487257,-5.122274160385131,1.5000000237487257,C,4148872726560426
Raw,1675794361712,7105000000,,,-1359829572607628276,0.0,59.70699834680115,,,2415,1,0.0,16384,239179633554157,1000000000,19.46115493774414,-90.99353839872418,299792458,16,-816.8323049324781,340282346638528860000000000000000000000,1176450050,,,,0,,6,,15.46115493774414,-5.122274160385131,8.171281927711767,-5.122274160385131,1.5000000237487257,Q,4148872726560426
Raw,1675794361712,7105000000,,,-1359829572607628276,0.0,59.70699834680115,,,2415,4,0.0,16384,239179631378139,1000000000,11.0,-240.53006929474498,299792458,16,-651.1367047403756,340282346638528860000000000000000000000,1176450050,,,,0,,6,,7.0,-2.536410465836525,8.171281927711767,-2.536410465836525,1.5000000237487257,Q,4148872726560426
Raw,1675794361712,7105000000,,,-1359829572607628276,0.0,59.70699834680115,,,2415,19,0.0,16384,239179629972374,1000000000,11.0,333.667658347792,299792458,16,1989.716219899683,340282346638528860000000000000000000000,1176450050,,,,0,,6,,7.0,-2.35170591622591,8.171281927711767,-2.35170591622591,1.5000000237487257,Q,4148872726560426
Status,1675794360712,16,0,6,1,1575420030,40.88,238.0,70.0,1,1,1,36.78496
Status,1675794360712,16,1,6,1,1176450050,19.46,238.0,70.0,0,1,1,15.461155
Status,1675794360712,16,2,1,7,1575420030,22.30,20.0,67.0,0,1,1,18.199188
Status,1675794360712,16,3,6,19,1575420030,22.97,153.0,64.0,0,1,1,18.874699
Status,1675794360712,16,4,3,8,1605374980,40.87,193.0,61.0,1,1,1,36.774063
Status,1675794360712,16,5,1,9,1176450050,32.88,147.0,58.0,1,1,1,28.88445
Status,1675794360712,16,6,1,9,1575420030,29.53,147.0,58.0,1,1,1,25.43233
Status,1675794360712,16,7,3,11,1602000000,37.53,288.0,55.0,1,1,1,33.434826
Status,1675794360712,16,8,6,4,1575420030,34.23,310.0,52.0,1,1,1,30.12683
Status,1675794360712,16,9,3,10,1598062460,30.52,28.0,45.0,1,1,1,26.41541
Status,1675794360712,16,10,1,14,1575420030,29.46,225.0,39.0,1,1,1,25.35738
Status,1675794360712,16,11,1,8,1575420030,29.36,80.0,37.0,1,1,1,25.261929
Status,1675794360712,16,12,1,4,1176450050,31.45,137.0,23.0,1,1,1,27.446684
Status,1675794360712,16,13,1,4,1575420030,35.10,137.0,23.0,1,1,1,30.999722
Status,1675794360712,16,14,1,27,1575420030,23.24,48.0,19.0,1,1,1,19.13729
Status,1675794360712,16,15,3,7,1604812540,36.37,166.0,15.0,1,1,1,32.269947
Fix,GPS,37.4273836579,-122.1732453554,-6.506267600082153,0.0,17.519295,,1675794361712,0.41933686,,4148872677676271,20.762579
Fix,FLP,37.4273497000,-122.1730527000,0.19999995827674866,0.111164644,12.93,226.68312,1675794361874,,,4148872489348939,1.9171734
Nav,11,769,1,3,1,8,85,-95,5,39,-24,-78,-82,-52,-21,32
Nav,7,769,1,3,1,8,85,-96,40,55,56,-89,-91,40,126,72
Nav,8,769,1,3,1,8,85,-92,90,4,-88,-82,23,-65,71,120
Raw,1675794362712,8105000000,,,-1359829572607628033,0.0,45.782223671305516,,,2415,4,0.0,16431,239180634593184,30,32.66184616088867,698.5914514287838,0.6668819742255296,16,5289.157092282689,340282346638528860000000000000000000000,1575420030,,,,0,,1,,28.561845779418945,-0.20372681261465636,1.0,-0.20372681261465636,1.0,C,4148873728595746
Raw,1675794362712,8105000000,,,-1359829572607628033,0.0,45.782223671305516,,,2415,5,0.0,16385,239180632090381,87,21.364595413208008,-158.5469695712551,5.772141997173954,16,-111.56466220496401,340282346638528860000000000000000000000,1575420030,,,,0,,1,,17.26459503173828,-0.2619344840127561,1.0,-0.2619344840127561,1.0,C,4148873728595746
Raw,1675794362712,8105000000,,,-1359829572607628033,0.0,45.782223671305516,,,2415,7,0.0,16385,239180643169024,139,24.712722778320312,73.72918081507828,1.022290169644012,16,274.7440664178044,340282346638528860000000000000000000000,1575420030,,,,0,,1,,20.612722396850586,-0.7566996039129875,1.0,-0.7566996039129875,1.0,C,4148873728595746
Raw,1675794362712,8105000000,,,-1359829572607628033,0.0,45.782223671305516,,,2415,8,0.0,16397,239180638873495,45,27.772653579711914,73.6647479310219,0.8875133586126869,16,417.29418647164005,340282346638528860000000000000000000000,1575420030,,,,0,,1,,23.672653198242188,-1.222360875687938,1.0,-1.222360875687938,1.0,C,4148873728595746
Raw,1675794362712,8105000000,,,-1359829572607628033,0.0,45.782223671305516,,,2415,9,0.0,16385,239180642678045,30,32.6436653137207,455.8070832534788,0.6655562864879285,17,2148.493152570053,0.09835019909132993,1575420030,,,,0,,1,,28.54366683959961,-1.1641532291423,1.0,-1.1641532291423,1.0,C,4148873728595746
Raw,1675794362712,8105000000,,,-1359829572607628033,0.0,45.782223671305516,,,2415,14,0.0,16397,239180638838580,42,28.629194259643555,-442.4292078314279,0.8489894654069499,25,-3012.8865565316837,0.005085453856736422,1575420030,,,,0,,1,,24.529193878173828,-0.2619344840127561,1.0,-0.2619344840127561,1.0,C,4148873728595746
Raw,1675794362712,8105000000,,,-1359829572607628033,0.0,45.782223671305516,,,2415,27,0.0,16385,239180634096177,107,17.233461380004883,425.88725347562536,1.3605896375610227,16,2462.6708025617518,340282346638528860000000000000000000000,1575420030,,,,0,,1,,13.133460998535156,-1.4842953845531561,1.0,-1.4842953845531561,1.0,C,4148873728595746
Raw,1675794362712,8105000000,,,-1359829572607628033,0.0,45.782223671305516,,,2415,30,0.0,16385,239180640519717,60,24.437984466552734,-235.03565351993097,5.859998582014011,16,-394.9549436781582,340282346638528860000000000000000000000,1575420030,,,,0,,1,,20.337984085083008,-1.8044374405541648,1.0,-1.8044374405541648,1.0,C,4148873728595746
Raw,1675794362712,8105000000,,,-1359829572607628033,0.0,45.782223671305516,,,2415,4,0.0,81921,239180634593688,9,32.983985900878906,699.1675812738454,0.6478991110190906,25,8373.83228963248,0.004077679943293333,1176450050,,,,0,,1,,28.983983993530273,-1.77522804402381,7.671281903963041,-1.77522804402381,1.0,Q,4148873728595746
Raw,1675794362712,8105000000,,,-1359829572607628033,0.0,45.782223671305516,,,2415,8,0.0,16384,239180638874049,1000000000,13.24874496459961,72.34777624913812,299792458,16,482.97918641790693,340282346638528860000000000000000000000,1176450050,,,,1,,1,,9.24874496459961,5.849869869574474,7.671281903963041,5.849869869574474,1.0,Q,4148873728595746
Raw,1675794362712,8105000000,,,-1359829572607628033,0.0,45.782223671305516,,,2415,9,0.0,81921,239180642678582,8,34.1856689453125,455.8018004727178,0.5917173766715367,25,2604.2454917764735,0.003550821915268898,1176450050,,,,0,,1,,30.1856689453125,4.365574683841011,7.671281903963041,4.365574683841011,1.0,Q,4148873728595746
Raw,1675794362712,8105000000,,,-1359829572607628033,0.0,45.782223671305516,,,2415,14,0.0,16384,239180638839121,1000000000,15.98965835571289,-443.75133448486076,299792458,16,-3024.82441844417,340282346638528860000000000000000000000,1176450050,,,,0,,1,,11.98965835571289,0.0,7.671281903963041,0.0,1.0,Q,4148873728595746
Raw,1675794362712,8105000000,,,-1359829572607628033,0.0,45.782223671305516,,,2415,27,0.0,16384,239180634096715,1000000000,11.0,425.55716488420194,299792458,16,2886.747100081624,340282346638528860000000000000000000000,1176450050,,,,0,,1,,7.0,5.76255859857571,7.671281903963041,5.76255859857571,1.0,Q,4148873728595746
Raw,1675794362712,8105000000,,,-1359829572607628033,0.0,45.782223671305516,,,2415,30,0.0,16384,239180640520258,1000000000,11.0,-236.8008861906169,299792458,16,-871.4480516089229,340282346638528860000000000000000000000,1176450050,,,,0,,1,,7.0,3.405148317018291,7.671281903963041,3.405148317018291,1.0,Q,4148873728595746
Raw,1675794362712,8105000000,,,-1359829572607628033,0.0,45.782223671305516,,,2415,10,0.0,32769,77162643805138,83,28.983613967895508,509.7692231818271,0.8303474933330368,17,1525.5024719458038,0.098611677789996,1598062460,,,,0,,3,,24.88361358642578,50.29141902923584,2.0000000474974513,50.29141902923584,2.0000000474974513,C,4148873728595746
Raw,1675794362712,8105000000,,,-1359829572607628033,0.0,45.782223671305516,,,2415,11,0.0,32995,77162645822558,48,35.70622634887695,-78.75947873819291,0.5284020909795415,25,-723.8882376435007,0.0023484874982386827,1602000000,,,,0,,3,,31.606225967407227,50.29141902923584,2.0000000474974513,50.29141902923584,2.0000000474974513,C,4148873728595746
Raw,1675794362712,8105000000,,,-1359829572607628033,0.0,45.782223671305516,,,2415,7,0.0,32995,77162635906469,48,35.83097839355469,897.970073017007,0.5246059576824198,17,6430.73167688982,0.09558297618170863,1604812540,,,,0,,3,,31.730979919433594,50.29141902923584,2.0000000474974513,50.29141902923584,2.0000000474974513,C,4148873728595746
Raw,1675794362712,8105000000,,,-1359829572607628033,0.0,45.782223671305516,,,2415,8,0.0,32995,77162646700658,40,38.018707275390625,480.34859914466324,0.15,25,4332.850249785103,0.0017957674572244287,1605374980,,,,0,,3,,33.91870880126953,50.29141902923584,2.0000000474974513,50.29141902923584,2.0000000474974513,C,4148873728595746
Raw,1675794362712,8105000000,,,-1359829572607628033,0.0,45.782223671305516,,,2415,1,0.0,85026,239180633553897,17,39.872589111328125,-89.57330539419041,0.15,25,-840.0528162375304,0.0014782102080062032,1575420030,,,,0,,6,,35.77259063720703,-5.122274160385131,1.5000000237487257,-5.122274160385131,1.5000000237487257,C,4148873728595746
Raw,1675794362712,8105000000,,,-1359829572607628033,0.0,45.782223671305516,,,2415,4,0.0,85026,239180631378392,93,30.464448928833008,-238.02477016312275,0.7643986722016756,25,-1108.3405080188934,0.004116869065910578,1575420030,,,,1,,6,,26.36444854736328,-5.122274160385131,1.5000000237487257,-5.122274160385131,1.5000000237487257,C,4148873728595746
Raw,1675794362712,8105000000,,,-1359829572607628033,0.0,45.782223671305516,,,2415,19,0.0,84002,239180630126385,1000000000,20.606096267700195,329.14253059525845,299792458,16,2561.0277978613717,340282346638528860000000000000000000000,1575420030,,,,0,,6,,16.50609588623047,-5.122274160385131,1.5000000237487257,-5.122274160385131,1.5000000237487257,C,4148873728595746
Raw,1675794362712,8105000000,,,-1359829572607628033,0.0,45.782223671305516,,,2415,1,0.0,16384,239180633554416,1000000000,26.98511505126953,-90.06846384316793,299792458,29,-906.7600301925889,0.008134981617331505,1176450050,,,,0,,6,,22.98511505126953,-5.122274160385131,8.171281927711767,-5.122274160385131,1.5000000237487257,Q,4148873728595746
Raw,1675794362712,8105000000,,,-1359829572607628033,0.0,45.782223671305516,,,2415,4,0.0,16384,239180631378948,1000000000,11.0,-251.30489709986625,299792458,16,-883.5462333663709,340282346638528860000000000000000000000,1176450050,,,,0,,6,,7.0,-2.536410465836525,8.171281927711767,-2.536410465836525,1.5000000237487257,Q,4148873728595746
Raw,1675794362712,8105000000,,,-1359829572607628033,0.0,45.782223671305516,,,2415,19,0.0,16384,239180629971250,1000000000,11.0,333.66281863896575,299792458,16,2322.6620119780696,340282346638528860000000000000000000000,1176450050,,,,1,,6,,7.0,-2.35170591622591,8.171281927711767,-2.35170591622591,1.5000000237487257,Q,4148873728595746
Status,1675794361712,18,0,6,1,1176450050,26.99,238.0,70.0,0,1,1,22.985115
Status,1675794361712,18,1,6,1,1575420030,40.78,238.0,70.0,1,1,1,36.683723
Status,1675794361712,18,2,1,7,1575420030,24.71,20.0,67.0,1,1,1,20.612722
Status,1675794361712,18,3,6,19,1575420030,22.74,153.0,64.0,0,1,1,18.637838
Status,1675794361712,18,4,3,8,1605374980,40.59,193.0,61.0,1,1,1,36.48853
Status,1675794361712,18,5,1,9,1575420030,32.64,147.0,58.0,1,1,1,28.543667
Status,1675794361712,18,6,1,9,1176450050,34.19,147.0,58.0,1,1,1,30.185669
Status,1675794361712,18,7,3,11,1602000000,37.35,288.0,55.0,1,1,1,33.251965
Status,1675794361712,18,8,6,4,1575420030,33.85,310.0,52.0,1,1,1,29.750591
Status,1675794361712,18,9,1,30,1575420030,24.44,302.0,51.0,0,1,1,20.337984
Status,1675794361712,18,10,3,10,1598062460,30.36,28.0,45.0,1,1,1,26.26223
Status,1675794361712,18,11,1,14,1575420030,29.37,225.0,39.0,1,1,1,25.27456
Status,1675794361712,18,12,1,8,1575420030,29.20,80.0,37.0,1,1,1,25.103
Status,1675794361712,18,13,1,4,1176450050,32.98,137.0,23.0,1,1,1,28.983984
Status,1675794361712,18,14,1,4,1575420030,34.86,137.0,23.0,1,1,1,30.755934
Status,1675794361712,18,15,1,27,1575420030,22.64,48.0,19.0,0,1,1,18.536907
Status,1675794361712,18,16,1,5,1575420030,21.36,312.0,15.0,0,1,1,17.264595
Status,1675794361712,18,17,3,7,1604812540,36.32,166.0,15.0,1,1,1,32.21605
Fix,GPS,37.4273723265,-122.1732254890,-1.166233233322613,0.0,13.874282,,1675794362712,0.4609116,,4148873679560345,14.485091
Fix,FLP,37.4273475000,-122.1730509000,0.19999995827674866,0.07687777,12.32,,1675794362887,,,4148873502240540,1.9267634
Fix,FLP,37.4273467000,-122.1730445000,0.19999995827674866,0.040849805,11.786,,1675794363393,,,4148874008688599,1.9267634
Nav,10,769,1,-1,2,16,-43,0,15,-123,-92,42,-49,90,81,-72
Nav,11,769,1,3,2,16,-43,0,26,25,-56,103,-90,88,97,-40
Nav,7,769,1,3,2,16,-43,0,124,-115,-27,54,-112,-125,-11,-8
Nav,8,769,1,3,2,16,-43,4,-124,-5,-4,-78,-128,-97,8,40
Raw,1675794363999,9392000000,,,-1359829572607627734,0.0,40.06909681798047,,,2415,4,0.0,16431,239181921590184,26,34.42439270019531,698.6322822116981,0.5888808109735875,17,6188.344332338704,0.0977564117993114,1575420030,,,,0,,1,,30.324392318725586,-0.20372681261465636,1.0,-0.20372681261465636,1.0,C,4148875017978559
Raw,1675794363999,9392000000,,,-1359829572607627734,0.0,40.06909681798047,,,2415,5,0.0,16384,239181919091026,1000000000,19.962615966796875,-158.227463582582,299792458,16,-473.96436533768286,340282346638528860000000000000000000000,1575420030,,,,0,,1,,15.862616539001465,-0.2619344840127561,1.0,-0.2619344840127561,1.0,C,4148875017978559
Raw,1675794363999,9392000000,,,-1359829572607627734,0.0,40.06909681798047,,,2415,7,0.0,16385,239181930168709,140,26.117294311523438,73.53807196074075,0.9603872423114788,16,370.3188461133803,340282346638528860000000000000000000000,1575420030,,,,0,,1,,22.01729393005371,-0.7566996039129875,1.0,-0.7566996039129875,1.0,C,4148875017978559
Raw,1675794363999,9392000000,,,-1359829572607627734,0.0,40.06909681798047,,,2415,8,0.0,16431,239181925873171,48,27.191152572631836,73.5607027118719,0.9149219109830287,21,512.0043236155834,0.10114794984747445,1575420030,,,,0,,1,,23.09115219116211,-1.222360875687938,1.0,-1.222360875687938,1.0,C,4148875017978559
Raw,1675794363999,9392000000,,,-1359829572607627734,0.0,40.06909681798047,,,2415,9,0.0,16385,239181929676090,25,35.13300323486328,455.6585178254959,0.5548723107187397,17,2734.8289132605714,0.0975519699632076,1575420030,,,,0,,1,,31.033004760742188,-1.1641532291423,1.0,-1.1641532291423,1.0,C,4148875017978559
Raw,1675794363999,9392000000,,,-1359829572607627734,0.0,40.06909681798047,,,2415,14,0.0,16431,239181925840484,40,29.460338592529297,-442.4589277335158,0.8128732447988174,25,-3582.465771275836,0.0046213893219828606,1575420030,,,,0,,1,,25.36033821105957,-0.2619344840127561,1.0,-0.2619344840127561,1.0,C,4148875017978559
Raw,1675794363999,9392000000,,,-1359829572607627734,0.0,40.06909681798047,,,2415,20,0.0,16385,239181922063380,111,19.843820571899414,182.6817454262963,5.907044087859919,16,402.6458633614425,340282346638528860000000000000000000000,1575420030,,,,1,,1,,15.743820190429688,0.0,1.0,0.0,1.0,C,4148875017978559
Raw,1675794363999,9392000000,,,-1359829572607627734,0.0,40.06909681798047,,,2415,27,0.0,16385,239181921094340,93,18.95273780822754,426.53662651975446,1.2845345026957755,16,3011.849673183758,340282346638528860000000000000000000000,1575420030,,,,0,,1,,14.852737426757812,-1.4842953845531561,1.0,-1.4842953845531561,1.0,C,4148875017978559
Raw,1675794363999,9392000000,,,-1359829572607627734,0.0,40.06909681798047,,,2415,30,0.0,16384,239181927520695,1000000000,22.828489303588867,-234.00372194256158,299792458,16,-932.9680128908246,340282346638528860000000000000000000000,1575420030,,,,0,,1,,18.72848892211914,-1.8044374405541648,1.0,-1.8044374405541648,1.0,C,4148875017978559
Raw,1675794363999,9392000000,,,-1359829572607627734,0.0,40.06909681798047,,,2415,4,0.0,81921,239181921590689,8,33.74159240722656,698.6977205282219,0.6150889552609686,25,9273.011313113651,0.00373708363622427,1176450050,,,,0,,1,,29.74159049987793,-1.77522804402381,7.671281903963041,-1.77522804402381,1.0,Q,4148875017978559
Raw,1675794363999,9392000000,,,-1359829572607627734,0.0,40.06909681798047,,,2415,8,0.0,16384,239181925873746,1000000000,13.881017684936523,72.26037178938537,299792458,16,577.2850553501844,340282346638528860000000000000000000000,1176450050,,,,0,,1,,9.881017684936523,5.849869869574474,7.671281903963041,5.849869869574474,1.0,Q,4148875017978559
Raw,1675794363999,9392000000,,,-1359829572607627734,0.0,40.06909681798047,,,2415,9,0.0,81921,239181929676629,7,34.23060607910156,455.726648656085,0.5909552476779241,25,3190.584802242748,0.003532497910782695,1176450050,,,,0,,1,,30.230607986450195,4.365574683841011,7.671281903963041,4.365574683841011,1.0,Q,4148875017978559
Raw,1675794363999,9392000000,,,-1359829572607627734,0.0,40.06909681798047,,,2415,14,0.0,16384,239181925841018,1000000000,12.837549209594727,-442.9647113883143,299792458,16,-3593.322203154522,340282346638528860000000000000000000000,1176450050,,,,0,,1,,8.837549209594727,0.0,7.671281903963041,0.0,1.0,Q,4148875017978559
Raw,1675794363999,9392000000,,,-1359829572607627734,0.0,40.06909681798047,,,2415,27,0.0,16384,239181921094880,1000000000,11.0,425.7271340948812,299792458,16,3435.6192863202486,340282346638528860000000000000000000000,1176450050,,,,1,,1,,7.0,5.76255859857571,7.671281903963041,5.76255859857571,1.0,Q,4148875017978559
Raw,1675794363999,9392000000,,,-1359829572607627734,0.0,40.06909681798047,,,2415,30,0.0,16384,239181927521277,1000000000,13.474603652954102,-236.8008861906169,299792458,16,-1173.783525925802,340282346638528860000000000000000000000,1176450050,,,,0,,1,,9.474603652954102,3.405148317018291,7.671281903963041,3.405148317018291,1.0,Q,4148875017978559
Raw,1675794363999,9392000000,,,-1359829572607627734,0.0,40.06909681798047,,,2415,10,0.0,32833,77163930802905,86,28.569143295288086,509.54233626875475,0.8502444586741853,16,2181.740189189608,340282346638528860000000000000000000000,1598062460,,,,0,,3,,24.46914291381836,50.29141902923584,2.0000000474974513,50.29141902923584,2.0000000474974513,C,4148875017978559
Raw,1675794363999,9392000000,,,-1359829572607627734,0.0,40.06909681798047,,,2415,11,0.0,32995,77163932822841,60,33.052371978759766,-78.93730395510067,0.6490021311452292,25,-825.6528391893546,0.0030054165981709957,1602000000,,,,0,,3,,28.95237159729004,50.29141902923584,2.0000000474974513,50.29141902923584,2.0000000474974513,C,4148875017978559
Raw,1675794363999,9392000000,,,-1359829572607627734,0.0,40.06909681798047,,,2415,7,0.0,32995,77163922902626,49,35.46467590332031,897.7687820287833,0.542336656731784,17,7586.148280288555,0.09567682509189135,1604812540,,,,0,,3,,31.36467742919922,50.29141902923584,2.0000000474974513,50.29141902923584,2.0000000474974513,C,4148875017978559
Raw,1675794363999,9392000000,,,-1359829572607627734,0.0,40.06909681798047,,,2415,8,0.0,32995,77163933698608,49,35.544246673583984,480.2248116625724,0.537102836218351,25,4950.809328365201,0.002251110738143325,1605374980,,,,0,,3,,31.44424819946289,50.29141902923584,2.0000000474974513,50.29141902923584,2.0000000474974513,C,4148875017978559
Raw,1675794363999,9392000000,,,-1359829572607627734,0.0,40.06909681798047,,,2415,1,0.0,85026,239181920554280,22,36.740665435791016,-89.90162169787465,0.15,25,-955.6950124320882,0.002119982847943902,1575420030,,,,0,,6,,32.64066696166992,-5.122274160385131,1.5000000237487257,-5.122274160385131,1.5000000237487257,C,4148875017978559
Raw,1675794363999,9392000000,,,-1359829572607627734,0.0,40.06909681798047,,,2415,4,0.0,85026,239181918379414,45,27.920928955078125,-237.9238520093587,0.8800371853859743,25,-1414.740791355136,0.005517507903277874,1575420030,,,,0,,6,,23.8209285736084,-5.122274160385131,1.5000000237487257,-5.122274160385131,1.5000000237487257,C,4148875017978559
Raw,1675794363999,9392000000,,,-1359829572607627734,0.0,40.06909681798047,,,2415,19,0.0,85026,239181917124992,40,29.286901473999023,329.5594953683585,0.818385416468403,16,2984.7422147315892,340282346638528860000000000000000000000,1575420030,,,,0,,6,,25.186901092529297,-5.122274160385131,1.5000000237487257,-5.122274160385131,1.5000000237487257,C,4148875017978559
Raw,1675794363999,9392000000,,,-1359829572607627734,0.0,40.06909681798047,,,2415,1,0.0,84003,239181920554811,39,26.380474090576172,-89.81428540303494,0.9459236329592069,25,-1022.3861989094187,0.008721448481082916,1176450050,,,,0,,6,,22.380474090576172,-5.122274160385131,8.171281927711767,-5.122274160385131,1.5000000237487257,Q,4148875017978559
Raw,1675794363999,9392000000,,,-1359829572607627734,0.0,40.06909681798047,,,2415,4,0.0,16384,239181918379938,1000000000,11.204376220703125,-238.04394154491683,299792458,16,-1189.7637954374156,340282346638528860000000000000000000000,1176450050,,,,0,,6,,7.204376220703125,-2.536410465836525,8.171281927711767,-2.536410465836525,1.5000000237487257,Q,4148875017978559
Raw,1675794363999,9392000000,,,-1359829572607627734,0.0,40.06909681798047,,,2415,19,0.0,16384,239181916969796,1000000000,11.0,333.8813212677335,299792458,16,2749.313554790901,340282346638528860000000000000000000000,1176450050,,,,0,,6,,7.0,-2.35170591622591,8.171281927711767,-2.35170591622591,1.5000000237487257,Q,4148875017978559
Status,1675794362712,19,0,6,1,1575420030,40.38,238.0,70.0,1,1,1,36.27942
Status,1675794362712,19,1,6,1,1176450050,26.92,238.0,70.0,1,1,1,22.92465
Status,1675794362712,19,2,1,7,1575420030,26.12,20.0,67.0,1,1,1,22.017294
Status,1675794362712,19,3,6,19,1575420030,29.29,153.0,64.0,1,1,1,25.186901
Status,1675794362712,19,4,3,8,1605374980,40.08,193.0,61.0,1,1,1,35.9841
Status,1675794362712,19,5,1,9,1176450050,34.23,147.0,58.0,1,1,1,30.230608
Status,1675794362712,19,6,1,9,1575420030,35.13,147.0,58.0,1,1,1,31.033005
Status,1675794362712,19,7,3,11,1602000000,36.92,288.0,55.0,1,1,1,32.822006
Status,1675794362712,19,8,6,4,1575420030,33.26,310.0,52.0,1,1,1,29.157625
Status,1675794362712,19,9,1,30,1575420030,24.28,302.0,51.0,0,1,1,20.177034
Status,1675794362712,19,10,3,10,1598062460,30.18,28.0,45.0,1,1,1,26.082922
Status,1675794362712,19,11,1,14,1575420030,29.46,225.0,39.0,1,1,1,25.360338
Status,1675794362712,19,12,1,8,1575420030,29.00,80.0,37.0,1,1,1,24.901815
Status,1675794362712,19,13,1,4,1176450050,33.74,137.0,23.0,1,1,1,29.74159
Status,1675794362712,19,14,1,4,1575420030,34.81,137.0,23.0,1,1,1,30.71278
Status,1675794362712,19,15,1,20,1575420030,19.84,281.0,22.0,0,1,1,15.74382
Status,1675794362712,19,16,1,27,1575420030,22.27,48.0,19.0,0,1,1,18.16849
Status,1675794362712,19,17,1,5,1575420030,21.22,312.0,15.0,0,1,1,17.124397
Status,1675794362712,19,18,3,7,1604812540,36.23,166.0,15.0,1,1,1,32.130913
Fix,GPS,37.4273784099,-122.1732009893,1.3146104675379087,0.0,12.922408,,1675794363999,0.5124172,,4148874969004845,11.789608
Fix,FLP,37.4273372000,-122.1730453000,0.19999995827674866,0.044469256,12.75,,1675794364354,,,4148874969004845,1.9395634
Fix,NLP,37.4272188000,-122.1729574000,0.19999995827674866,,20.828,,1675794365072,,,4148875688000000,1.8257008
Fix,FLP,37.4273296000,-122.1730450000,0.19999995827674866,0.045682646,13.71,,1675794365073,,,4148875688000000,1.8151381
Status,1675794363999,19,0,6,1,1575420030,39.90,238.0,70.0,1,1,1,35.799923
Status,1675794363999,19,1,6,1,1176450050,26.74,238.0,70.0,1,1,1,22.739769
Status,1675794363999,19,2,1,7,1575420030,26.05,20.0,67.0,1,1,1,21.948927
Status,1675794363999,19,3,6,19,1575420030,29.70,153.0,64.0,1,1,1,25.597515
Status,1675794363999,19,4,3,8,1605374980,39.56,193.0,61.0,1,1,1,35.455826
Status,1675794363999,19,5,1,9,1176450050,34.16,147.0,58.0,1,1,1,30.157072
Status,1675794363999,19,6,1,9,1575420030,35.13,147.0,58.0,1,1,1,31.032518
Status,1675794363999,19,7,3,11,1602000000,36.17,288.0,55.0,1,1,1,32.065414
Status,1675794363999,19,8,6,4,1575420030,32.52,310.0,52.0,1,1,1,28.417149
Status,1675794363999,19,9,1,30,1575420030,24.12,302.0,51.0,1,1,1,20.018797
Status,1675794363999,19,10,3,10,1598062460,29.96,28.0,45.0,1,1,1,25.855568
Status,1675794363999,19,11,1,14,1575420030,29.77,225.0,40.0,1,1,1,25.66953
Status,1675794363999,19,12,1,8,1575420030,28.82,80.0,37.0,0,1,1,24.71844
Status,1675794363999,19,13,1,4,1176450050,33.69,137.0,23.0,1,1,1,29.688118
Status,1675794363999,19,14,1,4,1575420030,34.80,137.0,23.0,1,1,1,30.697067
Status,1675794363999,19,15,1,20,1575420030,19.16,281.0,22.0,0,1,1,15.063924
Status,1675794363999,19,16,1,27,1575420030,21.74,48.0,19.0,0,1,1,17.63777
Status,1675794363999,19,17,1,5,1575420030,20.90,311.0,15.0,0,1,1,16.799517
Status,1675794363999,19,18,3,7,1604812540,36.14,166.0,15.0,1,1,1,32.03684
Raw,1675794364999,10392000000,,,-1359829572607627504,0.0,37.25696243542715,,,2415,4,0.0,16431,239182921587862,26,34.690696716308594,698.4969066943895,0.5733074581980895,17,6886.997978383652,0.09767761702005541,1575420030,,,,0,,1,,30.5906982421875,-0.20372681261465636,1.0,-0.20372681261465636,1.0,C,4148876032448896
Raw,1675794364999,10392000000,,,-1359829572607627504,0.0,37.25696243542715,,,2415,5,0.0,16385,239182919091548,166,18.700077056884766,-157.9098150877894,1.2955360800190663,16,-632.141023186151,340282346638528860000000000000000000000,1575420030,,,,0,,1,,14.600077629089355,-0.2619344840127561,1.0,-0.2619344840127561,1.0,C,4148876032448896
Raw,1675794364999,10392000000,,,-1359829572607627504,0.0,37.25696243542715,,,2415,7,0.0,16385,239182930168414,54,25.58608055114746,74.4809631204443,0.9842753165652867,21,444.54045818083836,0.10236597635139501,1575420030,,,,0,,1,,21.486080169677734,-0.7566996039129875,1.0,-0.7566996039129875,1.0,C,4148876032448896
Raw,1675794364999,10392000000,,,-1359829572607627504,0.0,37.25696243542715,,,2415,8,0.0,16431,239182925872937,46,27.576982498168945,74.3299096731352,0.8939739811426963,21,585.6225655271156,0.10088721258853352,1575420030,,,,0,,1,,23.47698211669922,-1.222360875687938,1.0,-1.222360875687938,1.0,C,4148876032448896
Raw,1675794364999,10392000000,,,-1359829572607627504,0.0,37.25696243542715,,,2415,9,0.0,16419,239182929674565,25,35.12921905517578,455.5221539169481,0.5550423235975663,17,3190.440953552932,0.09755301839959597,1575420030,,,,0,,1,,31.029218673706055,-1.1641532291423,1.0,-1.1641532291423,1.0,C,4148876032448896
Raw,1675794364999,10392000000,,,-1359829572607627504,0.0,37.25696243542715,,,2415,14,0.0,16431,239182925841946,39,29.76953125,-442.62368232834706,0.7953719699416522,25,-4025.062911098815,0.004459774121642113,1575420030,,,,0,,1,,25.669530868530273,-0.2619344840127561,1.0,-0.2619344840127561,1.0,C,4148876032448896
Raw,1675794364999,10392000000,,,-1359829572607627504,0.0,37.25696243542715,,,2415,20,0.0,16384,239182922062856,1000000000,14.561019897460938,182.6438968583277,299792458,16,769.8870148323525,340282346638528860000000000000000000000,1575420030,,,,0,,1,,10.461019515991211,0.0,1.0,0.0,1.0,C,4148876032448896
Raw,1675794364999,10392000000,,,-1359829572607627504,0.0,37.25696243542715,,,2415,27,0.0,16385,239182921092901,99,18.144800186157227,427.1551208582739,1.3170889734626785,16,3438.0664852409777,340282346638528860000000000000000000000,1575420030,,,,1,,1,,14.0447998046875,-1.4842953845531561,1.0,-1.4842953845531561,1.0,C,4148876032448896
Raw,1675794364999,10392000000,,,-1359829572607627504,0.0,37.25696243542715,,,2415,30,0.0,16385,239182927521489,118,23.047531127929688,-234.282635725516,1.0979548207398007,16,-1168.0118853320346,340282346638528860000000000000000000000,1575420030,,,,0,,1,,18.94753074645996,-1.8044374405541648,1.0,-1.8044374405541648,1.0,C,4148876032448896
Raw,1675794364999,10392000000,,,-1359829572607627504,0.0,37.25696243542715,,,2415,4,0.0,81921,239182921588359,8,33.32610321044922,698.5675937092178,0.6301749688485692,25,9971.66890939791,0.003920190967619419,1176450050,,,,0,,1,,29.32610321044922,-1.77522804402381,7.671281903963041,-1.77522804402381,1.0,Q,4148876032448896
Raw,1675794364999,10392000000,,,-1359829572607627504,0.0,37.25696243542715,,,2415,8,0.0,16384,239182925873500,1000000000,15.976354598999023,73.07613538625884,299792458,16,649.9670681130035,340282346638528860000000000000000000000,1176450050,,,,0,,1,,11.976354598999023,5.849869869574474,7.671281903963041,5.849869869574474,1.0,Q,4148876032448896
Raw,1675794364999,10392000000,,,-1359829572607627504,0.0,37.25696243542715,,,2415,9,0.0,81921,239182929675107,10,33.65922927856445,455.60558777051597,0.6166492927236535,25,3646.209801166607,0.0037726880982518196,1176450050,,,,0,,1,,29.659229278564453,4.365574683841011,7.671281903963041,4.365574683841011,1.0,Q,4148876032448896
Raw,1675794364999,10392000000,,,-1359829572607627504,0.0,37.25696243542715,,,2415,14,0.0,16384,239182925842526,1000000000,12.626693725585938,-442.3674845026651,299792458,16,-4035.7572035176554,340282346638528860000000000000000000000,1176450050,,,,0,,1,,8.626693725585938,0.0,7.671281903963041,0.0,1.0,Q,4148876032448896
Raw,1675794364999,10392000000,,,-1359829572607627504,0.0,37.25696243542715,,,2415,27,0.0,16384,239182921093457,1000000000,11.0,426.3729284810754,299792458,16,3862.0057852095997,340282346638528860000000000000000000000,1176450050,,,,1,,1,,7.0,5.76255859857571,7.671281903963041,5.76255859857571,1.0,Q,4148876032448896
Raw,1675794364999,10392000000,,,-1359829572607627504,0.0,37.25696243542715,,,2415,30,0.0,16384,239182927522060,1000000000,11.0,-234.77604744859673,299792458,16,-1409.2092297471067,340282346638528860000000000000000000000,1176450050,,,,0,,1,,7.0,3.405148317018291,7.671281903963041,3.405148317018291,1.0,Q,4148876032448896
Raw,1675794364999,10392000000,,,-1359829572607627504,0.0,37.25696243542715,,,2415,10,0.0,32867,77164930801201,87,28.4163761138916,509.46612789596975,0.8571139375478727,17,2691.2695574137606,0.09893648119450602,1598062460,,,,0,,3,,24.316375732421875,50.29141902923584,2.0000000474974513,50.29141902923584,2.0000000474974513,C,4148876032448896
Raw,1675794364999,10392000000,,,-1359829572607627504,0.0,37.25696243542715,,,2415,11,0.0,32995,77164932823095,70,31.043296813964844,-79.07028517983855,0.7393480666574099,25,-904.7125097748774,0.0037875506095588207,1602000000,,,,0,,3,,26.943296432495117,50.29141902923584,2.0000000474974513,50.29141902923584,2.0000000474974513,C,4148876032448896
Raw,1675794364999,10392000000,,,-1359829572607627504,0.0,37.25696243542715,,,2415,7,0.0,32995,77164922899658,49,35.49995422363281,897.600960012865,0.5371520960187941,17,8483.863882584757,0.09566761338030583,1604812540,,,,0,,3,,31.39995574951172,50.29141902923584,2.0000000474974513,50.29141902923584,2.0000000474974513,C,4148876032448896
Raw,1675794364999,10392000000,,,-1359829572607627504,0.0,37.25696243542715,,,2415,8,0.0,32995,77164933696990,47,35.97938919067383,480.216768202833,0.5175347133288093,25,5431.066028755225,0.0021411143243312836,1605374980,,,,0,,3,,31.8793888092041,50.29141902923584,2.0000000474974513,50.29141902923584,2.0000000474974513,C,4148876032448896
Raw,1675794364999,10392000000,,,-1359829572607627504,0.0,37.25696243542715,,,2415,1,0.0,85026,239182920554581,22,36.65373229980469,-89.90633359748892,0.15,25,-1045.5326734792834,0.002141307108104229,1575420030,,,,0,,6,,32.553733825683594,-5.122274160385131,1.5000000237487257,-5.122274160385131,1.5000000237487257,C,4148876032448896
Raw,1675794364999,10392000000,,,-1359829572607627504,0.0,37.25696243542715,,,2415,4,0.0,85026,239182918380201,46,27.50411033630371,-238.21748941353098,0.8973422198489418,25,-1652.869480761313,0.005788739304989576,1575420030,,,,0,,6,,23.404109954833984,-5.122274160385131,1.5000000237487257,-5.122274160385131,1.5000000237487257,C,4148876032448896
Raw,1675794364999,10392000000,,,-1359829572607627504,0.0,37.25696243542715,,,2415,19,0.0,85026,239182917123883,39,29.6975154876709,329.57888828612,0.7984813949936775,25,3314.4874870015315,0.004496905021369457,1575420030,,,,0,,6,,25.597515106201172,-5.122274160385131,1.5000000237487257,-5.122274160385131,1.5000000237487257,C,4148876032448896
Raw,1675794364999,10392000000,,,-1359829572607627504,0.0,37.25696243542715,,,2415,1,0.0,84003,239182920555109,52,25.488115310668945,-89.90588200494,0.9860520643134318,25,-1112.224217786702,0.009665103629231453,1176450050,,,,0,,6,,21.488115310668945,-5.122274160385131,8.171281927711767,-5.122274160385131,1.5000000237487257,Q,4148876032448896
Raw,1675794364999,10392000000,,,-1359829572607627504,0.0,37.25696243542715,,,2415,4,0.0,16384,239182918380731,1000000000,16.228652954101562,-238.0099613357636,299792458,16,-1427.8068364050087,340282346638528860000000000000000000000,1176450050,,,,0,,6,,12.228652954101562,-2.536410465836525,8.171281927711767,-2.536410465836525,1.5000000237487257,Q,4148876032448896
Raw,1675794364999,10392000000,,,-1359829572607627504,0.0,37.25696243542715,,,2415,19,0.0,16384,239182917124415,1000000000,11.0,333.32775400889,299792458,16,3082.536038413513,340282346638528860000000000000000000000,1176450050,,,,0,,6,,7.0,-2.35170591622591,8.171281927711767,-2.35170591622591,1.5000000237487257,Q,4148876032448896
Fix,GPS,37.4273841744,-122.1731861125,2.2678614333312703,0.0,12.339554,,1675794364999,0.5895529,,4148875983356041,10.524451
Fix,FLP,37.4273237000,-122.1730445000,0.19999995827674866,0.046998233,14.353,,1675794365368,,,4148875983356041,1.8184978
Nav,10,769,1,-1,3,30,0,48,26,65,-116,-42,103,27,84,8
Nav,11,769,1,3,3,30,2,-79,91,-83,-28,-114,-101,28,-32,120
Nav,7,769,1,3,3,28,0,53,-78,91,68,39,37,-68,-2,-56
Nav,8,769,1,3,3,30,0,53,-92,97,108,-120,-17,-43,93,-128
Raw,1675794365999,11392000000,,,-1359829572607627273,0.0,34.486064847975506,,,2415,4,0.0,16431,239183921585534,29,33.27395248413086,698.3614630121679,0.6370164894571402,17,7585.4664788246755,0.09812598294866061,1575420030,,,,0,,1,,29.173952102661133,-0.20372681261465636,1.0,-0.20372681261465636,1.0,C,4148876953043000
Raw,1675794365999,11392000000,,,-1359829572607627273,0.0,34.486064847975506,,,2415,5,0.0,16385,239183919092081,84,20.257356643676758,-157.4418800009595,1.2255071494977585,16,-789.8856037746946,340282346638528860000000000000000000000,1575420030,,,,0,,1,,16.15735626220703,-0.2619344840127561,1.0,-0.2619344840127561,1.0,C,4148876953043000
Raw,1675794365999,11392000000,,,-1359829572607627273,0.0,34.486064847975506,,,2415,7,0.0,16385,239183930168146,57,25.06871795654297,73.98323996661344,1.0075405206126806,16,519.5453192538829,340282346638528860000000000000000000000,1575420030,,,,0,,1,,20.968717575073242,-0.7566996039129875,1.0,-0.7566996039129875,1.0,C,4148876953043000
Raw,1675794365999,11392000000,,,-1359829572607627273,0.0,34.486064847975506,,,2415,8,0.0,16431,239183925872703,45,27.886201858520508,74.0055980580924,0.8800687382851771,16,659.1595031195529,340282346638528860000000000000000000000,1575420030,,,,0,,1,,23.78620147705078,-1.222360875687938,1.0,-1.222360875687938,1.0,C,4148876953043000
Raw,1675794365999,11392000000,,,-1359829572607627273,0.0,34.486064847975506,,,2415,9,0.0,16419,239183929673054,28,33.495540618896484,455.424882586032,0.6285066592286968,17,3645.894998567779,0.09805094163221097,1575420030,,,,0,,1,,29.39554214477539,-1.1641532291423,1.0,-1.1641532291423,1.0,C,4148876953043000
Raw,1675794365999,11392000000,,,-1359829572607627273,0.0,34.486064847975506,,,2415,14,0.0,16431,239183925843435,39,29.737245559692383,-442.78949347933053,0.7968241355452559,25,-4467.838891866402,0.004476382862776518,1575420030,,,,0,,1,,25.637245178222656,-0.2619344840127561,1.0,-0.2619344840127561,1.0,C,4148876953043000
Raw,1675794365999,11392000000,,,-1359829572607627273,0.0,34.486064847975506,,,2415,20,0.0,16385,239183922062197,129,15.130075454711914,183.60987888232546,299.79283215011856,16,952.8590942659093,340282346638528860000000000000000000000,1575420030,,,,0,,1,,11.030075073242188,0.0,1.0,0.0,1.0,C,4148876953043000
Raw,1675794365999,11392000000,,,-1359829572607627273,0.0,34.486064847975506,,,2415,27,0.0,16385,239183921091449,79,20.949283599853516,427.2574363927554,1.190974298637383,16,3864.448533687438,340282346638528860000000000000000000000,1575420030,,,,1,,1,,16.84928321838379,-1.4842953845531561,1.0,-1.4842953845531561,1.0,C,4148876953043000
Raw,1675794365999,11392000000,,,-1359829572607627273,0.0,34.486064847975506,,,2415,30,0.0,16385,239183927522260,62,23.99354362487793,-234.31022547407122,1.0554137908079269,16,-1403.015837585466,340282346638528860000000000000000000000,1575420030,,,,0,,1,,19.893543243408203,-1.8044374405541648,1.0,-1.8044374405541648,1.0,C,4148876953043000
Raw,1675794365999,11392000000,,,-1359829572607627273,0.0,34.486064847975506,,,2415,4,0.0,81921,239183921586028,7,33.941734313964844,698.5130617787813,0.6024902953265543,25,10670.126268202977,0.003651956096291542,1176450050,,,,0,,1,,29.941734313964844,-1.77522804402381,7.671281903963041,-1.77522804402381,1.0,Q,4148876953043000
Raw,1675794365999,11392000000,,,-1359829572607627273,0.0,34.486064847975506,,,2415,8,0.0,16384,239183925873251,1000000000,15.097797393798828,73.4354582047647,299792458,16,723.6380524655729,340282346638528860000000000000000000000,1176450050,,,,0,,1,,11.097797393798828,5.849869869574474,7.671281903963041,5.849869869574474,1.0,Q,4148876953043000
Raw,1675794365999,11392000000,,,-1359829572607627273,0.0,34.486064847975506,,,2415,9,0.0,81921,239183929673588,7,34.1610107421875,455.4319035720757,0.5940845097847225,25,4101.646440886162,0.003560917219147086,1176450050,,,,0,,1,,30.161008834838867,4.365574683841011,7.671281903963041,4.365574683841011,1.0,Q,4148876953043000
Raw,1675794365999,11392000000,,,-1359829572607627273,0.0,34.486064847975506,,,2415,14,0.0,16384,239183925843988,1000000000,12.994613647460938,-441.7556362431676,299792458,16,-4478.006459685715,340282346638528860000000000000000000000,1176450050,,,,0,,1,,8.994613647460938,0.0,7.671281903963041,0.0,1.0,Q,4148876953043000
Raw,1675794365999,11392000000,,,-1359829572607627273,0.0,34.486064847975506,,,2415,27,0.0,16384,239183921092038,1000000000,12.585575103759766,426.49433019120966,299792458,16,4288.509660433902,340282346638528860000000000000000000000,1176450050,,,,1,,1,,8.585575103759766,5.76255859857571,7.671281903963041,5.76255859857571,1.0,Q,4148876953043000
Raw,1675794365999,11392000000,,,-1359829572607627273,0.0,34.486064847975506,,,2415,30,0.0,16384,239183927522841,1000000000,13.41453742980957,-235.0868112871717,299792458,16,-1643.9791942382199,340282346638528860000000000000000000000,1176450050,,,,1,,1,,9.41453742980957,3.405148317018291,7.671281903963041,3.405148317018291,1.0,Q,4148876953043000
Raw,1675794365999,11392000000,,,-1359829572607627273,0.0,34.486064847975506,,,2415,10,0.0,32867,77165930799534,84,28.804567337036133,509.1950360367873,0.8396570630784042,21,3200.569059103974,0.09871191976399216,1598062460,,,,0,,3,,24.704566955566406,50.29141902923584,2.0000000474974513,50.29141902923584,2.0000000474974513,C,4148876953043000
Raw,1675794365999,11392000000,,,-1359829572607627273,0.0,34.486064847975506,,,2415,11,0.0,32995,77165932823345,67,31.557613372802734,-79.26038008109452,0.7162198581090862,25,-983.9284953183205,0.003569789696484804,1602000000,,,,0,,3,,27.457612991333008,50.29141902923584,2.0000000474974513,50.29141902923584,2.0000000474974513,C,4148876953043000
Raw,1675794365999,11392000000,,,-1359829572607627273,0.0,34.486064847975506,,,2415,7,0.0,32995,77165922896643,49,35.50636291503906,897.4807171062525,0.5368635267824144,17,9381.372553129202,0.09566594468308276,1604812540,,,,0,,3,,31.406362533569336,50.29141902923584,2.0000000474974513,50.29141902923584,2.0000000474974513,C,4148876953043000
Raw,1675794365999,11392000000,,,-1359829572607627273,0.0,34.486064847975506,,,2415,8,0.0,32995,77165933695378,47,36.05305862426758,480.1962505640063,0.15,25,5911.215240628808,0.002123030601069331,1605374980,,,,0,,3,,31.953060150146484,50.29141902923584,2.0000000474974513,50.29141902923584,2.0000000474974513,C,4148876953043000
Raw,1675794365999,11392000000,,,-1359829572607627273,0.0,34.486064847975506,,,2415,1,0.0,85026,239183920554896,25,35.29031753540039,-90.03540386034081,0.5468770124193842,25,-1135.5584062477863,0.002505243057385087,1575420030,,,,1,,6,,31.190317153930664,-5.122274160385131,1.5000000237487257,-5.122274160385131,1.5000000237487257,C,4148876953043000
Raw,1675794365999,11392000000,,,-1359829572607627273,0.0,34.486064847975506,,,2415,4,0.0,85026,239183918381002,47,27.47714614868164,-238.54045477154114,0.8985548097474174,16,-1891.1807728180563,340282346638528860000000000000000000000,1575420030,,,,0,,6,,23.377145767211914,-5.122274160385131,1.5000000237487257,-5.122274160385131,1.5000000237487257,C,4148876953043000
Raw,1675794365999,11392000000,,,-1359829572607627273,0.0,34.486064847975506,,,2415,19,0.0,85026,239183917122779,37,30.430553436279297,329.61320931983846,0.7655173356428198,25,3644.0975306705845,0.004132966045290232,1575420030,,,,0,,6,,26.33055305480957,-5.122274160385131,1.5000000237487257,-5.122274160385131,1.5000000237487257,C,4148876953043000
Raw,1675794365999,11392000000,,,-1359829572607627273,0.0,34.486064847975506,,,2415,1,0.0,84003,239183920555409,48,25.492233276367188,-90.11019781118011,0.9858670072252806,25,-1202.2778350471983,0.009660523384809494,1176450050,,,,0,,6,,21.492233276367188,-5.122274160385131,8.171281927711767,-5.122274160385131,1.5000000237487257,Q,4148876953043000
Raw,1675794365999,11392000000,,,-1359829572607627273,0.0,34.486064847975506,,,2415,4,0.0,16384,239183918381611,1000000000,13.888912200927734,-237.9759640853821,299792458,16,-1665.7773800133284,340282346638528860000000000000000000000,1176450050,,,,0,,6,,9.888912200927734,-2.536410465836525,8.171281927711767,-2.536410465836525,1.5000000237487257,Q,4148876953043000
Raw,1675794365999,11392000000,,,-1359829572607627273,0.0,34.486064847975506,,,2415,19,0.0,16384,239183917123287,1000000000,19.887378692626953,329.55002044544517,299792458,16,3413.327666451637,340282346638528860000000000000000000000,1176450050,,,,0,,6,,15.88737964630127,-2.35170591622591,8.171281927711767,-2.35170591622591,1.5000000237487257,Q,4148876953043000
Raw,1675794365999,11392000000,,,-1359829572607627273,0.0,34.486064847975506,,,2415,21,0.0,16384,239183918939652,1000000000,11.0,356.139926056107,299792458,16,936.7152972512008,340282346638528860000000000000000000000,1176450050,,,,0,,6,,7.0,-7.154024206101893,8.171281927711767,-7.154024206101893,1.5000000237487257,Q,4148876953043000
Status,1675794364999,20,0,6,1,1575420030,39.44,238.0,70.0,1,1,1,35.338963
Status,1675794364999,20,1,6,1,1176450050,26.62,238.0,70.0,1,1,1,22.615015
Status,1675794364999,20,2,1,7,1575420030,25.95,20.0,67.0,1,1,1,21.850906
Status,1675794364999,20,3,6,19,1176450050,19.89,153.0,64.0,0,1,1,15.88738
Status,1675794364999,20,4,6,19,1575420030,30.43,153.0,64.0,1,1,1,26.330553
Status,1675794364999,20,5,3,8,1605374980,39.21,193.0,61.0,1,1,1,35.10555
Status,1675794364999,20,6,1,9,1176450050,34.16,147.0,58.0,1,1,1,30.161009
Status,1675794364999,20,7,1,9,1575420030,34.97,147.0,58.0,1,1,1,30.86882
Status,1675794364999,20,8,3,11,1602000000,35.70,288.0,55.0,1,1,1,31.604633
Status,1675794364999,20,9,6,4,1575420030,32.01,310.0,52.0,0,1,1,27.913149
Status,1675794364999,20,10,1,30,1575420030,24.11,302.0,51.0,0,1,1,20.006271
Status,1675794364999,20,11,3,10,1598062460,29.84,28.0,45.0,1,1,1,25.740467
Status,1675794364999,20,12,1,14,1575420030,29.77,225.0,40.0,1,1,1,25.666302
Status,1675794364999,20,13,1,8,1575420030,28.73,80.0,37.0,1,1,1,24.625216
Status,1675794364999,20,14,1,4,1575420030,34.64,137.0,23.0,1,1,1,30.544756
Status,1675794364999,20,15,1,4,1176450050,33.94,137.0,23.0,1,1,1,29.941734
Status,1675794364999,20,16,1,20,1575420030,18.76,281.0,22.0,0,1,1,14.660539
Status,1675794364999,20,17,1,27,1575420030,21.66,48.0,19.0,1,1,1,17.558922
Status,1675794364999,20,18,1,5,1575420030,20.84,311.0,15.0,0,1,1,16.7353
Status,1675794364999,20,19,3,7,1604812540,36.07,166.0,15.0,1,1,1,31.973791
Fix,GPS,37.4273792388,-122.1731811821,3.325695051324521,0.0,11.39123,,1675794365999,0.48998898,,4148876953043000,9.490115
Fix,FLP,37.4273179000,-122.1730452000,0.19999995827674866,0.051084723,14.952,,1675794366338,,,4148876953043000,1.827862
Nav,14,257,1,23,4,-53,-83,-64,-34,19,119,12,-44,31,96,-47,-33,54,28,-66,124,45,57,-82,88,27,-19,-17,-118,60,107,1,112,36,68,0,-11,51,-24,23,-5,37,119,-103,127
Status,1675794365999,21,0,6,1,1575420030,39.14,238.0,70.0,1,1,1,35.035988
Status,1675794365999,21,1,6,1,1176450050,27.44,238.0,70.0,1,1,1,23.440073
Status,1675794365999,21,2,1,7,1575420030,25.75,20.0,67.0,1,1,1,21.654758
Status,1675794365999,21,3,6,19,1575420030,30.36,153.0,64.0,1,1,1,26.261946
Status,1675794365999,21,4,6,19,1176450050,21.05,153.0,64.0,0,1,1,17.045734
Status,1675794365999,21,5,3,8,1605374980,38.90,193.0,61.0,1,1,1,34.79808
Status,1675794365999,21,6,6,21,1575420030,33.44,43.0,58.0,0,1,1,29.338182
Status,1675794365999,21,7,1,9,1176450050,34.45,147.0,58.0,1,1,1,30.452856
Status,1675794365999,21,8,1,9,1575420030,34.67,147.0,58.0,1,1,1,30.574024
Status,1675794365999,21,9,3,11,1602000000,35.32,288.0,55.0,1,1,1,31.222366
Status,1675794365999,21,10,6,4,1575420030,31.55,310.0,52.0,1,1,1,27.447514
Status,1675794365999,21,11,1,30,1575420030,24.00,302.0,51.0,1,1,1,19.904928
Status,1675794365999,21,12,3,10,1598062460,29.68,28.0,45.0,1,1,1,25.581915
Status,1675794365999,21,13,1,14,1575420030,29.73,225.0,40.0,1,1,1,25.63234
Status,1675794365999,21,14,1,8,1575420030,28.56,80.0,37.0,1,1,1,24.45836
Status,1675794365999,21,15,1,4,1176450050,33.95,137.0,23.0,1,1,1,29.946604
Status,1675794365999,21,16,1,4,1575420030,34.47,137.0,23.0,1,1,1,30.373924
Status,1675794365999,21,17,1,20,1575420030,18.35,281.0,22.0,0,1,1,14.251282
Status,1675794365999,21,18,1,27,1575420030,21.61,48.0,19.0,1,1,1,17.507568
Status,1675794365999,21,19,3,7,1604812540,35.96,166.0,15.0,1,1,1,31.857628
Status,1675794365999,21,20,1,5,1575420030,20.72,311.0,15.0,0,1,1,16.620733
