# 
# Header Description:
# 
# Version: v3.0.5.6 Platform: 13 Manufacturer: Google Model: Pixel 6 Pro
# 
# Raw,utcTimeMillis,TimeNanos,LeapSecond,TimeUncertaintyNanos,FullBiasNanos,BiasNanos,BiasUncertaintyNanos,DriftNanosPerSecond,DriftUncertaintyNanosPerSecond,HardwareClockDiscontinuityCount,Svid,TimeOffsetNanos,State,ReceivedSvTimeNanos,ReceivedSvTimeUncertaintyNanos,Cn0DbHz,PseudorangeRateMetersPerSecond,PseudorangeRateUncertaintyMetersPerSecond,AccumulatedDeltaRangeState,AccumulatedDeltaRangeMeters,AccumulatedDeltaRangeUncertaintyMeters,CarrierFrequencyHz,CarrierCycles,CarrierPhase,CarrierPhaseUncertainty,MultipathIndicator,SnrInDb,ConstellationType,AgcDb,BasebandCn0DbHz,FullInterSignalBiasNanos,FullInterSignalBiasUncertaintyNanos,SatelliteInterSignalBiasNanos,SatelliteInterSignalBiasUncertaintyNanos,CodeType,ChipsetElapsedRealtimeNanos
# 
# UncalAccel,utcTimeMillis,elapsedRealtimeNanos,UncalAccelXMps2,UncalAccelYMps2,UncalAccelZMps2,BiasXMps2,BiasYMps2,BiasZMps2
# 
# Accel,utcTimeMillis,elapsedRealtimeNanos,AccelXMps2,AccelYMps2,AccelZMps2
# 
# UncalGyro,utcTimeMillis,elapsedRealtimeNanos,UncalGyroXRadPerSec,UncalGyroYRadPerSec,UncalGyroZRadPerSec,DriftXRadPerSec,DriftYRadPerSec,DriftZRadPerSec
# 
# Gyro,utcTimeMillis,elapsedRealtimeNanos,GyroXRadPerSec,GyroYRadPerSec,GyroZRadPerSec
# 
# UncalMag,utcTimeMillis,elapsedRealtimeNanos,UncalMagXMicroT,UncalMagYMicroT,UncalMagZMicroT,BiasXMicroT,BiasYMicroT,BiasZMicroT
# 
# Mag,utcTimeMillis,elapsedRealtimeNanos,MagXMicroT,MagYMicroT,MagZMicroT
# 
# OrientationDeg,utcTimeMillis,elapsedRealtimeNanos,yawDeg,rollDeg,pitchDeg
# 
# Fix,Provider,LatitudeDegrees,LongitudeDegrees,AltitudeMeters,SpeedMps,AccuracyMeters,BearingDegrees,UnixTimeMillis,SpeedAccuracyMps,BearingAccuracyDegrees,elapsedRealtimeNanos,VerticalAccuracyMeters
# 
# Nav,Svid,Type,Status,MessageId,Sub-messageId,Data(Bytes)
# 
# Status,UnixTimeMillis,SignalCount,SignalIndex,ConstellationType,Svid,CarrierFrequencyHz,Cn0DbHz,AzimuthDegrees,ElevationDegrees,UsedInFix,HasAlmanacData,HasEphemerisData,BasebandCn0DbHz
# 
Raw,1675902236286,2105000000,,,-1359937452181999551,0.0,200125117.3607878,,,27,6,0.0,17,646017,20,37.98612594604492,187.6766828007685,0.15,16,356.15119476574296,340282346638528860000000000000000000000,1575420030,,,,0,,1,,33.88612747192383,0.320142130558394,1.0,0.320142130558394,1.0,C,4256748872639943
Raw,1675902236286,2105000000,,,-1359937452181999551,0.0,200125117.3607878,,,27,11,0.0,17,930918,18,38.84198760986328,-354.4308953562272,0.15,16,-680.4011414282227,340282346638528860000000000000000000000,1575420030,,,,0,,1,,34.74198913574219,-0.20372681261465636,1.0,-0.20372681261465636,1.0,C,4256748872639943
Raw,1675902236286,2105000000,,,-1359937452181999551,0.0,200125117.3607878,,,27,12,0.0,17,108306,31,32.360206604003906,-382.2445656507971,0.6814383783910687,16,-716.769821496885,340282346638528860000000000000000000000,1575420030,,,,0,,1,,28.260208129882812,-0.6984919076624261,1.0,-0.6984919076624261,1.0,C,4256748872639943
Raw,1675902236286,2105000000,,,-1359937452181999551,0.0,200125117.3607878,,,27,14,0.0,17,866334,33,40.787803649902344,238.95435212355414,0.15,16,420.7637463677921,340282346638528860000000000000000000000,1598062460,,,,0,,3,,36.68780517578125,48.42877388000488,2.0000000474974513,48.42877388000488,2.0000000474974513,C,4256748872639943
Raw,1675902236286,2105000000,,,-1359937452181999551,0.0,200125117.3607878,,,27,24,0.0,17,984655,33,41.22772979736328,509.6602956507802,0.15,16,895.7642160087202,340282346638528860000000000000000000000,1603124990,,,,0,,3,,37.12773132324219,48.42877388000488,2.0000000474974513,48.42877388000488,2.0000000474974513,C,4256748872639943
Raw,1675902236286,2105000000,,,-1359937452181999551,0.0,200125117.3607878,,,27,13,0.0,1074,3483353,135,40.88135528564453,148.011468775837,0.15,16,408.7374669883328,340282346638528860000000000000000000000,1575420030,,,,1,,6,,36.78135681152344,-5.005858838558196,1.5000000237487257,-5.005858838558196,1.5000000237487257,C,4256748872639943
Raw,1675902236286,2105000000,,,-1359937452181999551,0.0,200125117.3607878,,,27,21,0.0,68642,8027496,20,40.845359802246094,52.15560358066378,0.15,17,139.22276173806273,0.09622591225252276,1575420030,,,,0,,6,,36.745361328125,-5.005858838558196,1.5000000237487257,-5.005858838558196,1.5000000237487257,C,4256748872639943
Raw,1675902236286,2105000000,,,-1359937452181999551,0.0,200125117.3607878,,,27,26,0.0,68642,4206317,20,40.35710144042969,-383.63829954538437,0.15,16,-813.2708689384622,340282346638528860000000000000000000000,1575420030,,,,0,,6,,36.257102966308594,-5.005858838558196,1.5000000237487257,-5.005858838558196,1.5000000237487257,C,4256748872639943
Raw,1675902236286,2105000000,,,-1359937452181999551,0.0,200125117.3607878,,,27,13,0.0,16,99976393,1000000000,11.0,147.92692724243216,299792458,16,591.7056745413528,340282346638528860000000000000000000000,1176450050,,,,0,,6,,7.0,-5.190563388168811,8.171281927711767,-5.190563388168811,1.5000000237487257,Q,4256748872639943
Raw,1675902236286,2105000000,,,-1359937452181999551,0.0,200125117.3607878,,,27,21,0.0,16,99977032,1000000000,11.0,52.21113242295357,299792458,16,156.66124439222145,340282346638528860000000000000000000000,1176450050,,,,0,,6,,7.0,-6.852904334664344,8.171281927711767,-6.852904334664344,1.5000000237487257,Q,4256748872639943
Raw,1675902236286,2105000000,,,-1359937452181999551,0.0,200125117.3607878,,,27,26,0.0,16,99979945,1000000000,11.494890213012695,-383.4822359769664,299792458,16,-1534.5787314918448,340282346638528860000000000000000000000,1176450050,,,,0,,6,,7.494890213012695,-1.681176945567131,8.171281927711767,-1.681176945567131,1.5000000237487257,Q,4256748872639943
Status,0,8,0,6,21,1575420030,40.56,47.0,77.0,1,1,1,36.45699
Status,0,8,1,3,14,1598062460,40.70,116.0,72.0,1,1,1,36.60255
Status,0,8,2,6,13,1575420030,40.88,75.0,66.0,1,1,1,36.781357
Status,0,8,3,1,6,1575420030,36.50,78.0,61.0,1,1,1,32.396072
Status,0,8,4,3,24,1603124990,40.78,27.0,56.0,1,1,1,36.678524
Status,0,8,5,1,11,1575420030,37.43,167.0,55.0,1,1,1,33.333008
Status,0,8,6,6,26,1575420030,40.36,191.0,46.0,1,1,1,36.257103
Status,0,8,7,1,12,1575420030,31.08,312.0,43.0,1,1,1,26.984802
Raw,1675902237286,3105000000,,,-1359937452181999341,0.0,200125220.3607878,,,27,6,0.0,17,645390,19,38.689579010009766,187.9350278212114,0.15,16,543.9142747617212,340282346638528860000000000000000000000,1575420030,,,,0,,1,,34.58958053588867,0.320142130558394,1.0,0.320142130558394,1.0,C,4256749887236786
Raw,1675902237286,3105000000,,,-1359937452181999341,0.0,200125220.3607878,,,27,11,0.0,17,932098,19,38.24766540527344,-354.2094616361985,0.15,16,-1035.1002886985243,340282346638528860000000000000000000000,1575420030,,,,0,,1,,34.147666931152344,-0.20372681261465636,1.0,-0.20372681261465636,1.0,C,4256749887236786
Raw,1675902237286,3105000000,,,-1359937452181999341,0.0,200125220.3607878,,,27,12,0.0,17,109575,33,31.803266525268555,-382.54650213313266,0.7054044029507129,16,-1099.290627612546,340282346638528860000000000000000000000,1575420030,,,,0,,1,,27.703266143798828,-0.6984919076624261,1.0,-0.6984919076624261,1.0,C,4256749887236786
Raw,1675902237286,3105000000,,,-1359937452181999341,0.0,200125220.3607878,,,27,6,0.0,16,17645390,1000000000,17.321199417114258,187.42815352780417,299792458,16,1124.828823160959,340282346638528860000000000000000000000,1176450050,,,,0,,1,,13.321199417114258,1.9208527336454408,7.671281903963041,1.9208527336454408,1.0,Q,4256749887236786
Raw,1675902237286,3105000000,,,-1359937452181999341,0.0,200125220.3607878,,,27,11,0.0,16,15932101,1000000000,14.959564208984375,-354.24599802959096,299792458,16,-2126.2697963990095,340282346638528860000000000000000000000,1176450050,,,,0,,1,,10.959564208984375,0.0,7.671281903963041,0.0,1.0,Q,4256749887236786
Raw,1675902237286,3105000000,,,-1359937452181999341,0.0,200125220.3607878,,,27,14,0.0,49,1865542,33,41.027565002441406,239.24650694086768,0.15,17,659.8872450657756,0.09507454911054167,1598062460,,,,0,,3,,36.92756652832031,48.42877388000488,2.0000000474974513,48.42877388000488,2.0000000474974513,C,4256749887236786
Raw,1675902237286,3105000000,,,-1359937452181999341,0.0,200125220.3607878,,,27,24,0.0,17,982932,33,41.1984977722168,509.884149225222,0.15,17,1405.5601087460807,0.09474953062533378,1603124990,,,,0,,3,,37.0984992980957,48.42877388000488,2.0000000474974513,48.42877388000488,2.0000000474974513,C,4256749887236786
Raw,1675902237286,3105000000,,,-1359937452181999341,0.0,200125220.3607878,,,27,13,0.0,68642,7482884,21,42.48906707763672,148.28876364210657,0.15,17,556.9572580717362,0.09603986776255792,1575420030,,,,0,,6,,38.389068603515625,-5.005858838558196,1.5000000237487257,-5.005858838558196,1.5000000237487257,C,4256749887236786
Raw,1675902237286,3105000000,,,-1359937452181999341,0.0,200125220.3607878,,,27,21,0.0,68642,8027327,19,40.8857536315918,52.380769329681726,0.15,17,191.54026254281615,0.09622090569519227,1575420030,,,,0,,6,,36.7857551574707,-5.005858838558196,1.5000000237487257,-5.005858838558196,1.5000000237487257,C,4256749887236786
Raw,1675902237286,3105000000,,,-1359937452181999341,0.0,200125220.3607878,,,27,26,0.0,68642,4207604,21,39.89065933227539,-383.4470969642914,0.15,17,-1196.7702452386388,0.09635128165882802,1575420030,,,,0,,6,,35.7906608581543,-5.005858838558196,1.5000000237487257,-5.005858838558196,1.5000000237487257,C,4256749887236786
Raw,1675902237286,3105000000,,,-1359937452181999341,0.0,200125220.3607878,,,27,13,0.0,16,7482860,1000000000,23.959640502929688,148.04146133757706,299792458,16,739.5187585428891,340282346638528860000000000000000000000,1176450050,,,,0,,6,,19.959640502929688,-5.190563388168811,8.171281927711767,-5.190563388168811,1.5000000237487257,Q,4256749887236786
Raw,1675902237286,3105000000,,,-1359937452181999341,0.0,200125220.3607878,,,27,21,0.0,16,8027323,1000000000,18.280364990234375,52.225698412810004,299792458,16,208.6513757948756,340282346638528860000000000000000000000,1176450050,,,,0,,6,,14.280364990234375,-6.852904334664344,8.171281927711767,-6.852904334664344,1.5000000237487257,Q,4256749887236786
Raw,1675902237286,3105000000,,,-1359937452181999341,0.0,200125220.3607878,,,27,26,0.0,16,4207597,1000000000,15.49593734741211,-383.4822359769664,299792458,16,-1918.6900258821133,340282346638528860000000000000000000000,1176450050,,,,0,,6,,11.49593734741211,-1.681176945567131,8.171281927711767,-1.681176945567131,1.5000000237487257,Q,4256749887236786
Raw,1675902237286,3105000000,,,-1359937452181999341,0.0,200125220.3607878,,,27,27,0.0,16,99583069,1000000000,11.0,430.7236563035817,299792458,16,771.1755447520222,340282346638528860000000000000000000000,1176450050,,,,0,,6,,7.0,-6.298790685832499,8.171281927711767,-6.298790685832499,1.5000000237487257,Q,4256749887236786
Status,0,9,0,6,21,1575420030,40.89,47.0,77.0,1,1,1,36.785755
Status,0,9,1,3,14,1598062460,41.03,116.0,71.0,1,1,1,36.927567
Status,0,9,2,6,13,1176450050,23.96,75.0,66.0,0,1,1,19.95964
Status,0,9,3,6,13,1575420030,42.49,75.0,66.0,1,1,1,38.38907
Status,0,9,4,1,6,1575420030,38.69,78.0,61.0,1,1,1,34.58958
Status,0,9,5,3,24,1603124990,41.20,27.0,56.0,1,1,1,37.0985
Status,0,9,6,1,11,1575420030,38.25,167.0,55.0,1,1,1,34.147667
Status,0,9,7,6,26,1575420030,40.31,191.0,46.0,1,1,1,36.210457
Status,0,9,8,1,12,1575420030,31.80,312.0,43.0,1,1,1,27.703266
Fix,GPS,37.4272769134,-122.1730015847,-5.356896566322412,0.0,39.231476,,1675902237286,1.2011219,,4256749837728852,74.960304
Fix,FLP,37.4272898000,-122.1730171000,0.19999995827674866,0.8265376,25.018,135.06642,1675902239222,1.2011219,,4256749837728852,1.6392305
Nav,24,769,1,-1,14,117,124,48,-92,-81,-32,118,-16,13,-8,-32
Raw,1675902238286,4105000000,,,-1359937452181999109,0.0,200125323.3607878,,,27,6,0.0,17,644741,18,38.82270812988281,188.35318548028977,0.15,17,732.0579463519394,0.09681496772737032,1575420030,,,,0,,1,,34.72270965576172,0.320142130558394,1.0,0.320142130558394,1.0,C,4256750910968721
Raw,1675902238286,4105000000,,,-1359937452181999109,0.0,200125323.3607878,,,27,11,0.0,17,933284,19,38.519065856933594,-353.82160328096893,0.15,17,-1389.1156967795193,0.09687431381371593,1575420030,,,,0,,1,,34.4190673828125,-0.20372681261465636,1.0,-0.20372681261465636,1.0,C,4256750910968721
Raw,1675902238286,4105000000,,,-1359937452181999109,0.0,200125323.3607878,,,27,12,0.0,17,110817,30,32.89825439453125,-380.5120862208296,0.65616417329317,16,-1480.2976235355218,340282346638528860000000000000000000000,1575420030,,,,0,,1,,28.798255920410156,-0.6984919076624261,1.0,-0.6984919076624261,1.0,C,4256750910968721
Raw,1675902238286,4105000000,,,-1359937452181999109,0.0,200125323.3607878,,,27,17,0.0,17,865165,96,23.174325942993164,579.9774135784469,5.8681554724290095,16,1026.5009275530438,340282346638528860000000000000000000000,1575420030,,,,0,,1,,19.074325561523438,-0.7858034271858065,1.0,-0.7858034271858065,1.0,C,4256750910968721
Raw,1675902238286,4105000000,,,-1359937452181999109,0.0,200125323.3607878,,,27,19,0.0,17,35149,48,28.301761627197266,486.22308543339136,5.869805276340067,16,870.3704711246303,340282346638528860000000000000000000000,1575420030,,,,0,,1,,24.20176124572754,0.0,1.0,0.0,1.0,C,4256750910968721
Raw,1675902238286,4105000000,,,-1359937452181999109,0.0,200125323.3607878,,,27,24,0.0,17,809666,44,29.226228713989258,283.30522227124163,5.869944268858074,16,507.0290467716968,340282346638528860000000000000000000000,1575420030,,,,0,,1,,25.12622833251953,-0.20372681261465636,1.0,-0.20372681261465636,1.0,C,4256750910968721
Raw,1675902238286,4105000000,,,-1359937452181999109,0.0,200125323.3607878,,,27,6,0.0,65553,17644722,109,25.950716018676758,188.50270521705534,0.9647260987883475,16,1312.9873148571046,340282346638528860000000000000000000000,1176450050,,,,0,,1,,21.950716018676758,1.9208527336454408,7.671281903963041,1.9208527336454408,1.0,Q,4256750910968721
Raw,1675902238286,4105000000,,,-1359937452181999109,0.0,200125323.3607878,,,27,11,0.0,65553,15933259,75,25.91149139404297,-354.0162822726272,0.9661821252952292,16,-2480.1937564263158,340282346638528860000000000000000000000,1176450050,,,,0,,1,,21.91149139404297,0.0,7.671281903963041,0.0,1.0,Q,4256750910968721
Raw,1675902238286,4105000000,,,-1359937452181999109,0.0,200125323.3607878,,,27,24,0.0,16,15809642,1000000000,15.91622543334961,283.4207447576257,299792458,16,1075.8039833140904,340282346638528860000000000000000000000,1176450050,,,,0,,1,,11.91622543334961,3.5215636101095664,7.671281903963041,3.5215636101095664,1.0,Q,4256750910968721
Raw,1675902238286,4105000000,,,-1359937452181999109,0.0,200125323.3607878,,,27,14,0.0,49,1864732,33,40.49830627441406,239.46915058810293,0.15,17,899.2290904209963,0.095154706298309,1598062460,,,,0,,3,,36.39830780029297,48.42877388000488,2.0000000474974513,48.42877388000488,2.0000000474974513,C,4256750910968721
Raw,1675902238286,4105000000,,,-1359937452181999109,0.0,200125323.3607878,,,27,15,0.0,16,888457741,1000000000,30.040157318115234,-460.45218125297265,299792458,16,-817.774911294365,340282346638528860000000000000000000000,1602000000,,,,0,,3,,25.940156936645508,48.42877388000488,2.0000000474974513,48.42877388000488,2.0000000474974513,C,4256750910968721
Raw,1675902238286,4105000000,,,-1359937452181999109,0.0,200125323.3607878,,,27,24,0.0,99,219981237,33,40.202640533447266,510.14283507023015,0.15,17,1915.5121033524024,0.09490102118513524,1603124990,,,,0,,3,,36.10264205932617,48.42877388000488,2.0000000474974513,48.42877388000488,2.0000000474974513,C,4256750910968721
Raw,1675902238286,4105000000,,,-1359937452181999109,0.0,200125323.3607878,,,27,13,0.0,68642,7482375,14,42.391082763671875,148.59828347101848,0.15,29,705.4431989231423,0.0011061434634029865,1575420030,,,,0,,6,,38.29108428955078,-5.005858838558196,1.5000000237487257,-5.005858838558196,1.5000000237487257,C,4256750910968721
Raw,1675902238286,4105000000,,,-1359937452181999109,0.0,200125323.3607878,,,27,21,0.0,68642,8027144,17,39.992305755615234,52.57252575069319,0.15,25,244.08989123208184,0.00145797582808882,1575420030,,,,0,,6,,35.89230728149414,-5.005858838558196,1.5000000237487257,-5.005858838558196,1.5000000237487257,C,4256750910968721
Raw,1675902238286,4105000000,,,-1359937452181999109,0.0,200125323.3607878,,,27,26,0.0,68642,4208879,17,40.0374641418457,-383.28967009761254,0.15,16,-1580.0096711137612,340282346638528860000000000000000000000,1575420030,,,,0,,6,,35.93746566772461,-5.005858838558196,1.5000000237487257,-5.005858838558196,1.5000000237487257,C,4256750910968721
Raw,1675902238286,4105000000,,,-1359937452181999109,0.0,200125323.3607878,,,27,27,0.0,68642,99581509,200,31.3544979095459,432.13569247732175,0.7244106978460114,16,1638.3805326363827,340282346638528860000000000000000000000,1575420030,,,,0,,6,,27.254497528076172,-5.005858838558196,1.5000000237487257,-5.005858838558196,1.5000000237487257,C,4256750910968721
Raw,1675902238286,4105000000,,,-1359937452181999109,0.0,200125323.3607878,,,27,13,0.0,67619,7482341,50,31.826135635375977,148.5639624373,0.6986870969200161,25,887.9611179959182,0.004659137688577175,1176450050,,,,0,,6,,27.826135635375977,-5.190563388168811,8.171281927711767,-5.190563388168811,1.5000000237487257,Q,4256750910968721
Raw,1675902238286,4105000000,,,-1359937452181999109,0.0,200125323.3607878,,,27,21,0.0,67619,8027115,101,26.341392517089844,52.39235310459242,0.9454277731571787,16,261.1201906686286,340282346638528860000000000000000000000,1176450050,,,,0,,6,,22.341392517089844,-6.852904334664344,8.171281927711767,-6.852904334664344,1.5000000237487257,Q,4256750910968721
Raw,1675902238286,4105000000,,,-1359937452181999109,0.0,200125323.3607878,,,27,26,0.0,67619,4208864,125,21.67742156982422,-383.2818311326123,1.1544745172587731,16,-2302.036477286853,340282346638528860000000000000000000000,1176450050,,,,0,,6,,17.67742156982422,-1.681176945567131,8.171281927711767,-1.681176945567131,1.5000000237487257,Q,4256750910968721
Raw,1675902238286,4105000000,,,-1359937452181999109,0.0,200125323.3607878,,,27,27,0.0,16,99581637,1000000000,11.590328216552734,430.7236563035817,299792458,16,1195.698929565005,340282346638528860000000000000000000000,1176450050,,,,0,,6,,7.590328216552734,-6.298790685832499,8.171281927711767,-6.298790685832499,1.5000000237487257,Q,4256750910968721
Status,1675902237286,18,0,6,21,1575420030,40.80,47.0,77.0,1,1,1,36.69641
Status,1675902237286,18,1,6,21,1176450050,26.34,47.0,77.0,0,1,1,22.341393
Status,1675902237286,18,2,3,14,1598062460,40.97,116.0,71.0,1,1,1,36.87464
Status,1675902237286,18,3,6,13,1176450050,31.83,75.0,66.0,0,1,1,27.826136
Status,1675902237286,18,4,6,13,1575420030,42.48,75.0,66.0,1,1,1,38.37927
Status,1675902237286,18,5,1,6,1575420030,38.82,78.0,61.0,1,1,1,34.72271
Status,1675902237286,18,6,1,6,1176450050,25.95,78.0,61.0,0,1,1,21.950716
Status,1675902237286,18,7,3,24,1603124990,41.10,27.0,56.0,1,1,1,36.998913
Status,1675902237286,18,8,1,11,1176450050,25.91,167.0,55.0,0,1,1,21.911491
Status,1675902237286,18,9,1,24,1575420030,29.23,247.0,55.0,1,1,1,25.126228
Status,1675902237286,18,10,1,11,1575420030,38.52,167.0,55.0,1,1,1,34.419067
Status,1675902237286,18,11,3,15,1602000000,30.04,331.0,48.0,0,1,1,25.940157
Status,1675902237286,18,12,6,26,1176450050,21.68,191.0,46.0,0,1,1,17.677422
Status,1675902237286,18,13,6,26,1575420030,40.28,191.0,46.0,1,1,1,36.18316
Status,1675902237286,18,14,1,19,1575420030,28.30,45.0,44.0,1,1,1,24.201761
Status,1675902237286,18,15,1,12,1575420030,32.90,312.0,43.0,1,1,1,28.798256
Status,1675902237286,18,16,6,27,1575420030,31.35,112.0,30.0,0,1,1,27.254498
Status,1675902237286,18,17,1,17,1575420030,23.17,57.0,16.0,0,1,1,19.074326
Fix,GPS,37.4272198084,-122.1730268818,-2.1935373512439176,0.0,10.154328,,1675902238286,0.85237676,,4256750861577973,20.78206
Fix,FLP,37.4272236000,-122.1730259000,0.19999995827674866,2.5257146,20.063,175.66011,1675902240245,0.85237676,,4256750861577973,1.6495967
Fix,NLP,37.4272329000,-122.1729672000,0.19999995827674866,,16.71,,1675902241034,,,4256751649000000,1.680095
Fix,FLP,37.4272152000,-122.1730260000,0.19999995827674866,1.9310026,20.24,176.98512,1675902241033,0.85237676,,4256751649000000,1.5730207
Raw,1675902239286,5105000000,,,-1359937452181998892,0.0,200125426.3607878,,,27,6,0.0,51,17644111,23,36.18535614013672,188.532476242828,0.15,17,920.4926509406108,0.09740678166326856,1575420030,,,,0,,1,,32.085357666015625,0.320142130558394,1.0,0.320142130558394,1.0,C,4256751939035453
Raw,1675902239286,5105000000,,,-1359937452181998892,0.0,200125426.3607878,,,27,11,0.0,51,15934483,22,36.84727478027344,-353.67239028631207,0.15,17,-1742.8166702121077,0.09724095804904377,1575420030,,,,0,,1,,32.747276306152344,-0.20372681261465636,1.0,-0.20372681261465636,1.0,C,4256751939035453
Raw,1675902239286,5105000000,,,-1359937452181998892,0.0,200125426.3607878,,,27,12,0.0,17,112091,29,33.373451232910156,-380.6419403801815,0.6347954049955384,17,-1860.9849224630084,0.09809205067631578,1575420030,,,,0,,1,,29.27345085144043,-0.6984919076624261,1.0,-0.6984919076624261,1.0,C,4256751939035453
Raw,1675902239286,5105000000,,,-1359937452181998892,0.0,200125426.3607878,,,27,17,0.0,16,5863308,1000000000,20.35242462158203,580.2183765460632,299792458,16,2186.00849384708,340282346638528860000000000000000000000,1575420030,,,,0,,1,,16.252424240112305,-0.7858034271858065,1.0,-0.7858034271858065,1.0,C,4256751939035453
Raw,1675902239286,5105000000,,,-1359937452181998892,0.0,200125426.3607878,,,27,19,0.0,16,15033553,1000000000,23.406429290771484,486.3964628897229,299792458,16,1843.2256891378183,340282346638528860000000000000000000000,1575420030,,,,0,,1,,19.306428909301758,0.0,1.0,0.0,1.0,C,4256751939035453
Raw,1675902239286,5105000000,,,-1359937452181998892,0.0,200125426.3607878,,,27,24,0.0,17,808666,46,27.622655868530273,284.70706779048135,0.8937073125473245,21,1074.847756447677,0.10085710618932521,1575420030,,,,0,,1,,23.522655487060547,-0.20372681261465636,1.0,-0.20372681261465636,1.0,C,4256751939035453
Raw,1675902239286,5105000000,,,-1359937452181998892,0.0,200125426.3607878,,,27,6,0.0,65553,17644076,68,28.692419052124023,188.6870231419307,0.841434676201422,25,1501.4187419157056,0.006683306768536568,1176450050,,,,0,,1,,24.692419052124023,1.9208527336454408,7.671281903963041,1.9208527336454408,1.0,Q,4256751939035453
Raw,1675902239286,5105000000,,,-1359937452181998892,0.0,200125426.3607878,,,27,11,0.0,65553,15934431,73,25.559345245361328,-353.8255568459256,0.9820178863590336,25,-2833.9308315090525,0.009586167521774769,1176450050,,,,0,,1,,21.559345245361328,0.0,7.671281903963041,0.0,1.0,Q,4256751939035453
Raw,1675902239286,5105000000,,,-1359937452181998892,0.0,200125426.3607878,,,27,24,0.0,16,15808719,1000000000,11.0,283.4207447576257,299792458,16,1358.5735188313356,340282346638528860000000000000000000000,1176450050,,,,0,,1,,7.0,3.5215636101095664,7.671281903963041,3.5215636101095664,1.0,Q,4256751939035453
Raw,1675902239286,5105000000,,,-1359937452181998892,0.0,200125426.3607878,,,27,14,0.0,49,1863952,35,39.42201232910156,239.63949470580394,0.15,17,1138.8409342729306,0.09533358379540088,1598062460,,,,0,,3,,35.32201385498047,48.42877388000488,2.0000000474974513,48.42877388000488,2.0000000474974513,C,4256751939035453
Raw,1675902239286,5105000000,,,-1359937452181998892,0.0,200125426.3607878,,,27,15,0.0,17,459224,72,30.7647762298584,-459.7533204819724,0.7510878753143686,17,-1277.2873693236097,0.09747915283918768,1602000000,,,,0,,3,,26.664775848388672,48.42877388000488,2.0000000474974513,48.42877388000488,2.0000000474974513,C,4256751939035453
Raw,1675902239286,5105000000,,,-1359937452181998892,0.0,200125426.3607878,,,27,24,0.0,99,1219979559,41,37.59374237060547,510.27555215593,0.15,17,2425.7327429304787,0.09539097974709213,1603124990,,,,0,,3,,33.493743896484375,48.42877388000488,2.0000000474974513,48.42877388000488,2.0000000474974513,C,4256751939035453
Raw,1675902239286,5105000000,,,-1359937452181998892,0.0,200125426.3607878,,,27,13,0.0,68642,7481879,14,41.74486541748047,148.65486034884634,0.15,25,854.0637980335646,0.0011915776412934065,1575420030,,,,0,,6,,37.644866943359375,-5.005858838558196,1.5000000237487257,-5.005858838558196,1.5000000237487257,C,4256751939035453
Raw,1675902239286,5105000000,,,-1359937452181998892,0.0,200125426.3607878,,,27,21,0.0,68642,8026957,21,37.26837158203125,52.672668528571336,0.15,25,296.7256260605336,0.0019950191490352154,1575420030,,,,0,,6,,33.168373107910156,-5.005858838558196,1.5000000237487257,-5.005858838558196,1.5000000237487257,C,4256751939035453
Raw,1675902239286,5105000000,,,-1359937452181998892,0.0,200125426.3607878,,,27,26,0.0,68642,4210148,18,39.10763168334961,-383.0563416002574,0.15,25,-1963.1519656065611,0.001614299020729959,1575420030,,,,0,,6,,35.007633209228516,-5.005858838558196,1.5000000237487257,-5.005858838558196,1.5000000237487257,C,4256751939035453
Raw,1675902239286,5105000000,,,-1359937452181998892,0.0,200125426.3607878,,,27,27,0.0,68642,99580034,37,30.22527503967285,431.90631754492324,0.7751904294019978,25,2070.3383487595625,0.0042318059131503105,1575420030,,,,0,,6,,26.125274658203125,-5.005858838558196,1.5000000237487257,-5.005858838558196,1.5000000237487257,C,4256751939035453
Raw,1675902239286,5105000000,,,-1359937452181998892,0.0,200125426.3607878,,,27,13,0.0,67619,7481840,12,32.62487030029297,148.65653038921596,0.6627687143212309,25,1036.5762849540065,0.004249801393598318,1176450050,,,,0,,6,,28.6248722076416,-5.190563388168811,8.171281927711767,-5.190563388168811,1.5000000237487257,Q,4256751939035453
Raw,1675902239286,5105000000,,,-1359937452181998892,0.0,200125426.3607878,,,27,21,0.0,67619,8026931,55,28.67384910583496,52.64740064736674,0.8405398785831024,25,313.7528707562262,0.0066976104862987995,1176450050,,,,0,,6,,24.67384910583496,-6.852904334664344,8.171281927711767,-6.852904334664344,1.5000000237487257,Q,4256751939035453
Raw,1675902239286,5105000000,,,-1359937452181998892,0.0,200125426.3607878,,,27,26,0.0,67619,4210123,145,21.5858211517334,-383.15071592236905,1.1585938347871805,16,-2685.1335766565358,340282346638528860000000000000000000000,1176450050,,,,0,,6,,17.5858211517334,-1.681176945567131,8.171281927711767,-1.681176945567131,1.5000000237487257,Q,4256751939035453
Raw,1675902239286,5105000000,,,-1359937452181998892,0.0,200125426.3607878,,,27,27,0.0,16,99580219,1000000000,11.0,425.70283330338043,299792458,16,1619.7876148930768,340282346638528860000000000000000000000,1176450050,,,,0,,6,,7.0,-6.298790685832499,8.171281927711767,-6.298790685832499,1.5000000237487257,Q,4256751939035453
Status,1675902238286,18,0,6,21,1575420030,40.44,47.0,77.0,1,1,1,36.34361
Status,1675902238286,18,1,6,21,1176450050,28.67,47.0,77.0,0,1,1,24.67385
Status,1675902238286,18,2,3,14,1598062460,40.82,116.0,71.0,1,1,1,36.71938
Status,1675902238286,18,3,6,13,1176450050,32.62,75.0,66.0,1,1,1,28.624872
Status,1675902238286,18,4,6,13,1575420030,42.41,75.0,66.0,0,1,1,38.30583
Status,1675902238286,18,5,1,6,1575420030,38.56,78.0,61.0,1,1,1,34.458973
Status,1675902238286,18,6,1,6,1176450050,28.69,78.0,61.0,0,1,1,24.69242
Status,1675902238286,18,7,3,24,1603124990,40.75,27.0,56.0,1,1,1,36.648396
Status,1675902238286,18,8,1,11,1176450050,25.88,167.0,55.0,0,1,1,21.876276
Status,1675902238286,18,9,1,24,1575420030,29.07,247.0,55.0,1,1,1,24.965872
Status,1675902238286,18,10,1,11,1575420030,38.35,167.0,55.0,1,1,1,34.25189
Status,1675902238286,18,11,3,15,1602000000,30.76,331.0,48.0,1,1,1,26.664776
Status,1675902238286,18,12,6,26,1176450050,21.67,191.0,46.0,0,1,1,17.668262
Status,1675902238286,18,13,6,26,1575420030,40.17,191.0,46.0,1,1,1,36.065605
Status,1675902238286,18,14,1,19,1575420030,27.81,45.0,44.0,0,1,1,23.712229
Status,1675902238286,18,15,1,12,1575420030,33.37,312.0,43.0,1,1,1,29.27345
Status,1675902238286,18,16,6,27,1575420030,31.24,112.0,30.0,1,1,1,27.141575
Status,1675902238286,18,17,1,17,1575420030,22.89,57.0,16.0,0,1,1,18.792135
Fix,GPS,37.4272162442,-122.1730419641,1.8134585172961284,0.0,11.128722,,1675902239286,0.6374493,,4256751889914074,21.510424
Fix,FLP,37.4272136000,-122.1730340000,0.19999995827674866,1.7795305,17.962,191.77606,1675902241274,0.6374493,,4256751889914074,1.5761907
Nav,14,769,1,-1,15,125,-59,-48,25,-117,-76,-64,39,-100,3,-24
Nav,24,769,1,-1,15,125,-54,16,-65,-114,-12,-64,42,-104,2,24
Raw,1675902240286,6105000000,,,-1359937452181489446,0.0,1011000.0,,,27,6,0.0,51,17643482,22,36.587890625,188.63722867295087,0.15,17,1108.967973445896,0.09730443699572956,1575420030,,,,0,,1,,32.487892150878906,0.320142130558394,1.0,0.320142130558394,1.0,C,4256752969564913
Raw,1675902240286,6105000000,,,-1359937452181489446,0.0,1011000.0,,,27,11,0.0,51,15935652,22,36.541259765625,-353.58302608530926,0.15,17,-2096.502614672842,0.09731605175238824,1575420030,,,,0,,1,,32.441261291503906,-0.20372681261465636,1.0,-0.20372681261465636,1.0,C,4256752969564913
Raw,1675902240286,6105000000,,,-1359937452181489446,0.0,1011000.0,,,27,12,0.0,17,113341,26,34.451053619384766,-380.59749685687575,0.5863369416844875,17,-2241.7069561947405,0.0977484136010406,1575420030,,,,0,,1,,30.351055145263672,-0.6984919076624261,1.0,-0.6984919076624261,1.0,C,4256752969564913
Raw,1675902240286,6105000000,,,-1359937452181489446,0.0,1011000.0,,,27,17,0.0,17,861349,252,20.6467227935791,580.249459746412,1.205617905963166,16,2766.3831147831183,340282346638528860000000000000000000000,1575420030,,,,0,,1,,16.546722412109375,-0.7858034271858065,1.0,-0.7858034271858065,1.0,C,4256752969564913
Raw,1675902240286,6105000000,,,-1359937452181489446,0.0,1011000.0,,,27,19,0.0,17,31935,80,20.786203384399414,486.4859975030083,1.2009950733934724,16,2328.766672840815,340282346638528860000000000000000000000,1575420030,,,,0,,1,,16.686203002929688,0.0,1.0,0.0,1.0,C,4256752969564913
Raw,1675902240286,6105000000,,,-1359937452181489446,0.0,1011000.0,,,27,24,0.0,17,807719,47,27.45513343811035,284.30883132724057,0.9012404008137382,17,1358.9404917432485,0.10096830796737945,1575420030,,,,0,,1,,23.355133056640625,-0.20372681261465636,1.0,-0.20372681261465636,1.0,C,4256752969564913
Raw,1675902240286,6105000000,,,-1359937452181489446,0.0,1011000.0,,,27,6,0.0,65553,17643456,20,29.557132720947266,188.6947939420179,0.8025493225681091,25,1689.8880543406021,0.006050005089491606,1176450050,,,,0,,1,,25.557132720947266,1.9208527336454408,7.671281903963041,1.9208527336454408,1.0,Q,4256752969564913
Raw,1675902240286,6105000000,,,-1359937452181489446,0.0,1011000.0,,,27,11,0.0,65553,15935610,60,24.939189910888672,-353.55835038678674,1.0099057898415253,25,-3187.5774835313787,0.01029562670737505,1176450050,,,,0,,1,,20.939189910888672,0.0,7.671281903963041,0.0,1.0,Q,4256752969564913
Raw,1675902240286,6105000000,,,-1359937452181489446,0.0,1011000.0,,,27,24,0.0,16,15807772,1000000000,11.54142951965332,283.7315085962007,299792458,16,1642.3097682266125,340282346638528860000000000000000000000,1176450050,,,,0,,1,,7.54142951965332,3.5215636101095664,7.671281903963041,3.5215636101095664,1.0,Q,4256752969564913
Raw,1675902240286,6105000000,,,-1359937452181489446,0.0,1011000.0,,,27,14,0.0,99,221863135,34,39.984737396240234,239.78770226799338,0.15,17,1378.4986381096141,0.09523729901102426,1598062460,,,,0,,3,,35.88473892211914,48.42877388000488,2.0000000474974513,48.42877388000488,2.0000000474974513,C,4256752969564913
Raw,1675902240286,6105000000,,,-1359937452181489446,0.0,1011000.0,,,27,15,0.0,17,460750,65,31.91238784790039,-459.6612296844478,0.7012800263076655,17,-1737.0392347626866,0.09699510235481351,1602000000,,,,0,,3,,27.812387466430664,48.42877388000488,2.0000000474974513,48.42877388000488,2.0000000474974513,C,4256752969564913
Raw,1675902240286,6105000000,,,-1359937452181489446,0.0,1011000.0,,,27,24,0.0,99,219977838,42,37.29753875732422,510.3602811428457,0.15,17,2935.964955997497,0.09545648979189783,1603124990,,,,0,,3,,33.197540283203125,48.42877388000488,2.0000000474974513,48.42877388000488,2.0000000474974513,C,4256752969564913
Raw,1675902240286,6105000000,,,-1359937452181489446,0.0,1011000.0,,,27,1,0.0,67618,2441130,1000000000,30.713346481323242,-302.10505416553906,299792458,16,-1265.7390674148965,340282346638528860000000000000000000000,1575420030,,,,0,,6,,26.613346099853516,-5.005858838558196,1.5000000237487257,-5.005858838558196,1.5000000237487257,C,4256752969564913
Raw,1675902240286,6105000000,,,-1359937452181489446,0.0,1011000.0,,,27,13,0.0,68642,7481376,14,41.96853256225586,148.7600047272192,0.15,25,1002.6903854185053,0.001161285676062107,1575420030,,,,0,,6,,37.868534088134766,-5.005858838558196,1.5000000237487257,-5.005858838558196,1.5000000237487257,C,4256752969564913
Raw,1675902240286,6105000000,,,-1359937452181489446,0.0,1011000.0,,,27,21,0.0,68642,8026785,23,36.2426643371582,52.72181543087723,0.15,25,349.3296585425485,0.0022450832184404135,1575420030,,,,0,,6,,32.14266586303711,-5.005858838558196,1.5000000237487257,-5.005858838558196,1.5000000237487257,C,4256752969564913
Raw,1675902240286,6105000000,,,-1359937452181489446,0.0,1011000.0,,,27,26,0.0,68642,4211416,18,39.21566390991211,-383.08769746025837,0.15,25,-2346.3353379949754,0.0015943452017381787,1575420030,,,,0,,6,,35.115665435791016,-5.005858838558196,1.5000000237487257,-5.005858838558196,1.5000000237487257,C,4256752969564913
Raw,1675902240286,6105000000,,,-1359937452181489446,0.0,1011000.0,,,27,27,0.0,68642,99578578,35,30.954301834106445,431.9785382702951,0.7424066342938427,25,2502.2720807628034,0.0038911185692995787,1575420030,,,,0,,6,,26.85430145263672,-5.005858838558196,1.5000000237487257,-5.005858838558196,1.5000000237487257,C,4256752969564913
Raw,1675902240286,6105000000,,,-1359937452181489446,0.0,1011000.0,,,27,13,0.0,67619,7481346,10,32.446693420410156,148.75376763767554,0.6707812202670924,25,1185.2018660385424,0.004337882157415152,1176450050,,,,0,,6,,28.446691513061523,-5.190563388168811,8.171281927711767,-5.190563388168811,1.5000000237487257,Q,4256752969564913
Raw,1675902240286,6105000000,,,-1359937452181489446,0.0,1011000.0,,,27,21,0.0,67619,8026754,27,29.287790298461914,52.57925703585644,0.8129315577517744,25,366.3409552008616,0.00624054903164506,1176450050,,,,0,,6,,25.287790298461914,-6.852904334664344,8.171281927711767,-6.852904334664344,1.5000000237487257,Q,4256752969564913
Raw,1675902240286,6105000000,,,-1359937452181489446,0.0,1011000.0,,,27,26,0.0,67619,4211391,135,21.630996704101562,-383.10501134817196,1.1565627333937742,16,-3068.3254494183416,340282346638528860000000000000000000000,1176450050,,,,0,,6,,17.630996704101562,-1.681176945567131,8.171281927711767,-1.681176945567131,1.5000000237487257,Q,4256752969564913
Raw,1675902240286,6105000000,,,-1359937452181489446,0.0,1011000.0,,,27,27,0.0,16,99578593,1000000000,11.0,426.3923554812934,299792458,16,2057.8292831225567,340282346638528860000000000000000000000,1176450050,,,,0,,6,,7.0,-6.298790685832499,8.171281927711767,-6.298790685832499,1.5000000237487257,Q,4256752969564913
Status,1675902239286,19,0,6,21,1575420030,40.02,47.0,77.0,1,1,1,35.923515
Status,1675902239286,19,1,6,21,1176450050,29.29,47.0,77.0,0,1,1,25.28779
Status,1675902239286,19,2,3,14,1598062460,40.74,116.0,71.0,1,1,1,36.635914
Status,1675902239286,19,3,6,13,1176450050,32.61,75.0,66.0,1,1,1,28.607054
Status,1675902239286,19,4,6,13,1575420030,42.36,75.0,66.0,0,1,1,38.2621
Status,1675902239286,19,5,1,6,1176450050,29.56,78.0,61.0,1,1,1,25.557133
Status,1675902239286,19,6,1,6,1575420030,38.36,78.0,61.0,0,1,1,34.261864
Status,1675902239286,19,7,3,24,1603124990,40.40,27.0,56.0,1,1,1,36.30331
Status,1675902239286,19,8,1,24,1575420030,28.90,247.0,55.0,1,1,1,24.804798
Status,1675902239286,19,9,1,11,1575420030,38.17,167.0,55.0,1,1,1,34.070824
Status,1675902239286,19,10,1,11,1176450050,25.78,167.0,55.0,0,1,1,21.782568
Status,1675902239286,19,11,3,15,1602000000,31.91,331.0,48.0,1,1,1,27.812387
Status,1675902239286,19,12,6,26,1575420030,40.07,191.0,46.0,1,1,1,35.97061
Status,1675902239286,19,13,6,26,1176450050,21.66,191.0,46.0,0,1,1,17.664536
Status,1675902239286,19,14,1,19,1575420030,27.11,45.0,44.0,1,1,1,23.009626
Status,1675902239286,19,15,1,12,1575420030,34.45,312.0,43.0,1,1,1,30.351055
Status,1675902239286,19,16,6,1,1575420030,30.71,313.0,41.0,0,1,1,26.613346
Status,1675902239286,19,17,6,27,1575420030,31.21,112.0,30.0,1,1,1,27.112848
Status,1675902239286,19,18,1,17,1575420030,22.67,57.0,16.0,0,1,1,18.567595
Fix,GPS,37.4272229636,-122.1730179261,4.434779096386791,0.0,10.419152,,1675902240286,0.61860764,,4256752920202568,23.673502
Fix,FLP,37.4272164000,-122.1730232000,0.19999995827674866,0.7170584,16.453,151.92145,1675902242304,0.61860764,,4256752920202568,1.5874472
Raw,1675902241286,7105000000,,,-1359937452181489218,0.0,53.26899397569286,,,27,6,0.0,16431,347059217642864,17,39.66380310058594,188.90470779174188,0.15,25,1297.7037443997142,0.0015141729963943362,1575420030,,,,0,,1,,35.563804626464844,0.320142130558394,1.0,0.320142130558394,1.0,C,4256753940175428
Raw,1675902241286,7105000000,,,-1359937452181489218,0.0,53.26899397569286,,,27,11,0.0,16431,347059215936815,19,38.372615814208984,-353.1559388226219,0.15,25,-2449.9788820578246,0.0017568505136296153,1575420030,,,,0,,1,,34.27261734008789,-0.20372681261465636,1.0,-0.20372681261465636,1.0,C,4256753940175428
Raw,1675902241286,7105000000,,,-1359937452181489218,0.0,53.26899397569286,,,27,12,0.0,16397,347059214114603,28,33.67597961425781,-380.4001935160652,0.621191445728297,25,-2622.1634042262053,0.00284439860843122,1575420030,,,,0,,1,,29.575979232788086,-0.6984919076624261,1.0,-0.6984919076624261,1.0,C,4256753940175428
Raw,1675902241286,7105000000,,,-1359937452181489218,0.0,53.26899397569286,,,27,17,0.0,16385,347059205859432,82,20.429061889648438,580.363158821372,1.2154055620420232,16,3348.297130580144,340282346638528860000000000000000000000,1575420030,,,,1,,1,,16.32906150817871,-0.7858034271858065,1.0,-0.7858034271858065,1.0,C,4256753940175428
Raw,1675902241286,7105000000,,,-1359937452181489218,0.0,53.26899397569286,,,27,19,0.0,16397,347059215030299,59,24.62760353088379,486.7353788373857,1.028251404305205,16,2814.6196239116316,340282346638528860000000000000000000000,1575420030,,,,1,,1,,20.527603149414062,0.0,1.0,0.0,1.0,C,4256753940175428
Raw,1675902241286,7105000000,,,-1359937452181489218,0.0,53.26899397569286,,,27,24,0.0,16397,347059215806794,55,25.370763778686523,283.98232139375204,0.9949720156642132,16,1643.2261951129904,340282346638528860000000000000000000000,1575420030,,,,0,,1,,21.270763397216797,-0.20372681261465636,1.0,-0.20372681261465636,1.0,C,4256753940175428
Raw,1675902241286,7105000000,,,-1359937452181489218,0.0,53.26899397569286,,,27,6,0.0,81921,347059217643376,37,27.19159507751465,188.7396123723454,0.9089247965482699,25,1878.5387538231198,0.007943877950310707,1176450050,,,,0,,1,,23.19159507751465,1.9208527336454408,7.671281903963041,1.9208527336454408,1.0,Q,4256753940175428
Raw,1675902241286,7105000000,,,-1359937452181489218,0.0,53.26899397569286,,,27,11,0.0,81921,347059215937336,78,23.643333435058594,-353.2748865958865,1.068179201823571,16,-3540.4867190962646,340282346638528860000000000000000000000,1176450050,,,,0,,1,,19.643333435058594,0.0,7.671281903963041,0.0,1.0,Q,4256753940175428
Raw,1675902241286,7105000000,,,-1359937452181489218,0.0,53.26899397569286,,,27,24,0.0,16384,347059215807354,1000000000,14.356241226196289,283.8480365150522,299792458,16,1925.9890290517474,340282346638528860000000000000000000000,1176450050,,,,0,,1,,10.356241226196289,3.5215636101095664,7.671281903963041,3.5215636101095664,1.0,Q,4256753940175428
Raw,1675902241286,7105000000,,,-1359937452181489218,0.0,53.26899397569286,,,27,14,0.0,32867,12241221862921,34,40.040245056152344,240.03868547782736,0.15,17,1618.319904747605,0.09522813468047472,1598062460,,,,0,,3,,35.94024658203125,48.42877388000488,2.0000000474974513,48.42877388000488,2.0000000474974513,C,4256753940175428
Raw,1675902241286,7105000000,,,-1359937452181489218,0.0,53.26899397569286,,,27,18,0.0,32768,12241209338461,1000000000,19.726219177246094,-667.3091413689745,299792458,16,-3418.9081236055313,340282346638528860000000000000000000000,1600312450,,,,0,,3,,15.626219749450684,48.42877388000488,2.0000000474974513,48.42877388000488,2.0000000474974513,C,4256753940175428
Raw,1675902241286,7105000000,,,-1359937452181489218,0.0,53.26899397569286,,,27,15,0.0,32769,12241218462811,80,29.397953033447266,-459.38219661289554,0.8143516379177922,21,-2196.7114341407246,0.0981456552366951,1602000000,,,,0,,3,,25.29795265197754,48.42877388000488,2.0000000474974513,48.42877388000488,2.0000000474974513,C,4256753940175428
Raw,1675902241286,7105000000,,,-1359937452181489218,0.0,53.26899397569286,,,27,24,0.0,32867,12241219976712,35,39.496131896972656,510.62663554057144,0.15,17,3446.4031104236915,0.09501952988727927,1603124990,,,,0,,3,,35.39613342285156,48.42877388000488,2.0000000474974513,48.42877388000488,2.0000000474974513,C,4256753940175428
Raw,1675902241286,7105000000,,,-1359937452181489218,0.0,53.26899397569286,,,27,17,0.0,32769,12241221451057,52,34.693702697753906,-235.17620957063104,0.5749464782068876,16,-748.2347218448112,340282346638528860000000000000000000000,1604249980,,,,0,,3,,30.593704223632812,48.42877388000488,2.0000000474974513,48.42877388000488,2.0000000474974513,C,4256753940175428
Raw,1675902241286,7105000000,,,-1359937452181489218,0.0,53.26899397569286,,,27,1,0.0,85026,347059202442179,136,26.494794845581055,-302.0415926314936,0.9427411835813895,16,-1565.8629641915868,340282346638528860000000000000000000000,1575420030,,,,0,,6,,22.394794464111328,-5.005858838558196,1.5000000237487257,-5.005858838558196,1.5000000237487257,C,4256753940175428
Raw,1675902241286,7105000000,,,-1359937452181489218,0.0,53.26899397569286,,,27,13,0.0,85026,347059207480887,13,42.72248077392578,149.06759889733758,0.15,25,1151.4887824711907,0.0010647352319210768,1575420030,,,,0,,6,,38.62248229980469,-5.005858838558196,1.5000000237487257,-5.005858838558196,1.5000000237487257,C,4256753940175428
Raw,1675902241286,7105000000,,,-1359937452181489218,0.0,53.26899397569286,,,27,21,0.0,85026,347059208026614,19,38.18834686279297,53.03322257581908,0.15,25,402.09738262241547,0.0017945197178050876,1575420030,,,,0,,6,,34.088348388671875,-5.005858838558196,1.5000000237487257,-5.005858838558196,1.5000000237487257,C,4256753940175428
Raw,1675902241286,7105000000,,,-1359937452181489218,0.0,53.26899397569286,,,27,26,0.0,85026,347059204212706,18,39.07398223876953,-382.70979118233345,0.15,25,-2729.336417702206,0.0016205650754272938,1575420030,,,,0,,6,,34.97398376464844,-5.005858838558196,1.5000000237487257,-5.005858838558196,1.5000000237487257,C,4256753940175428
Raw,1675902241286,7105000000,,,-1359937452181489218,0.0,53.26899397569286,,,27,27,0.0,85026,347059199577130,24,35.76633834838867,432.38057492743815,0.5260143552876568,25,2934.3356746956624,0.0023716397117823362,1575420030,,,,0,,6,,31.666339874267578,-5.005858838558196,1.5000000237487257,-5.005858838558196,1.5000000237487257,C,4256753940175428
Raw,1675902241286,7105000000,,,-1359937452181489218,0.0,53.26899397569286,,,27,13,0.0,84003,347059207481402,11,32.33085250854492,149.1455625166335,0.6759902444620591,25,1333.9810634257806,0.004396121483296156,1176450050,,,,0,,6,,28.330852508544922,-5.190563388168811,8.171281927711767,-5.190563388168811,1.5000000237487257,Q,4256753940175428
Raw,1675902241286,7105000000,,,-1359937452181489218,0.0,53.26899397569286,,,27,21,0.0,84003,347059208027132,18,30.29477310180664,53.10303196739193,0.7676486873868575,25,419.1129705208886,0.005557425785809755,1176450050,,,,0,,6,,26.29477310180664,-6.852904334664344,8.171281927711767,-6.852904334664344,1.5000000237487257,Q,4256753940175428
Raw,1675902241286,7105000000,,,-1359937452181489218,0.0,53.26899397569286,,,27,26,0.0,84003,347059204213227,63,25.160709381103516,-382.881669010578,0.9978356076851083,16,-3451.3729707509992,340282346638528860000000000000000000000,1176450050,,,,0,,6,,21.160709381103516,-1.681176945567131,8.171281927711767,-1.681176945567131,1.5000000237487257,Q,4256753940175428
Raw,1675902241286,7105000000,,,-1359937452181489218,0.0,53.26899397569286,,,27,27,0.0,16384,347059199577705,1000000000,14.483585357666016,431.6559478193067,299792458,16,2489.584964560974,340282346638528860000000000000000000000,1176450050,,,,0,,6,,10.483585357666016,-6.298790685832499,8.171281927711767,-6.298790685832499,1.5000000237487257,Q,4256753940175428
Status,1675902240286,21,0,6,21,1575420030,39.84,47.0,77.0,1,1,1,35.739998
Status,1675902240286,21,1,6,21,1176450050,30.29,47.0,77.0,1,1,1,26.294773
Status,1675902240286,21,2,3,14,1598062460,40.67,116.0,71.0,1,1,1,36.566345
Status,1675902240286,21,3,6,13,1176450050,32.58,75.0,66.0,1,1,1,28.579433
Status,1675902240286,21,4,6,13,1575420030,42.72,75.0,66.0,1,1,1,38.622482
Status,1675902240286,21,5,3,17,1604249980,34.69,230.0,63.0,1,1,1,30.593704
Status,1675902240286,21,6,1,6,1575420030,39.66,78.0,61.0,1,1,1,35.563805
Status,1675902240286,21,7,1,6,1176450050,29.32,78.0,61.0,1,1,1,25.32058
Status,1675902240286,21,8,3,24,1603124990,40.31,27.0,56.0,1,1,1,36.212593
Status,1675902240286,21,9,1,24,1575420030,28.55,247.0,55.0,1,1,1,24.451395
Status,1675902240286,21,10,1,11,1176450050,25.57,167.0,55.0,1,1,1,21.568645
Status,1675902240286,21,11,1,11,1575420030,38.37,167.0,55.0,1,1,1,34.272617
Status,1675902240286,21,12,3,15,1602000000,31.66,331.0,48.0,1,1,1,27.560944
Status,1675902240286,21,13,6,26,1575420030,39.97,191.0,46.0,1,1,1,35.87095
Status,1675902240286,21,14,6,26,1176450050,25.16,191.0,46.0,1,1,1,21.16071
Status,1675902240286,21,15,1,19,1575420030,26.86,45.0,44.0,1,1,1,22.761425
Status,1675902240286,21,16,1,12,1575420030,34.37,312.0,43.0,1,1,1,30.273548
Status,1675902240286,21,17,6,1,1575420030,30.29,313.0,41.0,1,1,1,26.19149
Status,1675902240286,21,18,6,27,1575420030,35.77,112.0,30.0,1,1,1,31.66634
Status,1675902240286,21,19,1,17,1575420030,22.44,57.0,16.0,1,1,1,18.34374
Status,1675902240286,21,20,3,18,1600312450,19.73,218.0,14.0,0,1,1,15.62622
Fix,GPS,37.4272317730,-122.1729591514,10.096336557618192,0.0,10.682058,,1675902241286,0.34093377,,4256753890954562,18.83932
Fix,FLP,37.4272260000,-122.1729760000,0.19999995827674866,2.2119384,15.491,85.20555,1675902243275,0.34093377,,4256753890954562,1.5972757
Raw,1675902242286,8105000000,,,-1359937452181489003,0.0,48.591730452782386,,,27,6,0.0,16431,347060217642239,23,36.34431838989258,189.72856597203952,0.15,16,1488.1389943676684,340282346638528860000000000000000000000,1575420030,,,,0,,1,,32.244319915771484,0.320142130558394,1.0,0.320142130558394,1.0,C,4256754960952772
Raw,1675902242286,8105000000,,,-1359937452181489003,0.0,48.591730452782386,,,27,11,0.0,16431,347060215937995,27,34.262882232666016,-352.41641768099,0.5951270202370735,16,-2802.2860486500044,340282346638528860000000000000000000000,1575420030,,,,1,,1,,30.162883758544922,-0.20372681261465636,1.0,-0.20372681261465636,1.0,C,4256754960952772
Raw,1675902242286,8105000000,,,-1359937452181489003,0.0,48.591730452782386,,,27,12,0.0,16397,347060214115895,38,29.86075782775879,-380.4203362478702,0.7927578721532718,16,-3002.670593401158,340282346638528860000000000000000000000,1575420030,,,,0,,1,,25.760757446289062,-0.6984919076624261,1.0,-0.6984919076624261,1.0,C,4256754960952772
Raw,1675902242286,8105000000,,,-1359937452181489003,0.0,48.591730452782386,,,27,17,0.0,16385,347060205857502,89,19.5148868560791,580.6202768733801,1.2565145962615558,16,3928.483578197283,340282346638528860000000000000000000000,1575420030,,,,0,,1,,15.414886474609375,-0.7858034271858065,1.0,-0.7858034271858065,1.0,C,4256754960952772
Raw,1675902242286,8105000000,,,-1359937452181489003,0.0,48.591730452782386,,,27,19,0.0,16397,347060215028660,55,25.490402221679688,486.87331053893354,0.9894521221880717,16,3302.5311364848753,340282346638528860000000000000000000000,1575420030,,,,0,,1,,21.39040184020996,0.0,1.0,0.0,1.0,C,4256754960952772
Raw,1675902242286,8105000000,,,-1359937452181489003,0.0,48.591730452782386,,,27,24,0.0,16397,347060215805824,77,21.29370880126953,286.3682637626314,1.1783123997699674,16,1927.6691510669013,340282346638528860000000000000000000000,1575420030,,,,0,,1,,17.193708419799805,-0.20372681261465636,1.0,-0.20372681261465636,1.0,C,4256754960952772
Raw,1675902242286,8105000000,,,-1359937452181489003,0.0,48.591730452782386,,,27,6,0.0,81921,347060217642753,46,26.2749080657959,188.72689961606238,0.9501471283088216,16,2069.287779511514,340282346638528860000000000000000000000,1176450050,,,,0,,1,,22.2749080657959,1.9208527336454408,7.671281903963041,1.9208527336454408,1.0,Q,4256754960952772
Raw,1675902242286,8105000000,,,-1359937452181489003,0.0,48.591730452782386,,,27,11,0.0,81921,347060215938514,113,21.938871383666992,-353.2981649136916,1.144827185043881,16,-3892.652214618386,340282346638528860000000000000000000000,1176450050,,,,0,,1,,17.938871383666992,0.0,7.671281903963041,0.0,1.0,Q,4256754960952772
Raw,1675902242286,8105000000,,,-1359937452181489003,0.0,48.591730452782386,,,27,24,0.0,16384,347060215806398,1000000000,11.0,283.47415196699694,299792458,16,2209.7297396910003,340282346638528860000000000000000000000,1176450050,,,,0,,1,,7.0,3.5215636101095664,7.671281903963041,3.5215636101095664,1.0,Q,4256754960952772
Raw,1675902242286,8105000000,,,-1359937452181489003,0.0,48.591730452782386,,,27,14,0.0,32867,12242221862173,48,35.636287689208984,240.61455970446502,0.5308347263138571,16,1858.5247270758407,340282346638528860000000000000000000000,1598062460,,,,1,,3,,31.536287307739258,48.42877388000488,2.0000000474974513,48.42877388000488,2.0000000474974513,C,4256754960952772
Raw,1675902242286,8105000000,,,-1359937452181489003,0.0,48.591730452782386,,,27,18,0.0,32769,12242209340614,539,18.932878494262695,-667.3283638744533,299.7941272834664,16,-4085.0519841716196,340282346638528860000000000000000000000,1600312450,,,,0,,3,,14.832878112792969,48.42877388000488,2.0000000474974513,48.42877388000488,2.0000000474974513,C,4256754960952772
Raw,1675902242286,8105000000,,,-1359937452181489003,0.0,48.591730452782386,,,27,15,0.0,32769,12242218464318,93,27.585779190063477,-459.837129242562,0.8958432574349171,16,-2655.5654950725143,340282346638528860000000000000000000000,1602000000,,,,0,,3,,23.48577880859375,48.42877388000488,2.0000000474974513,48.42877388000488,2.0000000474974513,C,4256754960952772
Raw,1675902242286,8105000000,,,-1359937452181489003,0.0,48.591730452782386,,,27,24,0.0,32867,12242219975005,47,35.9218864440918,510.5725125996132,0.5212496345224977,16,3957.3510189353237,340282346638528860000000000000000000000,1603124990,,,,0,,3,,31.821887969970703,48.42877388000488,2.0000000474974513,48.42877388000488,2.0000000474974513,C,4256754960952772
Raw,1675902242286,8105000000,,,-1359937452181489003,0.0,48.591730452782386,,,27,17,0.0,32769,12242221451928,261,30.206235885620117,-234.91772822036205,0.7749441969670801,16,-982.4239073665987,340282346638528860000000000000000000000,1604249980,,,,0,,3,,26.10623550415039,48.42877388000488,2.0000000474974513,48.42877388000488,2.0000000474974513,C,4256754960952772
Raw,1675902242286,8105000000,,,-1359937452181489003,0.0,48.591730452782386,,,27,1,0.0,85026,347060202443176,62,23.87603187561035,-302.15137222395356,1.060504058943447,16,-1864.3489845551408,340282346638528860000000000000000000000,1575420030,,,,0,,6,,19.776031494140625,-5.005858838558196,1.5000000237487257,-5.005858838558196,1.5000000237487257,C,4256754960952772
Raw,1675902242286,8105000000,,,-1359937452181489003,0.0,48.591730452782386,,,27,13,0.0,85026,347060207480383,20,37.99545669555664,150.4772152166645,0.15,16,1304.252143462615,340282346638528860000000000000000000000,1575420030,,,,1,,6,,33.89545822143555,-5.005858838558196,1.5000000237487257,-5.005858838558196,1.5000000237487257,C,4256754960952772
Raw,1675902242286,8105000000,,,-1359937452181489003,0.0,48.591730452782386,,,27,21,0.0,85026,347060208026428,25,35.148338317871094,53.38745006707478,0.5531664238592049,16,457.2781082115496,340282346638528860000000000000000000000,1575420030,,,,1,,6,,31.04833984375,-5.005858838558196,1.5000000237487257,-5.005858838558196,1.5000000237487257,C,4256754960952772
Raw,1675902242286,8105000000,,,-1359937452181489003,0.0,48.591730452782386,,,27,26,0.0,85026,347060204213985,25,35.27722930908203,-380.82506541907856,0.5474041255677746,16,-3110.7382147346275,340282346638528860000000000000000000000,1575420030,,,,1,,6,,31.177230834960938,-5.005858838558196,1.5000000237487257,-5.005858838558196,1.5000000237487257,C,4256754960952772
Raw,1675902242286,8105000000,,,-1359937452181489003,0.0,48.591730452782386,,,27,27,0.0,85026,347060199575691,32,32.06380844116211,433.29872222370614,0.6925127803382578,16,3367.783072981666,340282346638528860000000000000000000000,1575420030,,,,0,,6,,27.963809967041016,-5.005858838558196,1.5000000237487257,-5.005858838558196,1.5000000237487257,C,4256754960952772
Raw,1675902242286,8105000000,,,-1359937452181489003,0.0,48.591730452782386,,,27,1,0.0,16384,347060202443773,1000000000,20.34112548828125,-302.28984924480574,299792458,16,-2485.633485349414,340282346638528860000000000000000000000,1176450050,,,,0,,6,,16.34112548828125,-5.5599724873900405,8.171281927711767,-5.5599724873900405,1.5000000237487257,Q,4256754960952772
Raw,1675902242286,8105000000,,,-1359937452181489003,0.0,48.591730452782386,,,27,13,0.0,84003,347060207480907,42,27.597211837768555,149.603886350724,0.8888566866842305,16,1482.6981745467306,340282346638528860000000000000000000000,1176450050,,,,0,,6,,23.597211837768555,-5.190563388168811,8.171281927711767,-5.190563388168811,1.5000000237487257,Q,4256754960952772
Raw,1675902242286,8105000000,,,-1359937452181489003,0.0,48.591730452782386,,,27,21,0.0,84003,347060208026952,49,25.790977478027344,53.87064131350573,0.9701791586974013,16,474.82996171896167,340282346638528860000000000000000000000,1176450050,,,,0,,6,,21.790977478027344,-6.852904334664344,8.171281927711767,-6.852904334664344,1.5000000237487257,Q,4256754960952772
Raw,1675902242286,8105000000,,,-1359937452181489003,0.0,48.591730452782386,,,27,26,0.0,84003,347060204214508,90,23.476696014404297,-382.8863383071216,1.0735640968195792,16,-3833.696159384677,340282346638528860000000000000000000000,1176450050,,,,0,,6,,19.476696014404297,-1.681176945567131,8.171281927711767,-1.681176945567131,1.5000000237487257,Q,4256754960952772
Raw,1675902242286,8105000000,,,-1359937452181489003,0.0,48.591730452782386,,,27,27,0.0,16384,347060199576241,1000000000,15.700828552246094,431.6559478193067,299792458,16,2921.5457914891595,340282346638528860000000000000000000000,1176450050,,,,0,,6,,11.700828552246094,-6.298790685832499,8.171281927711767,-6.298790685832499,1.5000000237487257,Q,4256754960952772
Status,1675902241286,22,0,6,21,1575420030,39.37,47.0,77.0,1,1,1,35.270832
Status,1675902241286,22,1,6,21,1176450050,29.84,47.0,77.0,1,1,1,25.844393
Status,1675902241286,22,2,3,14,1598062460,40.16,116.0,71.0,1,1,1,36.06334
Status,1675902241286,22,3,6,13,1176450050,32.08,75.0,66.0,1,1,1,28.081211
Status,1675902241286,22,4,6,13,1575420030,42.25,75.0,66.0,1,1,1,38.14978
Status,1675902241286,22,5,3,17,1604249980,34.24,230.0,63.0,1,1,1,30.144957
Status,1675902241286,22,6,1,6,1575420030,39.33,78.0,61.0,1,1,1,35.231857
Status,1675902241286,22,7,1,6,1176450050,29.02,78.0,61.0,1,1,1,25.016012
Status,1675902241286,22,8,3,24,1603124990,39.87,27.0,56.0,1,1,1,35.77352
Status,1675902241286,22,9,1,24,1575420030,27.83,247.0,55.0,1,1,1,23.725626
Status,1675902241286,22,10,1,11,1176450050,25.21,167.0,55.0,1,1,1,21.205667
Status,1675902241286,22,11,1,11,1575420030,37.96,167.0,55.0,1,1,1,33.861645
Status,1675902241286,22,12,3,15,1602000000,31.25,331.0,48.0,1,1,1,27.153427
Status,1675902241286,22,13,6,26,1176450050,24.99,191.0,46.0,1,1,1,20.992308
Status,1675902241286,22,14,6,26,1575420030,39.50,191.0,46.0,1,1,1,35.401577
Status,1675902241286,22,15,1,19,1575420030,26.72,45.0,44.0,1,1,1,22.624323
Status,1675902241286,22,16,1,12,1575420030,33.92,312.0,43.0,1,1,1,29.82227
Status,1675902241286,22,17,6,1,1575420030,29.65,313.0,41.0,1,1,1,25.549944
Status,1675902241286,22,18,6,1,1176450050,20.34,313.0,41.0,0,1,1,16.341125
Status,1675902241286,22,19,6,27,1575420030,35.40,112.0,30.0,1,1,1,31.296087
Status,1675902241286,22,20,1,17,1575420030,22.15,57.0,16.0,0,1,1,18.050856
Status,1675902241286,22,21,3,18,1600312450,19.65,218.0,14.0,0,1,1,15.5468855
Fix,GPS,37.4272355949,-122.1729483870,9.091553763500503,0.0,9.945851,,1675902242286,20.0,,4256754917197279,17.248621
Fix,FLP,37.4272337000,-122.1729489000,0.19999995827674866,2.3176563,10.61,77.67483,1675902244302,20.0,,4256754917197279,1.6067693
Raw,1675902243000,8819000000,,,-1359937452181488847,0.0,45.473703222880296,,,27,6,0.0,16431,347060931641782,29,33.33326721191406,189.1077710677048,0.636157971016174,16,1623.3318865814015,340282346638528860000000000000000000000,1575420030,,,,0,,1,,29.23326873779297,0.320142130558394,1.0,0.320142130558394,1.0,C,4256755658258314
Raw,1675902243000,8819000000,,,-1359937452181488847,0.0,45.473703222880296,,,27,11,0.0,16431,347060929938844,41,29.081382751464844,-352.56805053005996,0.8270542094042224,16,-3053.2724935606734,340282346638528860000000000000000000000,1575420030,,,,1,,1,,24.981382369995117,-0.20372681261465636,1.0,-0.20372681261465636,1.0,C,4256755658258314
Raw,1675902243000,8819000000,,,-1359937452181488847,0.0,45.473703222880296,,,27,12,0.0,16431,347060928116833,43,28.361780166625977,-380.44705689378407,0.8590861934499388,16,-3274.495282271671,340282346638528860000000000000000000000,1575420030,,,,0,,1,,24.26177978515625,-0.6984919076624261,1.0,-0.6984919076624261,1.0,C,4256755658258314
Raw,1675902243000,8819000000,,,-1359937452181488847,0.0,45.473703222880296,,,27,17,0.0,16385,347060919856096,93,18.889284133911133,580.5846947887703,1.2836193354842997,16,4342.147182001101,340282346638528860000000000000000000000,1575420030,,,,0,,1,,14.789284706115723,-0.7858034271858065,1.0,-0.7858034271858065,1.0,C,4256755658258314
Raw,1675902243000,8819000000,,,-1359937452181488847,0.0,45.473703222880296,,,27,19,0.0,16397,347060929027478,47,27.240055084228516,487.0193879475903,0.9096926503295015,21,3650.2157050264955,0.10111425878767645,1575420030,,,,0,,1,,23.14005470275879,0.0,1.0,0.0,1.0,C,4256755658258314
Raw,1675902243000,8819000000,,,-1359937452181488847,0.0,45.473703222880296,,,27,24,0.0,16397,347060929805149,93,18.881242752075195,283.92898234929385,1.285719001194539,16,2130.7824427289374,340282346638528860000000000000000000000,1575420030,,,,0,,1,,14.781242370605469,-0.20372681261465636,1.0,-0.20372681261465636,1.0,C,4256755658258314
Raw,1675902243000,8819000000,,,-1359937452181488847,0.0,45.473703222880296,,,27,6,0.0,81921,347060931642306,53,25.523788452148438,188.99410607520122,0.9828447187662013,16,2205.880824872319,340282346638528860000000000000000000000,1176450050,,,,0,,1,,21.523788452148438,1.9208527336454408,7.671281903963041,1.9208527336454408,1.0,Q,4256755658258314
Raw,1675902243000,8819000000,,,-1359937452181488847,0.0,45.473703222880296,,,27,11,0.0,81921,347060929939360,65,24.090206146240234,-353.545262723482,1.0470050763049876,16,-4144.0313755676925,340282346638528860000000000000000000000,1176450050,,,,0,,1,,20.090206146240234,0.0,7.671281903963041,0.0,1.0,Q,4256755658258314
Raw,1675902243000,8819000000,,,-1359937452181488847,0.0,45.473703222880296,,,27,24,0.0,16384,347060929805722,1000000000,11.0,283.7315085962007,299792458,16,2412.31831098797,340282346638528860000000000000000000000,1176450050,,,,0,,1,,7.0,3.5215636101095664,7.671281903963041,3.5215636101095664,1.0,Q,4256755658258314
Raw,1675902243000,8819000000,,,-1359937452181488847,0.0,45.473703222880296,,,27,14,0.0,32867,12242935861515,71,30.905763626098633,240.51152843839657,0.743970566390614,16,2030.051163860389,340282346638528860000000000000000000000,1598062460,,,,1,,3,,26.805763244628906,48.42877388000488,2.0000000474974513,48.42877388000488,2.0000000474974513,C,4256755658258314
Raw,1675902243000,8819000000,,,-1359937452181488847,0.0,45.473703222880296,,,27,18,0.0,32769,12242923342412,604,18.094669342041016,-665.7079475615328,299.7930707273142,16,-4560.006653468395,340282346638528860000000000000000000000,1600312450,,,,1,,3,,13.994668960571289,48.42877388000488,2.0000000474974513,48.42877388000488,2.0000000474974513,C,4256755658258314
